     2.10           OBSERVATION DATA    G (GPS)             RINEX VERSION / TYPE
TPS2RIN 1.20        RUN BY              26-MAY-08 09:57     PGM / RUN BY / DATE
build May 16, 2002 (c) Topcon Positioning Systems           COMMENT
RUN BY;COMMENT;MARKER NAME;MARKER NUMBER;OBSERVER;AGENCY;   COMMENT
ANT #;ANT TYPE - You can set in profile.                    COMMENT
g1-0522a.tps                                                COMMENT
W310                                                        MARKER NAME
W310                                                        MARKER NUMBER
OBSERVER            AGENCY                                  OBSERVER / AGENCY
8RRHTDPW5C0         TPS HIPER           3.0 Jun,16,2006     REC # / TYPE / VERS
g1-0522a            -Unknown-                               ANT # / TYPE
 -2267420.0727  5008962.1754  3221795.4083                  APPROX POSITION XYZ
        1.2386        0.0000        0.0000                  ANTENNA: DELTA H/E/N
     1     1                                                WAVELENGTH FACT L1/2
  2008     5    22     0    38   40.0000000     GPS         TIME OF FIRST OBS
  2008     5    22     1    54    0.0000000     GPS         TIME OF LAST OBS
    10.000                                                  INTERVAL
    14                                                      LEAP SECONDS
    10                                                      # OF SATELLITES
     7    C1    P1    P2    L1    L2    D1    D2            # / TYPES OF OBSERV
   G 2   453   452   452   453   452   453   452            PRN / # OF OBS
   G 4    32    31    31    32    31    32    31            PRN / # OF OBS
   G 8   339   339   339   339   339   339   339            PRN / # OF OBS
   G10   453   453   453   453   453   453   453            PRN / # OF OBS
   G15   453   453   453   453   453   453   453            PRN / # OF OBS
   G18    57    57    57    57    57    57    57            PRN / # OF OBS
   G21   181   181   181   181   181   181   181            PRN / # OF OBS
   G24   453   453   453   453   453   453   453            PRN / # OF OBS
   G26   453   453   453   453   453   453   453            PRN / # OF OBS
   G29   453   453   453   453   453   453   453            PRN / # OF OBS
SE TPS 7040cb3f                                             COMMENT
                                                            END OF HEADER
 08  5 22  0 38 40.0000000  0  8G 2G 4G 8G10G15G24G26G29            
  22282135.892 7                                 117093419.653                  
     -1333.355                  
  25368683.338 6                                 133313345.188                  
     -2335.585                  
  25527829.640 4  25527831.61741  25527832.72741 134149662.643   104532210.7404 
      1298.327        1011.709  
  22047918.841 8  22047918.74945  22047922.55645 115862602.175    90282547.5314 
     -1021.711        -796.157  
  22413143.587 8  22413140.08646  22413148.10145 117781861.933    91778072.3354 
      2727.020        2124.917  
  23347607.911 7  23347604.55344  23347608.75744 122692502.219    95604546.7034 
      2565.357        1998.922  
  21475167.234 8  21475168.05046  21475171.16946 112852771.782    87937227.7824 
      2614.990        2037.634  
  23082933.082 8  23082934.09346  23082936.27046 121301638.673    94520759.8604 
      1668.054        1299.792  
 08  5 22  0 38 50.0000000  0  8G 2G 4G 8G10G15G24G26G29            
  21085502.158 7  21085502.04845  21085505.18745 110805068.713    86341611.5024 
     -1331.111       -1037.227  
  24173956.009 6  24173956.64641  24173962.41141 127035006.140    98988316.9344 
     -2331.251       -1816.535  
  24326194.001 5  24326187.97341  24326192.72841 127834994.594    99611690.2724 
      1298.950        1012.089  
  20850690.724 7  20850689.90845  20850693.70545 109571122.418    85380095.7434 
     -1017.494        -792.855  
  21208782.311 8  21208782.34646  21208785.17846 111452894.601    86846409.4874 
      2728.222        2125.920  
  22143549.819 8  22143550.40044  22143553.04944 116365131.270    90674127.7454 
      2570.435        2002.896  
  20271020.194 8  20271020.29046  20271023.78546 106524933.577    83006444.7564 
      2614.533        2037.320  
  21880588.396 8  21880588.80246  21880591.41546 114983272.333    89597357.5074 
      1667.806        1299.560  
 08  5 22  0 39  0.0000000  0  8G 2G 4G 8G10G15G24G26G29            
  21088034.100 8  21088034.07246  21088035.52346 110818372.006    86351977.7054 
     -1329.265       -1035.790  
  24178388.386 6  24178389.00242  24178393.85842 127058295.899    99006464.7414 
     -2327.395       -1813.552  
  24323717.020 5  24323715.36441  24323718.98441 127821996.051    99601561.5274 
      1300.790        1013.527  
  20852622.733 8  20852621.94346  20852625.82946 109581276.230    85388007.8054 
     -1013.133        -789.425  
  21203589.149 7  21203589.06245  21203591.98845 111425604.255    86825144.2674 
      2729.766        2127.103  
  22138654.249 7  22138653.92144  22138657.35244 116339399.554    90654077.0494 
      2576.116        2007.392  
  20266044.768 8  20266044.95146  20266048.27946 106498787.931    82986071.5284 
      2614.401        2037.199  
  21877414.158 7  21877413.79646  21877417.08846 114966589.849    89584358.1794 
      1668.717        1300.289  
 08  5 22  0 39 10.0000000  0  8G 2G 4G 8G10G15G24G26G29            
  21090561.827 7  21090561.96145  21090563.03245 110831655.054    86362328.1034 
     -1327.252       -1034.253  
  24182811.555 6  24182812.90743  24182817.68443 127081543.619    99024579.7984 
     -2323.533       -1810.522  
  24321239.098 5  24321238.20841  24321243.88341 127808981.868    99591420.5894 
      1302.337        1014.817  
  20854547.040 7  20854545.97645  20854550.02145 109591387.750    85395886.8934 
     -1009.306        -786.528  
  21198393.333 7  21198393.40845  21198396.17645 111398300.155    86803868.3514 
      2731.266        2128.249  
  22133747.551 7  22133746.63443  22133751.72343 116313617.069    90633986.8084 
      2580.331        2010.629  
  20261070.101 8  20261070.03845  20261073.46946 106472644.656    82965700.1434 
      2614.446        2037.219  
  21874238.882 7  21874238.59745  21874242.27645 114949904.793    89571356.8264 
      1668.455        1300.098  
 08  5 22  0 39 20.0000000  0  8G 2G 4G 8G10G15G24G26G29            
  21093085.751 8  21093085.59145  21093087.09145 110844918.178    86372663.0064 
     -1325.284       -1032.649  
  24187229.760 5  24187227.73942  24187234.08941 127104749.612    99042662.4224 
     -2319.166       -1807.241  
  24318759.748 4  24318759.39041  24318764.84841 127795952.932    99581268.3894 
      1302.992        1015.149  
  20856463.161 8  20856462.21346  20856466.27546 109601456.934    85403733.0054 
     -1004.997        -783.128  
  21193194.944 8  21193195.33345  21193197.75545 111370982.560    86782581.9094 
      2732.340        2129.079  
  22128831.296 6  22128830.74143  22128835.78443 116287784.062    90613857.1994 
      2585.449        2014.626  
  20256095.709 8  20256095.71345  20256099.05346 106446504.009    82945330.8194 
      2613.813        2036.695  
  21871063.067 7  21871063.11545  21871066.77245 114933217.260    89558353.5534 
      1668.579        1300.151  
 08  5 22  0 39 30.0000000  0  8G 2G 4G 8G10G15G24G26G29            
  21095605.963 8  21095605.66946  21095607.06846 110858160.587    86382981.7524 
     -1323.208       -1031.072  
  24191636.161 5  24191635.62242  24191641.92841 127127913.969    99060712.7744 
     -2315.032       -1803.946  
  24316277.258 5  24316277.08542  24316281.14941 127782906.925    99571102.6044 
      1304.715        1016.549  
  20858371.097 8  20858370.28246  20858374.04546 109611483.112    85411545.6064 
     -1000.298        -779.463  
  21187993.805 8  21187994.04746  21187996.91546 111343650.906    86761284.5124 
      2733.964        2130.363  
  22123905.208 7  22123905.38144  22123910.36044 116261899.611    90593687.5094 
      2590.998        2018.969  
  20251121.744 8  20251121.58346  20251124.90346 106420365.343    82924963.0194 
      2613.978        2036.837  
  21867886.871 7  21867886.94846  21867890.50745 114916526.770    89545347.9764 
      1669.206        1300.650  
 08  5 22  0 39 40.0000000  0  8G 2G 4G 8G10G15G24G26G29            
  21098122.194 8  21098122.07746  21098123.50146 110871383.468    86393285.2764 
     -1321.086       -1029.407  
  24196034.847 5  24196036.51541  24196042.15141 127151036.084    99078729.9884 
     -2309.976       -1799.996  
  24313791.988 6  24313791.66342  24313796.98742 127769846.170    99560925.3954 
      1306.946        1018.414  
  20860271.008 8  20860270.09845  20860274.14045 109621467.456    85419325.6374 
      -996.290        -776.345  
  21182790.487 8  21182790.56546  21182793.26846 111316306.459    86739977.1554 
      2735.193        2131.339  
  22118970.793 7  22118970.76644  22118974.95745 116235965.336    90573478.9944 
      2595.965        2022.814  
  20246148.336 8  20246148.14646  20246151.47646 106394230.037    82904597.8364 
      2613.435        2036.429  
  21864710.690 7  21864711.12445  21864713.90345 114899834.507    89532341.0064 
      1669.387        1300.846  
 08  5 22  0 39 50.0000000  0  8G 2G 4G 8G10G15G24G26G29            
  21100634.901 8  21100634.72646  21100636.10646 110884587.552    86403574.1524 
     -1319.906       -1028.512  
  24200428.256 6  24200429.05543  24200434.18043 127174117.518    99096715.4744 
     -2305.904       -1796.820  
  24311304.128 6  24311303.81842  24311307.45742 127756771.454    99550737.2894 
      1308.081        1019.287  
  20862163.360 8  20862162.25245  20862166.37245 109631410.793    85427073.6754 
      -992.782        -773.597  
  21177584.605 8  21177584.76446  21177587.50046 111288949.921    86718660.3954 
      2736.111        2132.031  
  22114026.156 7  22114026.58345  22114030.24445 116209981.736    90553232.0274 
      2600.648        2026.505  
  20241175.746 8  20241175.57246  20241179.03646 106368098.715    82884235.7694 
      2612.617        2035.804  
  21861534.324 7  21861534.58545  21861537.05745 114883141.204    89519333.2384 
      1669.141        1300.618  
 08  5 22  0 40  0.0000000  0  8G 2G 4G 8G10G15G24G26G29            
  21103144.109 7  21103144.10846  21103145.73846 110897774.640    86413849.8004 
     -1318.061       -1027.066  
  24204813.213 5  24204814.41643  24204818.67943 127197160.105    99114670.7324 
     -2301.965       -1793.804  
  24308813.767 6  24308813.47342  24308817.33442 127743684.506    99540539.7034 
      1309.332        1020.321  
  20864047.866 8  20864046.90845  20864051.05546 109641314.767    85434791.0514 
      -988.653        -770.374  
  21172377.195 8  21172376.97146  21172379.75546 111261583.223    86697335.6914 
      2737.341        2133.001  
  22109072.938 7  22109072.83645  22109076.52945 116183950.740    90532948.1104 
      2605.679        2030.418  
  20236204.436 8  20236204.28546  20236207.65346 106341973.492    82863878.4514 
      2612.282        2035.562  
  21858357.992 7  21858358.25045  21858360.42045 114866448.851    89506326.2154 
      1669.303        1300.761  
 08  5 22  0 40 10.0000000  0  8G 2G 4G 8G10G15G24G26G29            
  21105650.156 8  21105650.17346  21105651.81246 110910944.398    86424111.9354 
     -1316.527       -1025.830  
  24209189.813 6  24209190.97542  24209196.00242 127220163.717    99132595.5674 
     -2299.465       -1791.782  
  24306321.453 6  24306321.86942  24306324.57242 127730585.204    99530332.4784 
      1309.860        1020.767  
  20865924.758 8  20865924.19245  20865928.21145 109651178.951    85442477.4214 
      -984.456        -767.099  
  21167167.444 7  21167167.37146  21167170.03946 111234206.127    86676002.8854 
      2738.153        2133.628  
  22104110.404 7  22104109.83345  22104113.89045 116157872.002    90512627.0274 
      2610.381        2034.077  
  20231233.621 8  20231233.81146  20231237.23446 106315853.913    82843525.5284 
      2611.532        2034.973  
  21855182.032 7  21855182.00645  21855183.97545 114849756.999    89493319.5664 
      1669.319        1300.796  
 08  5 22  0 40 20.0000000  0  8G 2G 4G 8G10G15G24G26G29            
  21108153.032 7  21108153.00645  21108154.92246 110924097.700    86434361.2404 
     -1314.149       -1024.013  
  24213561.358 6  24213561.21143  24213567.20742 127243128.770    99150490.3964 
     -2293.780       -1787.234  
  24303825.775 5  24303825.68142  24303830.75942 127717474.307    99520116.1714 
      1312.257        1022.517  
  20867794.388 7  20867793.96745  20867797.65445 109661004.210    85450133.4634 
      -980.289        -763.874  
  21161956.013 7  21161955.82446  21161958.48346 111206819.447    86654662.6104 
      2739.220        2134.452  
  22099138.715 7  22099138.45445  22099142.60345 116131746.403    90492269.4074 
      2615.315        2037.895  
  20226264.681 7  20226264.52646  20226268.06446 106289740.915    82823177.7374 
      2610.891        2034.477  
  21852006.027 7  21852005.98845  21852007.72445 114833066.575    89480314.0494 
      1669.221        1300.701  
 08  5 22  0 40 30.0000000  0  8G 2G 4G 8G10G15G24G26G29            
  21110652.961 8  21110652.87346  21110654.54745 110937234.355    86444597.5774 
     -1313.033       -1023.171  
  24217923.672 6  24217924.16242  24217929.30642 127266055.283    99168355.1864 
     -2290.970       -1785.141  
  24301329.777 6  24301328.44642  24301333.33442 127704351.896    99509890.9234 
      1312.650        1022.803  
  20869656.735 8  20869656.35245  20869659.85545 109670790.254    85457758.9364 
      -976.877        -761.196  
  21156742.198 8  21156742.65946  21156745.37046 111179423.131    86633314.8244 
      2739.935        2135.016  
  22094157.807 7  22094158.33745  22094162.38845 116105574.002    90471875.3394 
      2619.500        2041.171  
  20221296.680 8  20221296.70246  20221300.06846 106263634.451    82802835.0414 
      2610.121        2033.879  
  21848830.065 8  21848830.27145  21848832.03545 114816377.515    89467309.5784 
      1668.773        1300.307  
 08  5 22  0 40 40.0000000  0  8G 2G 4G 8G10G15G24G26G29            
  21113150.082 8  21113149.62946  21113151.32546 110950355.454    86454821.8214 
     -1311.164       -1021.724  
  24222279.549 6  24222279.79343  24222284.62143 127288944.509    99186190.8954 
     -2287.448       -1782.399  
  24298830.127 6  24298829.62042  24298834.15542 127691219.046    99499657.5434 
      1313.640        1023.576  
  20871511.976 8  20871511.20446  20871514.80345 109680538.318    85465354.8264 
      -972.598        -757.841  
  21151527.468 8  21151527.43246  21151530.41846 111152018.375    86611960.4754 
      2740.924        2135.797  
  22089168.521 7  22089169.51644  22089172.78444 116079356.005    90451445.7174 
      2624.245        2044.864  
  20216330.475 8  20216330.56446  20216333.71946 106237535.797    82782498.4174 
      2609.679        2033.545  
  21845654.641 7  21845654.88045  21845656.53145 114799691.006    89454307.0814 
      1668.600        1300.215  
 08  5 22  0 40 50.0000000  0  8G 2G 4G 8G10G15G24G26G29            
  21115643.823 7  21115643.60445  21115645.16645 110963461.192    86465034.0654 
     -1309.978       -1020.765  
  24226628.251 6  24226628.36443  24226632.81443 127311796.241    99203997.4604 
     -2283.546       -1779.400  
  24296329.676 6  24296328.34043  24296333.00743 127678076.097    99489416.3004 
      1314.974        1024.612  
  20873359.404 7  20873358.88845  20873362.52945 109690248.404    85472921.1304 
      -969.120        -755.166  
  21146310.868 8  21146311.13846  21146313.77946 111124605.367    86590599.6984 
      2741.542        2136.271  
  22084171.657 8  22084171.79244  22084174.88245 116053092.455    90430980.6314 
      2628.579        2048.204  
  20211365.239 7  20211365.59046  20211368.74646 106211445.077    82762167.9914 
      2608.569        2032.639  
  21842479.611 8  21842479.55945  21842481.91745 114783007.074    89441306.6224 
      1668.255        1299.958  
 08  5 22  0 41  0.0000000  0  8G 2G 4G 8G10G15G24G26G29            
  21118134.886 8  21118135.20045  21118136.21145 110976552.164    86475234.8244 
     -1308.466       -1019.565  
  24230969.817 6  24230970.08343  24230974.44443 127334611.272    99221775.3884 
     -2279.535       -1776.282  
  24293825.942 6  24293824.85043  24293829.38543 127664923.659    99479167.6364 
      1316.099        1025.570  
  20875200.426 8  20875199.40345  20875203.13746 109699920.959    85480458.1764 
      -965.643        -752.452  
  21141092.990 8  21141093.26146  21141095.91946 111097184.844    86569233.0484 
      2742.256        2136.807  
  22079165.290 8  22079165.25545  22079168.66445 116026784.055    90410480.6014 
      2632.942        2051.637  
  20206402.000 8  20206402.34046  20206405.56846 106185363.107    82741844.3894 
      2607.501        2031.823  
  21839305.173 7  21839304.82045  21839307.51445 114766326.592    89428308.8474 
      1667.655        1299.480  
 08  5 22  0 41 10.0000000  0  8G 2G 4G 8G10G15G24G26G29            
  21120623.794 8  21120623.81045  21120624.91845 110989629.570    86485424.9924 
     -1307.045       -1018.482  
  24235305.079 7  24235305.62043  24235309.49843 127357390.835    99239525.6694 
     -2275.740       -1773.304  
  24291321.692 6  24291320.76543  24291326.62543 127651762.981    99468912.5844 
      1316.629        1025.921  
  20877033.829 8  20877033.03545  20877037.13645 109709557.271    85487966.9844 
      -962.094        -749.693  
  21135873.854 8  21135874.13146  21135876.75146 111069757.961    86547861.4584 
      2742.965        2137.371  
  22074150.887 8  22074150.12245  22074153.73945 116000432.105    90389946.5934 
      2637.021        2054.794  
  20201440.632 8  20201441.00346  20201444.30546 106159291.102    82721528.5214 
      2606.623        2031.126  
  21836132.210 7  21836131.57445  21836134.39245 114749650.703    89415314.6354 
      1667.028        1298.949  
 08  5 22  0 41 20.0000000  0  8G 2G 4G 8G10G15G24G26G29            
  21123109.796 7  21123109.73145  21123111.04246 111002693.825    86495604.9154 
     -1305.814       -1017.505  
  24239632.841 6  24239633.82043  24239638.37843 127380135.272    99257248.5754 
     -2272.767       -1770.990  
  24288815.847 6  24288815.39943  24288821.10543 127638594.601    99458651.5094 
      1317.174        1026.413  
  20878860.946 8  20878860.09245  20878864.14345 109719157.738    85495447.8614 
      -958.375        -746.781  
  21130653.379 7  21130653.60746  21130656.45646 111042325.292    86526485.3624 
      2743.351        2137.693  
  22069127.473 7  22069127.05044  22069130.90545 115974037.021    90369379.0024 
      2641.475        2058.286  
  20196481.377 8  20196481.64246  20196484.89446 106133229.501    82701220.7794 
      2605.496        2030.270  
  21832959.511 7  21832959.24445  21832962.17045 114732979.930    89402324.4154 
      1666.688        1298.750  
 08  5 22  0 41 30.0000000  0  8G 2G 4G 8G10G15G24G26G29            
  21125593.508 7  21125593.10546  21125594.76146 111015745.455    86505775.0054 
     -1304.622       -1016.612  
  24243954.462 6  24243954.97043  24243960.50843 127402845.135    99274944.5524 
     -2269.368       -1768.333  
  24286308.509 6  24286308.67443  24286313.35143 127625419.247    99448384.9824 
      1317.767        1026.876  
  20880680.939 8  20880680.31246  20880684.49645 109728723.026    85502901.3274 
      -954.769        -743.977  
  21125432.405 8  21125432.32446  21125435.14746 111014887.626    86505105.3634 
      2743.895        2138.078  
  22064096.336 7  22064096.08845  22064099.76045 115947599.575    90348778.3804 
      2645.794        2061.673  
  20191524.156 8  20191524.37046  20191527.60546 106107179.086    82680921.7574 
      2604.376        2029.380  
  21829788.585 8  21829788.20245  21829791.39945 114716314.959    89389338.7164 
      1666.111        1298.269  
 08  5 22  0 41 40.0000000  0  8G 2G 4G 8G10G15G24G26G29            
  21128075.103 8  21128074.46845  21128076.23946 111028785.575    86515936.1274 
     -1303.254       -1015.522  
  24248269.388 6  24248269.59143  24248275.17743 127425521.474    99292614.4094 
     -2265.729       -1765.486  
  24283800.963 6  24283800.52943  24283805.03243 127612237.888    99438113.8074 
      1318.524        1027.424  
  20882494.761 8  20882494.01545  20882498.03545 109738253.940    85510328.0124 
      -951.255        -741.244  
  21120210.502 8  21120210.20146  21120213.10246 110987445.815    86483722.1354 
      2744.414        2138.517  
  22059057.395 7  22059058.07845  22059061.63845 115921120.719    90328145.5024 
      2649.977        2064.897  
  20186569.439 8  20186569.50846  20186572.57746 106081140.819    82660632.1944 
      2603.231        2028.461  
  21826618.158 8  21826618.78845  21826621.79145 114699656.761    89376358.3004 
      1665.401        1297.709  
 08  5 22  0 41 50.0000000  0  8G 2G 4G 8G10G15G24G26G29            
  21130554.513 7  21130553.98846  21130555.75646 111041815.281    86526089.1414 
     -1302.072       -1014.602  
  24252578.671 6  24252578.94443  24252583.79543 127448165.274    99310258.8844 
     -2262.398       -1762.885  
  24281291.414 6  24281290.83143  24281295.81243 127599051.730    99427838.8874 
      1319.183        1027.907  
  20884302.231 8  20884301.67646  20884305.53645 109747751.568    85517728.7514 
      -947.993        -738.691  
  21114987.665 8  21114987.85446  21114990.45546 110960001.079    86462336.6274 
      2744.764        2138.792  
  22054011.559 8  22054011.95045  22054016.10145 115894601.659    90307481.2984 
      2653.911        2068.010  
  20181617.063 8  20181617.24546  20181620.36546 106055116.081    82640353.1804 
      2602.051        2027.567  
  21823450.440 8  21823450.74046  21823453.34646 114683006.432    89363384.0124 
      1664.620        1297.124  
 08  5 22  0 42  0.0000000  0  8G 2G 4G 8G10G15G24G26G29            
  21133031.300 8  21133030.93145  21133032.69446 111054831.443    86536231.5954 
     -1301.054       -1013.800  
  24256881.299 6  24256881.57943  24256886.13943 127470773.598    99327875.7454 
     -2259.019       -1760.281  
  24278780.560 6  24278779.80843  24278785.18243 127585857.810    99417557.9104 
      1319.531        1028.234  
  20886102.428 8  20886101.99146  20886106.05846 109757212.760    85525101.1024 
      -944.584        -736.032  
  21109764.258 8  21109764.42146  21109766.84146 110932550.377    86440946.4624 
      2745.153        2139.085  
  22048957.194 7  22048956.87045  22048961.65745 115868039.320    90286783.3914 
      2657.914        2071.105  
  20176666.468 8  20176666.88646  20176670.03546 106029101.568    82620082.1324 
      2600.763        2026.571  
  21820283.083 8  21820283.72446  21820285.81546 114666360.996    89350413.5424 
      1663.918        1296.566  
 08  5 22  0 42 10.0000000  0  8G 2G 4G 8G10G15G24G26G29            
  21135506.127 7  21135506.12446  21135507.90346 111067838.205    86546366.7204 
     -1300.174       -1013.130  
  24261176.838 6  24261177.93643  24261182.23343 127493350.309    99345467.9534 
     -2256.412       -1758.263  
  24276268.768 6  24276268.22643  24276273.94743 127572660.234    99407274.0974 
      1319.825        1028.366  
  20887896.857 7  20887896.18646  20887900.35845 109766641.478    85532448.1474 
      -941.214        -733.417  
  21104539.591 8  21104540.37246  21104542.93646 110905097.798    86419554.8494 
      2745.106        2139.062  
  22043895.480 7  22043894.14845  22043899.24045 115841437.819    90266054.9564 
      2661.802        2074.123  
  20171719.036 8  20171719.14246  20171722.46646 106003101.660    82599822.4604 
      2599.149        2025.313  
  21817117.168 7  21817117.52046  21817119.96746 114649724.626    89337450.1344 
      1662.875        1295.734  
 08  5 22  0 42 20.0000000  0  8G 2G 4G 8G10G15G24G26G29            
  21137979.712 7  21137979.49046  21137981.23146 111080835.415    86556494.4074 
     -1299.419       -1012.533  
  24265467.514 6  24265468.59443  24265471.78643 127515895.388    99363035.5354 
     -2253.038       -1755.625  
  24273757.281 6  24273755.96943  24273761.19843 127559459.008    99396987.4214 
      1320.133        1028.675  
  20889685.044 7  20889684.35446  20889688.34646 109776037.549    85539769.7544 
      -938.142        -731.009  
  21099315.177 7  21099315.89446  21099318.64246 110877643.429    86398161.8284 
      2745.427        2139.323  
  22038826.078 7  22038824.74845  22038829.02845 115814797.104    90245295.9554 
      2665.920        2077.337  
  20166774.053 8  20166774.10046  20166777.58546 105977116.191    82579574.0454 
      2597.658        2024.166  
  21813952.873 7  21813952.77345  21813955.80045 114633097.134    89324493.6464 
      1662.332        1295.333  
 08  5 22  0 42 30.0000000  0  8G 2G 4G 8G10G15G24G26G29            
  21140451.437 7  21140451.30546  21140452.82846 111093824.408    86566615.6884 
     -1298.385       -1011.737  
  24269751.497 6  24269752.23643  24269757.24543 127538410.177    99380579.5044 
     -2250.110       -1753.349  
  24271244.342 6  24271243.72643  24271248.78743 127546255.558    99386699.0324 
      1320.542        1029.041  
  20891466.789 8  20891466.36045  20891470.32546 109785402.316    85547066.9684 
      -934.816        -728.447  
  21094091.461 8  21094091.36546  21094094.07346 110850188.717    86376768.5424 
      2745.564        2139.383  
  22033748.713 7  22033748.26645  22033751.90145 115788118.672    90224507.5574 
      2669.796        2080.357  
  20161832.459 8  20161832.40446  20161835.89346 105951146.664    82559338.0514 
      2596.178        2022.983  
  21810790.972 8  21810790.82045  21810793.70045 114616480.044    89311545.2564 
      1661.109        1294.352  
 08  5 22  0 42 40.0000000  0  8G 2G 4G 8G10G15G24G26G29            
  21142921.579 7  21142921.40946  21142923.00046 111106804.888    86576730.3334 
     -1297.662       -1011.172  
  24274030.459 6  24274030.50443  24274036.67443 127560894.348    99398099.6384 
     -2247.167       -1751.062  
  24268731.169 6  24268731.27643  24268736.04143 127533049.539    99376408.6294 
      1320.422        1028.884  
  20893242.987 8  20893242.23446  20893246.32246 109794735.392    85554339.4944 
      -931.774        -726.061  
  21088866.538 8  21088866.69146  21088869.45046 110822733.316    86355374.7384 
      2745.488        2139.326  
  22028664.662 7  22028664.11945  22028668.25445 115761402.180    90203689.5074 
      2673.193        2082.986  
  20156893.655 8  20156893.57546  20156897.17346 105925192.872    82539114.3244 
      2594.617        2021.786  
  21807630.716 8  21807630.56246  21807633.40646 114599872.981    89298604.6874 
      1659.974        1293.462  
 08  5 22  0 42 50.0000000  0  8G 2G 4G 8G10G15G24G26G29            
  21145390.405 8  21145390.33245  21145391.76946 111119779.208    86586840.1804 
     -1297.127       -1010.755  
  24278303.566 7  24278303.89243  24278308.00043 127583350.040    99415597.5794 
     -2244.138       -1748.625  
  24266217.523 6  24266217.61843  24266222.68443 127519843.411    99366118.1394 
      1320.492        1028.968  
  20895013.572 8  20895012.67445  20895016.62545 109804039.129    85561589.1504 
      -928.860        -723.795  
  21083642.601 7  21083642.45646  21083645.19546 110795279.638    86333982.2544 
      2745.240        2139.149  
  22023573.589 8  22023573.57845  22023577.47445 115734650.034    90182843.6844 
      2677.068        2086.009  
  20151958.050 8  20151958.08346  20151961.69346 105899257.116    82518904.6484 
      2592.621        2020.225  
  21804472.771 7  21804472.58146  21804475.27646 114583278.363    89285673.8054 
      1658.904        1292.655  
 08  5 22  0 43  0.0000000  0  8G 2G 4G 8G10G15G24G26G29            
  21147858.260 8  21147857.94946  21147859.36946 111132746.240    86596944.3504 
     -1296.443       -1010.201  
  24282570.928 6  24282572.11743  24282576.34443 127605776.379    99433072.6564 
     -2241.506       -1746.615  
  24263704.593 6  24263703.62843  24263709.48343 127506636.198    99355826.8264 
      1320.493        1028.968  
  20896777.987 8  20896777.36945  20896781.17046 109813312.393    85568815.0644 
      -925.793        -721.406  
  21078418.495 8  21078418.37446  21078421.06146 110767826.613    86312590.2854 
      2745.198        2139.107  
  22018475.847 7  22018475.88945  22018479.89345 115707861.211    90161969.2784 
      2680.581        2088.771  
  20147025.794 8  20147025.92246  20147029.40646 105873338.431    82498708.2674 
      2590.955        2018.941  
  21801316.927 8  21801316.47345  21801319.44345 114566695.173    89272751.8404 
      1657.606        1291.665  
 08  5 22  0 43 10.0000000  0  8G 2G 4G 8G10G15G24G26G29            
  21150324.421 8  21150324.43646  21150325.80046 111145706.970    86607043.6114 
     -1295.617       -1009.580  
  24286833.515 6  24286833.85343  24286838.73643 127628174.203    99450525.4814 
     -2238.095       -1743.925  
  24261191.802 6  24261191.15843  24261197.43743 127493428.952    99345535.4574 
      1320.972        1029.374  
  20898537.015 8  20898536.53046  20898540.14646 109822556.142    85576017.9824 
      -922.896        -719.145  
  21073194.641 8  21073194.57946  21073197.24746 110740375.390    86291199.7244 
      2745.091        2139.012  
  22013371.710 7  22013370.97745  22013375.39945 115681036.766    90141067.1234 
      2684.274        2091.587  
  20142097.113 8  20142097.25546  20142100.67046 105847437.989    82478526.1044 
      2589.123        2017.489  
  21798163.621 8  21798163.46145  21798166.13045 114550124.477    89259839.6054 
      1656.394        1290.696  
 08  5 22  0 43 20.0000000  0  8G 2G 4G 8G10G15G24G26G29            
  21152789.923 8  21152789.79945  21152791.24146 111158662.695    86617138.9724 
     -1295.391       -1009.377  
  24291090.125 6  24291090.31543  24291094.96743 127650544.927    99467957.2064 
     -2236.050       -1742.430  
  24258677.714 6  24258677.41143  24258683.16743 127480222.991    99335245.1024 
      1320.185        1028.659  
  20900290.795 8  20900290.28545  20900293.64646 109831771.674    85583198.9064 
      -920.108        -716.962  
  21067971.350 8  21067971.51446  21067973.99246 110712927.302    86269811.5964 
      2744.667        2138.704  
  22008260.692 7  22008260.45545  22008264.12645 115654177.952    90120138.1754 
      2687.500        2094.168  
  20137172.172 8  20137172.30346  20137175.57246 105821557.008    82458359.1054 
      2587.217        2016.014  
  21795012.765 7  21795012.85245  21795015.54145 114533567.577    89246938.1184 
      1655.032        1289.631  
 08  5 22  0 43 30.0000000  0  8G 2G 4G 8G10G15G24G26G29            
  21155254.510 8  21155254.24246  21155255.75246 111171613.412    86627230.4244 
     -1295.058       -1009.112  
  24295342.080 6  24295342.37343  24295347.25243 127672888.322    99485367.6264 
     -2233.240       -1740.148  
  24256165.007 6  24256164.39442  24256170.11042 127467018.337    99324955.7664 
      1320.156        1028.698  
  20902039.340 8  20902038.55145  20902041.84345 109840958.771    85590357.6794 
      -917.372        -714.847  
  21062748.696 7  21062749.11546  21062751.45246 110685482.236    86248425.8354 
      2744.288        2138.422  
  22003143.020 7  22003143.18245  22003146.35845 115627284.817    90099182.4844 
      2691.026        2096.933  
  20132250.735 8  20132251.01346  20132254.41646 105795695.652    82438207.3994 
      2585.099        2014.369  
  21791864.609 8  21791865.37246  21791867.53446 114517024.424    89234047.3474 
      1653.665        1288.583  
 08  5 22  0 43 40.0000000  0  8G 2G 4G 8G10G15G24G26G29            
  21157718.101 8  21157717.86946  21157719.38846 111184560.163    86637318.7914 
     -1294.411       -1008.633  
  24299589.281 6  24299589.20143  24299594.28343 127695205.564    99502757.6734 
     -2230.458       -1738.072  
  24253652.191 6  24253651.50942  24253657.60142 127453816.146    99314668.3574 
      1320.059        1028.617  
  20903782.198 8  20903781.52345  20903784.96746 109850118.480    85597495.1114 
      -914.565        -712.645  
  21057527.012 8  21057527.24946  21057529.56946 110658041.472    86227043.4214 
      2743.906        2138.100  
  21998019.010 8  21998019.28845  21998022.35745 115600358.561    90078200.9834 
      2694.218        2099.384  
  20127333.419 8  20127333.83846  20127337.15146 105769854.989    82418071.8184 
      2583.020        2012.745  
  21788719.738 8  21788720.55346  21788722.39746 114500496.240    89221168.2384 
      1651.955        1287.253  
 08  5 22  0 43 50.0000000  0  8G 2G 4G 8G10G15G24G26G29            
  21160181.285 8  21160180.89945  21160182.32945 111197503.466    86647404.4724 
     -1294.034       -1008.314  
  24303831.211 6  24303831.63043  24303835.59243 127717497.142    99520127.7094 
     -2227.602       -1735.721  
  24251141.105 6  24251140.04842  24251145.46642 127440617.138    99304383.4284 
      1319.845        1028.450  
  20905519.981 7  20905519.45545  20905523.07245 109859251.506    85604611.7544 
      -911.982        -710.642  
  21052305.889 7  21052306.33046  21052308.76046 110630605.653    86205664.8684 
      2743.585        2137.855  
  21992889.302 7  21992889.07245  21992892.70645 115573399.801    90057194.1514 
      2697.530        2101.959  
  20122420.358 8  20122420.76746  20122423.88046 105744035.582    82397952.8034 
      2581.102        2011.275  
  21785577.651 8  21785578.28945  21785580.02045 114483983.607    89208301.2454 
      1650.599        1286.171  
 08  5 22  0 44  0.0000000  0  7G 2G 8G10G15G24G26G29               
  21162643.534 8  21162643.30046  21162644.65746 111210443.130    86657487.3214 
     -1294.004       -1008.325  
  24248630.517 6  24248629.46442  24248635.04442 127427421.023    99294100.7364 
      1319.449        1028.219  
  20907252.722 7  20907252.21445  20907256.14445 109868357.418    85611707.2674 
      -909.397        -708.607  
  21047085.913 7  21047086.26346  21047088.73446 110603174.469    86184289.9314 
      2743.039        2137.434  
  21987753.063 7  21987752.22345  21987756.56945 115546408.229    90036161.7654 
      2701.005        2104.633  
  20117511.161 8  20117511.45946  20117514.63346 105718237.326    82377850.2654 
      2578.788        2009.447  
  21782438.420 7  21782438.46445  21782440.64645 114467486.221    89195446.1364 
      1649.217        1285.091  
 08  5 22  0 44 10.0000000  0  7G 2G 8G10G15G24G26G29               
  21165105.675 8  21165105.36945  21165106.53446 111223380.761    86667568.5784 
     -1293.712       -1008.077  
  24246120.240 6  24246119.73942  24246125.07642 127414229.599    99283821.7214 
      1318.926        1027.741  
  20908980.947 8  20908980.08545  20908984.36945 109877437.808    85618782.8924 
      -906.965        -706.711  
  21041867.258 8  21041867.54446  21041870.13846 110575749.628    86162919.9284 
      2742.363        2136.933  
  21982610.544 7  21982610.14345  21982614.34745 115519385.689    90015105.2394 
      2703.896        2106.927  
  20112606.318 8  20112606.36646  20112609.62046 105692461.884    82357765.5074 
      2576.460        2007.647  
  21779302.317 8  21779302.02645  21779304.42445 114451005.806    89182604.2444 
      1647.352        1283.646  
 08  5 22  0 44 20.0000000  0  7G 2G 8G10G15G24G26G29               
  21167567.424 8  21167567.10646  21167568.39446 111236316.729    86677648.5454 
     -1293.360       -1007.806  
  24243611.132 6  24243610.50543  24243615.72343 127401043.220    99273546.6134 
      1318.704        1027.560  
  20910704.123 7  20910703.35345  20910707.63945 109886493.060    85625838.9274 
      -904.255        -704.606  
  21036650.231 8  21036650.06546  21036652.62746 110548331.567    86141555.1984 
      2741.646        2136.342  
  21977462.452 7  21977462.49045  21977466.46745 115492332.467    89994024.8174 
      2706.874        2109.272  
  20107705.798 8  20107705.89546  20107709.13746 105666709.754    82337698.9164 
      2574.118        2005.848  
  21776169.154 8  21776169.24445  21776171.88845 114434542.735    89169775.8764 
      1645.539        1282.259  
 08  5 22  0 44 30.0000000  0  7G 2G 8G10G15G24G26G29               
  21170028.440 8  21170028.58345  21170029.73246 111249251.602    86687727.6534 
     -1293.483       -1007.893  
  24241101.542 6  24241101.60643  24241107.03143 127387862.547    99263275.9514 
      1317.805        1026.883  
  20912422.590 8  20912421.73445  20912425.85845 109895523.614    85632875.7104 
      -901.628        -702.585  
  21031433.857 8  21031433.88546  21031436.62746 110520920.940    86120196.2744 
      2740.555        2135.479  
  21972308.766 7  21972308.95545  21972312.51545 115465249.200    89972920.9724 
      2710.000        2111.708  
  20102809.935 8  20102810.16446  20102813.12346 105640981.580    82317650.9884 
      2571.605        2003.828  
  21773039.941 7  21773039.59846  21773042.65745 114418097.668    89156961.5364 
      1643.706        1280.785  
 08  5 22  0 44 40.0000000  0  7G 2G 8G10G15G24G26G29               
  21172489.974 7  21172489.94945  21172491.14945 111262186.346    86697806.6604 
     -1293.562       -1007.971  
  24238594.876 6  24238595.52142  24238600.31642 127374688.617    99253010.5674 
      1317.175        1026.307  
  20914136.300 8  20914135.90345  20914139.75946 109904530.667    85639894.1894 
      -899.595        -700.989  
  21026219.335 7  21026219.36346  21026222.02146 110493518.837    86098843.9854 
      2739.551        2134.695  
  21967149.555 7  21967149.42445  21967152.73545 115438137.051    89951794.6134 
      2712.498        2113.633  
  20097918.863 8  20097918.95746  20097921.99346 105615278.468    82297622.5924 
      2568.861        2001.684  
  21769914.258 7  21769913.94445  21769916.78845 114401671.661    89144162.0344 
      1641.369        1278.982  
 08  5 22  0 44 50.0000000  0  7G 2G 8G10G15G24G26G29               
  21174951.434 8  21174951.18145  21174952.64446 111275121.031    86707885.6314 
     -1293.478       -1007.923  
  24236088.858 6  24236088.96542  24236094.66342 127361521.585    99242750.5604 
      1316.276        1025.597  
  20915845.899 8  20915845.26445  20915848.94846 109913513.901    85646894.1034 
      -896.988        -698.996  
  21021006.409 8  21021006.44946  21021009.20246 110466125.388    86077498.4444 
      2738.812        2134.101  
  21961984.588 7  21961984.28445  21961987.83345 115410996.024    89930645.7644 
      2715.604        2116.017  
  20093032.545 8  20093032.66846  20093035.74846 105589600.507    82277613.7884 
      2566.476        1999.841  
  21766791.929 8  21766791.80745  21766794.96445 114385264.752    89131377.4304 
      1639.737        1277.684  
 08  5 22  0 45  0.0000000  0  7G 2G 8G10G15G24G26G29               
  21177412.910 7  21177412.63646  21177414.21346 111288056.308    86717965.0554 
     -1293.337       -1007.797  
  24233585.901 6  24233584.83842  24233590.31942 127348362.213    99232496.4754 
      1315.600        1025.225  
  20917551.100 7  20917550.35745  20917553.99645 109922474.026    85653876.0154 
      -894.668        -697.134  
  21015795.239 7  21015795.40646  21015798.26546 110438741.209    86056160.1234 
      2738.337        2133.787  
  21956814.145 7  21956813.51745  21956818.53244 115383826.915    89909475.0324 
      2718.424        2118.255  
  20088150.949 8  20088151.24246  20088154.36646 105563948.391    82257625.1304 
      2564.289        1998.145  
  21763673.523 7  21763673.21045  21763676.51246 114368877.724    89118608.3124 
      1637.971        1276.334  
 08  5 22  0 45 10.0000000  0  7G 2G 8G10G15G24G26G29               
  21179874.334 8  21179874.29146  21179875.87646 111300992.403    86728045.1284 
     -1293.600       -1008.009  
  24231083.282 6  24231082.11742  24231087.65642 127335210.756    99222248.5724 
      1314.629        1024.392  
  20919251.661 8  20919251.01345  20919254.57046 109931411.108    85660839.9764 
      -892.309        -695.318  
  21010586.146 8  21010586.30346  21010588.99746 110411366.642    86034829.2924 
      2737.012        2132.728  
  21951638.916 7  21951638.27845  21951643.23645 115356629.952    89888282.6024 
      2721.272        2120.434  
  20083274.821 8  20083274.53446  20083278.01546 105538322.490    82237656.8984 
      2561.373        1995.872  
  21760559.027 7  21760558.83745  21760561.94245 114352510.797    89105854.8634 
      1635.757        1274.626  
 08  5 22  0 45 20.0000000  0  7G 2G 8G10G15G24G26G29               
  21182336.757 8  21182336.51946  21182338.00346 111313931.108    86738127.2234 
     -1294.320       -1008.568  
  24228582.418 6  24228582.37843  24228587.84143 127322069.089    99212008.3064 
      1313.214        1023.299  
  20920948.596 8  20920947.45145  20920951.16645 109940327.015    85667787.4324 
      -890.810        -694.137  
  21005379.179 8  21005379.48346  21005381.95646 110384003.514    86013507.3754 
      2735.655        2131.684  
  21946458.318 7  21946458.42045  21946463.33945 115329407.021    89867069.9414 
      2723.627        2122.260  
  20078403.480 8  20078403.38646  20078406.85246 105512724.596    82217710.4834 
      2558.252        1993.474  
  21757448.581 8  21757448.92045  21757451.78345 114336165.867    89093118.5514 
      1633.476        1272.879  
 08  5 22  0 45 30.0000000  0  7G 2G 8G10G15G24G26G29               
  21184799.064 8  21184799.07346  21184800.40046 111326871.766    86748210.8384 
     -1294.251       -1008.538  
  24226084.248 6  24226084.28943  24226087.94143 127308936.598    99201775.1974 
      1312.774        1022.913  
  20922640.908 7  20922640.14145  20922643.64445 109949221.113    85674717.8954 
      -888.586        -692.413  
  21000174.279 8  21000174.41846  21000177.01246 110356651.310    85992193.9704 
      2734.534        2130.791  
  21941273.007 7  21941272.80845  21941277.75245 115302157.547    89845836.5854 
      2726.025        2124.135  
  20073537.520 8  20073537.54346  20073541.03546 105487154.184    82197785.4924 
      2555.504        1991.284  
  21754342.136 8  21754342.83946  21754345.47546 114319842.292    89080398.8884 
      1631.073        1270.953  
 08  5 22  0 45 40.0000000  0  7G 2G 8G10G15G24G26G29               
  21187262.400 7  21187262.03546  21187263.41546 111339815.088    86758296.5354 
     -1294.677       -1008.809  
  24223586.470 6  24223586.48743  24223591.01343 127295814.119    99191549.8854 
      1311.361        1021.820  
  20924328.986 8  20924328.76945  20924332.34145 109958094.027    85681631.8524 
      -886.346        -690.638  
  20994971.156 7  20994971.72946  20994974.26346 110329310.815    85970889.7004 
      2733.561        2130.059  
  21936082.310 7  21936081.93044  21936086.73544 115274882.253    89824583.1324 
      2728.663        2126.201  
  20068677.127 8  20068677.31346  20068680.43346 105461611.955    82177882.4604 
      2552.895        1989.284  
  21751240.195 8  21751241.11046  21751243.11846 114303540.754    89067696.3814 
      1629.036        1269.388  
 08  5 22  0 45 50.0000000  0  7G 2G 8G10G15G24G26G29               
  21189726.211 8  21189725.77346  21189727.08346 111352761.664    86768384.7714 
     -1294.655       -1008.806  
  24221090.853 6  24221090.12142  24221094.96442 127282702.256    99181332.8434 
      1310.632        1021.338  
  20926013.592 8  20926013.32145  20926016.81546 109966946.269    85688529.7034 
      -884.001        -688.835  
  20989771.042 8  20989771.27346  20989773.87546 110301982.626    85949595.0084 
      2732.282        2129.062  
  21930887.584 7  21930887.24944  21930891.13944 115247581.815    89803310.0524 
      2731.508        2128.402  
  20063822.057 8  20063822.33246  20063825.33146 105436098.629    82158001.9504 
      2549.976        1987.000  
  21748142.580 8  21748143.76846  21748145.16946 114287261.954    89055011.5934 
      1626.783        1267.646  
 08  5 22  0 46  0.0000000  0  7G 2G 8G10G15G24G26G29               
  21192190.302 8  21192189.93046  21192191.47146 111365711.311    86778475.3964 
     -1295.125       -1009.194  
  24218597.914 6  24218597.74342  24218602.22242 127269601.015    99171124.1024 
      1309.518        1020.323  
  20927694.495 7  20927693.95146  20927697.43246 109975777.695    85695411.3194 
      -882.095        -687.339  
  20984573.193 8  20984573.35946  20984575.69646 110274666.644    85928309.8244 
      2730.977        2128.061  
  21925686.964 7  21925687.50344  21925690.94344 115220256.144    89782017.3054 
      2733.674        2130.147  
  20058972.382 8  20058972.57246  20058975.92946 105410614.165    82138143.9234 
      2547.066        1984.721  
  21745049.245 7  21745050.34146  21745051.73346 114271005.788    89042344.4474 
      1624.348        1265.743  
 08  5 22  0 46 10.0000000  0  7G 2G 8G10G15G24G26G29               
  21194655.109 7  21194654.85546  21194656.53146 111378664.503    86788568.7844 
     -1295.423       -1009.420  
  24216107.867 6  24216107.23842  24216110.15042 127256510.800    99160923.9344 
      1308.340        1019.473  
  20929371.113 8  20929370.60146  20929374.02846 109984588.599    85702276.9534 
      -879.890        -685.640  
  20979377.443 8  20979377.70046  20979380.19646 110247363.310    85907034.5044 
      2729.497        2126.892  
  21920482.973 7  21920482.88645  21920486.86744 115192905.648    89760705.2364 
      2736.110        2132.026  
  20054128.345 8  20054128.62746  20054131.88446 105385158.925    82118308.6734 
      2544.075        1982.395  
  21741960.164 8  21741960.98846  21741962.53946 114254772.685    89029695.2664 
      1621.888        1263.801  
 08  5 22  0 46 20.0000000  0  7G 2G 8G10G15G24G26G29               
  21197120.629 7  21197120.55845  21197122.13446 111391621.730    86798665.3094 
     -1296.045       -1009.904  
  24213618.902 6  24213618.54642  24213620.86342 127243432.146    99150732.7734 
      1307.101        1018.529  
  20931044.131 8  20931043.46545  20931046.89346 109993379.509    85709127.0074 
      -878.030        -684.177  
  20974184.291 7  20974184.50346  20974187.10546 110220073.209    85885769.4944 
      2728.316        2125.960  
  21915274.042 7  21915273.68245  21915278.00445 115165530.877    89739374.2464 
      2738.761        2134.125  
  20049290.201 8  20049290.49846  20049293.64646 105359733.607    82098496.7394 
      2540.980        1979.990  
  21738875.805 8  21738875.87345  21738878.00645 114238563.229    89017064.5134 
      1619.937        1262.276  
 08  5 22  0 46 30.0000000  0  7G 2G 8G10G15G24G26G29               
  21199587.004 8  21199586.99645  21199588.54646 111404582.921    86808764.9314 
     -1296.154       -1009.994  
  24211132.795 6  24211131.64442  24211135.98042 127230365.201    99140550.7254 
      1306.268        1017.836  
  20932713.172 8  20932712.48546  20932715.90646 110002150.407    85715961.4654 
      -876.049        -682.634  
  20968993.806 7  20968993.89546  20968996.41846 110192796.374    85864514.8244 
      2727.191        2125.108  
  21910060.121 7  21910060.01645  21910064.22745 115138131.934    89718024.4264 
      2741.231        2136.024  
  20044457.620 8  20044457.90346  20044461.14646 105334338.228    82078708.1334 
      2538.136        1977.774  
  21735795.376 7  21735795.31545  21735798.03445 114222377.428    89004452.1954 
      1617.548        1260.431  
 08  5 22  0 46 40.0000000  0  7G 2G 8G10G15G24G26G29               
  21202054.349 8  21202054.38746  21202055.66046 111417548.475    86818867.9504 
     -1296.844       -1010.523  
  24208647.102 6  24208646.15442  24208651.97842 127217310.361    99130378.1354 
      1304.614        1016.573  
  20934378.539 8  20934377.85846  20934381.25146 110010901.506    85722780.4954 
      -874.220        -681.205  
  20963805.639 8  20963805.97546  20963808.43646 110165533.280    85843270.8574 
      2725.571        2123.814  
  21904842.236 7  21904841.10744  21904845.48545 115110709.210    89696656.0714 
      2743.541        2137.769  
  20039630.937 8  20039631.01946  20039634.31846 105308973.177    82058943.1624 
      2534.963        1975.285  
  21732719.960 7  21732719.66445  21732722.64645 114206215.598    88991858.5664 
      1614.929        1258.380  
 08  5 22  0 46 50.0000000  0  7G 2G 8G10G15G24G26G29               
  21204522.690 8  21204522.57546  21204523.88846 111430518.734    86828974.6384 
     -1297.410       -1010.973  
  24206165.392 6  24206165.04142  24206169.94542 127204267.996    99120215.2604 
      1303.474        1015.637  
  20936039.978 8  20936039.36245  20936042.78345 110019633.232    85729584.4364 
      -872.343        -679.771  
  20958619.965 7  20958620.75246  20958623.28046 110138284.251    85822037.8594 
      2724.098        2122.656  
  21899618.921 7  21899618.94645  21899622.43945 115083263.131    89675269.5234 
      2745.713        2139.496  
  20034810.201 8  20034810.13846  20034813.28846 105283638.937    82039202.1914 
      2531.803        1972.838  
  21729648.872 7  21729649.03745  21729652.11245 114190078.151    88979283.9294 
      1612.478        1256.467  
 08  5 22  0 47  0.0000000  0  7G 2G 8G10G15G24G26G29               
  21206991.858 8  21206991.62346  21206993.20546 111443494.242    86839085.4174 
     -1297.907       -1011.366  
  24203686.182 6  24203686.06842  24203690.62142 127191238.845    99110062.6894 
      1302.015        1014.604  
  20937698.079 8  20937697.40745  20937700.88545 110028346.015    85736373.6124 
      -870.386        -678.247  
  20953437.753 8  20953438.15446  20953440.85946 110111049.966    85800816.3394 
      2722.615        2121.498  
  21894391.692 7  21894392.07445  21894394.71045 115055794.341    89653865.2654 
      2747.832        2141.151  
  20029994.987 8  20029995.16546  20029998.25046 105258336.017    82019485.6344 
      2528.663        1970.361  
  21726582.989 8  21726583.47745  21726586.24346 114173965.758    88966728.8144 
      1609.849        1254.428  
 08  5 22  0 47 10.0000000  0  7G 2G 8G10G15G24G26G29               
  21209462.045 8  21209461.81746  21209463.46946 111456475.851    86849200.9434 
     -1298.489       -1011.812  
  24201209.648 6  24201210.03142  24201214.36043 127178223.730    99099921.0434 
      1300.738        1013.521  
  20939352.466 8  20939351.79445  20939355.48046 110037040.462    85743148.5004 
      -868.584        -676.838  
  20948258.115 8  20948258.51746  20948261.13946 110083831.259    85779606.9574 
      2721.266        2120.472  
  21889160.353 7  21889161.07345  21889163.71745 115028303.707    89632443.9734 
      2750.196        2142.970  
  20025186.169 8  20025186.18446  20025189.34146 105233065.484    81999794.3114 
      2525.556        1967.966  
  21723521.798 8  21723522.19946  21723525.00646 114157879.237    88954193.8674 
      1607.469        1252.543  
 08  5 22  0 47 20.0000000  0  7G 2G 8G10G15G24G26G29               
  21211933.567 8  21211933.36045  21211935.11846 111469463.831    86859321.4394 
     -1299.145       -1012.305  
  24198736.261 6  24198735.61443  24198740.95243 127165223.043    99089790.6324 
      1299.534        1012.608  
  20941003.495 8  20941002.88845  20941006.57745 110045717.097    85749909.5064 
      -866.707        -675.346  
  20943081.592 8  20943081.95646  20943084.72246 110056628.580    85758410.0674 
      2719.573        2119.142  
  21883925.356 7  21883925.10545  21883929.11745 115000791.646    89611005.9944 
      2752.424        2144.758  
  20020383.583 8  20020383.61646  20020386.69046 105207827.662    81980128.4734 
      2522.204        1965.357  
  21720465.852 7  21720465.77246  21720468.76046 114141819.082    88941679.4544 
      1604.881        1250.538  
 08  5 22  0 47 30.0000000  0  7G 2G 8G10G15G24G26G29               
  21214406.171 8  21214406.05545  21214407.76746 111482458.265    86869446.9644 
     -1299.627       -1012.712  
  24196264.579 6  24196264.47543  24196270.13043 127152236.870    99079671.5264 
      1298.067        1011.496  
  20942651.470 8  20942650.58945  20942654.33345 110054375.990    85756656.6894 
      -865.135        -674.111  
  20937908.437 8  20937908.69046  20937911.34646 110029442.046    85737225.7514 
      2717.872        2117.823  
  21878686.196 7  21878685.40345  21878690.10045 114973258.205    89589551.3724 
      2754.272        2146.191  
  20015587.191 8  20015587.27946  20015590.39946 105182622.700    81960488.2424 
      2518.846        1962.747  
  21717414.748 8  21717415.06845  21717417.61945 114125785.391    88929185.6644 
      1601.904        1248.236  
 08  5 22  0 47 40.0000000  0  7G 2G 8G10G15G24G26G29               
  21216880.244 7  21216880.13545  21216881.82545 111495459.912    86879578.1114 
     -1300.620       -1013.459  
  24193796.382 6  24193796.05743  24193801.23943 127139266.035    99069564.3904 
      1295.935        1009.815  
  20944295.849 8  20944295.00145  20944298.70645 110063017.805    85763390.5644 
      -863.501        -672.857  
  20932737.723 7  20932738.47646  20932740.97046 110002272.352    85716054.5664 
      2716.385        2116.656  
  21873442.385 7  21873441.86245  21873446.85845 114945704.156    89568080.6984 
      2756.478        2147.922  
  20010797.336 8  20010797.35446  20010800.49346 105157451.347    81940874.2014 
      2515.583        1960.203  
  21714368.646 8  21714369.23345  21714371.40146 114109778.702    88916712.9114 
      1599.455        1246.346  
 08  5 22  0 47 50.0000000  0  7G 2G 8G10G15G24G26G29               
  21219355.999 8  21219355.73345  21219357.47246 111508468.962    86889715.0274 
     -1301.120       -1013.864  
  24191330.706 6  24191330.56443  24191335.85742 127126310.829    99059469.4294 
      1295.101        1009.185  
  20945937.095 8  20945936.10145  20945939.84445 110071642.642    85770111.2104 
      -861.180        -671.059  
  20927570.916 8  20927571.46346  20927574.00846 109975119.878    85694896.7964 
      2714.180        2114.926  
  21868194.770 7  21868195.18845  21868199.14045 114918129.802    89546594.1904 
      2758.622        2149.521  
  20006013.793 8  20006013.82546  20006017.14546 105132313.922    81921286.5964 
      2512.007        1957.408  
  21711328.606 8  21711328.36945  21711330.50945 114093799.362    88904261.4664 
      1596.611        1244.097  
 08  5 22  0 48  0.0000000  0  7G 2G 8G10G15G24G26G29               
  21221833.030 8  21221833.01646  21221834.40245 111521486.005    86899858.1694 
     -1302.126       -1014.632  
  24188868.215 6  24188868.40942  24188873.42142 127113372.057    99049387.2754 
      1293.159        1007.654  
  20947575.343 7  20947574.25645  20947578.03645 110080251.107    85776819.1064 
      -859.939        -670.097  
  20922407.417 8  20922407.87246  20922410.55046 109947985.304    85673752.9784 
      2712.418        2113.567  
  21862943.884 7  21862944.65645  21862947.66245 114890535.778    89525092.3454 
      2760.456        2151.012  
  20001237.127 8  20001237.00446  20001240.25646 105107211.141    81901725.9874 
      2508.419        1954.609  
  21708293.089 8  21708292.70645  21708295.24446 114077848.051    88891831.8714 
      1593.730        1241.866  
 08  5 22  0 48 10.0000000  0  7G 2G 8G10G15G24G26G29               
  21224311.829 8  21224311.72446  21224313.18945 111534511.653    86910008.0154 
     -1302.898       -1015.229  
  24186409.659 5  24186408.36542  24186414.10742 127100450.361    99039318.4234 
      1291.365        1006.302  
  20949210.293 8  20949209.55245  20949213.21645 110088843.813    85783514.7174 
      -858.345        -668.864  
  20917247.806 7  20917247.99646  20917250.48146 109920869.314    85652623.6304 
      2710.696        2112.226  
  21857689.834 7  21857689.83845  21857692.80845 114862922.815    89503575.7544 
      2762.249        2152.426  
  19996466.840 8  19996466.81346  19996469.96246 105082143.595    81882192.8384 
      2505.101        1952.029  
  21705262.846 7  21705262.49445  21705265.15446 114061925.455    88879424.6454 
      1590.859        1239.626  
 08  5 22  0 48 20.0000000  0  7G 2G 8G10G15G24G26G29               
  21226792.218 7  21226791.95746  21226793.71646 111547546.069    86920164.6884 
     -1303.814       -1015.953  
  24183954.309 6  24183953.37142  24183958.02542 127087545.876    99029263.0114 
      1289.691        1004.905  
  20950842.141 8  20950841.33945  20950845.56445 110097420.724    85790198.0274 
      -856.792        -667.617  
  20912091.436 7  20912091.32646  20912094.14346 109893772.082    85631508.9114 
      2708.703        2110.658  
  21852431.378 7  21852431.01045  21852434.85445 114835291.147    89482044.5894 
      2764.051        2153.789  
  19991703.469 8  19991703.41246  19991706.39246 105057111.564    81862687.3574 
      2501.434        1949.168  
  21702238.108 8  21702238.02545  21702240.56846 114046031.745    88867039.9334 
      1587.874        1237.301  
 08  5 22  0 48 30.0000000  0  7G 2G 8G10G15G24G26G29               
  21229274.026 8  21229273.96245  21229275.64945 111560589.312    86930328.2424 
     -1305.094       -1016.957  
  24181501.642 5  24181500.98742  24181506.67342 127074658.718    99019221.0884 
      1287.419        1003.203  
  20952471.574 8  20952470.65946  20952474.67145 110105982.028    85796869.1654 
      -855.842        -666.889  
  20906938.630 8  20906938.32246  20906941.23646 109866693.706    85610408.8774 
      2706.853        2109.228  
  21847169.425 7  21847169.86145  21847173.61545 114807640.896    89460498.9434 
      2765.659        2155.042  
  19986946.623 8  19986946.81746  19986949.89746 105032115.134    81843209.6204 
      2497.790        1946.319  
  21699219.484 8  21699219.38145  21699221.48345 114030166.991    88854677.7884 
      1584.972        1235.033  
 08  5 22  0 48 40.0000000  0  7G 2G 8G10G15G24G26G29               
  21231758.394 8  21231758.07845  21231759.51345 111573642.988    86940499.9304 
     -1305.897       -1017.583  
  24179052.396 6  24179051.64642  24179058.34642 127061790.507    99009193.9314 
      1285.754        1001.840  
  20954098.271 8  20954097.20246  20954101.21246 110114529.160    85803529.2654 
      -854.022        -665.471  
  20901789.554 8  20901789.49146  20901792.26246 109839635.809    85589324.8014 
      2704.964        2107.751  
  21841904.251 7  21841904.93145  21841909.16745 114779973.658    89438940.0614 
      2767.621        2156.580  
  19982197.098 8  19982197.31246  19982200.34746 105007156.019    81823760.9604 
      2494.206        1943.534  
  21696206.183 8  21696206.30145  21696208.57046 114014332.831    88842339.4684 
      1582.039        1232.779  
 08  5 22  0 48 50.0000000  0  7G 2G 8G10G15G24G26G29               
  21234244.285 8  21234244.01945  21234245.86446 111586706.825    86950679.5314 
     -1306.802       -1018.299  
  24176608.472 6  24176607.17042  24176613.90542 127048941.102    98999181.4284 
      1284.114        1000.570  
  20955721.613 8  20955721.09745  20955725.12345 110123061.870    85810178.1334 
      -852.633        -664.385  
  20896644.522 8  20896644.60146  20896647.13746 109812598.327    85568256.6344 
      2702.768        2106.063  
  21836636.702 7  21836636.54045  21836640.93245 114752289.246    89417367.8034 
      2769.267        2157.864  
  19977454.595 8  19977454.79346  19977457.90146 104982234.068    81804341.2604 
      2490.346        1940.534  
  21693198.828 8  21693199.06245  21693201.34546 113998529.077    88830024.8564 
      1578.732        1230.192  
 08  5 22  0 49  0.0000000  0  7G 2G 8G10G15G24G26G29               
  21236732.279 7  21236731.99445  21236733.91245 111599781.421    86960867.5214 
     -1308.149       -1019.353  
  24174166.394 6  24174165.99443  24174173.01242 127036111.186    98989184.1044 
      1282.065         998.965  
  20957342.803 8  20957342.35545  20957346.22046 110131580.825    85816816.2794 
      -851.418        -663.465  
  20891503.229 8  20891503.68546  20891506.18946 109785581.788    85547204.7884 
      2700.550        2104.317  
  21831365.643 7  21831364.84845  21831369.19445 114724588.402    89395782.7254 
      2770.870        2159.082  
  19972719.261 8  19972719.60246  19972722.57246 104957349.755    81784950.8814 
      2486.406        1937.432  
  21690197.494 7  21690197.52746  21690200.14246 113982756.412    88817734.4714 
      1575.759        1227.840  
 08  5 22  0 49 10.0000000  0  7G 2G 8G10G15G24G26G29               
  21239222.527 8  21239222.13545  21239223.88546 111612867.396    86971064.3734 
     -1309.099       -1020.059  
  24171729.513 6  24171729.03543  24171734.74343 127023301.489    98979202.5044 
      1279.949         997.347  
  20958961.355 8  20958960.78445  20958964.70346 110140086.452    85823444.0344 
      -849.965        -662.315  
  20886366.427 7  20886366.60546  20886369.28146 109758586.884    85526169.8074 
      2698.521        2102.738  
  21826090.961 7  21826090.43345  21826094.76545 114696871.777    89374185.3564 
      2772.453        2160.333  
  19967991.350 8  19967991.58746  19967994.67046 104932504.001    81765590.5564 
      2482.654        1934.529  
  21687201.744 7  21687202.21645  21687205.07546 113967015.446    88805468.7714 
      1572.544        1225.366  
 08  5 22  0 49 20.0000000  0  7G 2G 8G10G15G24G26G29               
  21241714.756 8  21241714.33446  21241716.04446 111625964.049    86981269.5474 
     -1310.562       -1021.208  
  24169295.231 6  24169295.60543  24169299.66943 127010511.262    98969236.1214 
      1277.947         995.828  
  20960577.197 8  20960576.57545  20960580.48845 110148578.037    85830060.8564 
      -848.668        -661.312  
  20881233.364 8  20881233.36646  20881236.27446 109731612.974    85505151.1674 
      2696.222        2100.956  
  21820813.408 7  21820813.38545  21820817.44445 114669138.703    89352575.1704 
      2774.217        2161.744  
  19963270.655 8  19963270.83346  19963273.82246 104907695.991    81746259.6374 
      2478.669        1931.419  
  21684212.368 8  21684212.50546  21684215.39946 113951305.471    88793227.2354 
      1569.584        1223.051  
 08  5 22  0 49 30.0000000  0  7G 2G 8G10G15G24G26G29               
  21244209.210 8  21244208.96546  21244210.44046 111639072.120    86991483.6174 
     -1311.594       -1022.018  
  24166864.680 6  24166865.13443  24166869.15243 126997741.377    98959285.5634 
      1275.910         994.274  
  20962191.101 8  20962190.19946  20962193.78645 110157056.377    85836667.3434 
      -847.169        -660.128  
  20876104.710 8  20876104.64946  20876107.36746 109704660.876    85484149.5404 
      2694.035        2099.245  
  21815533.244 7  21815533.55445  21815537.42945 114641390.070    89330952.8644 
      2775.736        2162.915  
  19958557.199 8  19958557.30646  19958560.37246 104882926.748    81726958.9254 
      2474.835        1928.440  
  21681228.951 8  21681229.28446  21681231.80546 113935627.414    88781010.5604 
      1566.174        1220.413  
 08  5 22  0 49 40.0000000  0  7G 2G 8G10G15G24G26G29               
  21246706.119 8  21246705.58645  21246707.17545 111652192.584    87001707.3494 
     -1312.714       -1022.894  
  24164438.536 6  24164438.37042  24164443.26442 126984992.910    98949351.6944 
      1273.705         992.519  
  20963801.854 8  20963801.32845  20963804.66045 110165522.184    85843264.0724 
      -845.985        -659.226  
  20870980.190 8  20870980.26546  20870982.89046 109677731.679    85463165.7484 
      2691.747        2097.473  
  21810250.120 8  21810250.30745  21810254.23945 114613626.879    89309319.2154 
      2777.039        2163.920  
  19953851.241 8  19953851.38346  19953854.52746 104858197.168    81707689.1274 
      2470.945        1925.385  
  21678251.802 7  21678252.45446  21678254.71346 113919982.184    88768819.4704 
      1562.939        1217.859  
 08  5 22  0 49 50.0000000  0  7G 2G 8G10G15G24G26G29               
  21249205.025 7  21249204.46845  21249206.25045 111665324.775    87011940.2094 
     -1313.682       -1023.668  
  24162017.202 6  24162016.83142  24162021.96242 126972265.289    98939434.0524 
      1271.661         990.921  
  20965410.321 8  20965409.83145  20965413.17045 110173974.955    85849850.6404 
      -844.642        -658.150  
  20865859.670 7  20865860.03246  20865862.53746 109650824.704    85442199.2784 
      2689.549        2095.741  
  21804964.176 7  21804964.05345  21804968.08845 114585848.508    89287673.7244 
      2778.599        2165.152  
  19949152.926 8  19949153.07446  19949156.13346 104833506.774    81688449.8584 
      2467.122        1922.431  
  21675280.906 7  21675281.36046  21675283.31346 113904369.148    88756653.4624 
      1559.713        1215.398  
 08  5 22  0 50  0.0000000  0  7G 2G 8G10G15G24G26G29               
  21251706.242 7  21251706.04146  21251707.65046 111678469.644    87022182.9614 
     -1315.082       -1024.734  
  24159598.985 6  24159598.72842  24159603.97542 126959559.517    98929533.4244 
      1269.466         989.157  
  20967016.893 8  20967016.09545  20967019.28845 110182415.749    85856427.8704 
      -843.486        -657.256  
  20860744.307 8  20860744.21146  20860746.83046 109623940.985    85421250.9224 
      2687.199        2093.930  
  21799675.730 7  21799675.11645  21799679.14245 114558055.900    89266017.1584 
      2779.905        2166.149  
  19944462.092 8  19944462.26446  19944465.41446 104808856.403    81669241.7784 
      2463.115        1919.299  
  21672316.179 8  21672316.46346  21672318.21446 113888789.226    88744513.2544 
      1556.320        1212.747  
 08  5 22  0 50 10.0000000  0  7G 2G 8G10G15G24G26G29               
  21254210.101 7  21254210.00246  21254211.45846 111691627.246    87032435.6294 
     -1316.292       -1025.680  
  24157185.072 6  24157184.88042  24157190.25442 126946875.389    98919649.6894 
      1267.406         987.560  
  20968620.529 8  20968620.09845  20968623.19846 110190844.184    85862995.4764 
      -842.091        -656.174  
  20855632.721 8  20855632.86346  20855635.44746 109597080.378    85400320.5804 
      2685.003        2092.227  
  21794383.529 7  21794383.85545  21794387.37045 114530248.992    89244349.4324 
      2781.501        2167.416  
  19939778.760 8  19939778.96846  19939782.18246 104784246.015    81650064.8484 
      2459.162        1916.238  
  21669357.601 8  21669358.06746  21669359.88146 113873242.413    88732398.8584 
      1553.187        1210.272  
 08  5 22  0 50 20.0000000  0  7G 2G 8G10G15G24G26G29               
  21256716.274 7  21256716.13845  21256717.48645 111704796.820    87042697.6284 
     -1317.475       -1026.609  
  24154775.920 5  24154774.75543  24154780.76142 126934212.627    98909782.6174 
      1265.137         985.769  
  20970221.870 8  20970221.52945  20970224.64645 110199259.768    85869553.0784 
      -840.677        -655.088  
  20850525.492 8  20850525.93746  20850528.28746 109570242.543    85379407.9864 
      2682.677        2090.397  
  21789089.434 7  21789089.76145  21789093.21945 114502427.406    89222670.2804 
      2782.995        2168.573  
  19935103.187 8  19935103.32946  19935106.44246 104759675.323    81630918.8584 
      2455.146        1913.108  
  21666405.517 8  21666406.09446  21666407.95846 113857728.309    88720309.9444 
      1549.786        1207.625  
 08  5 22  0 50 30.0000000  0  7G 2G 8G10G15G24G26G29               
  21259224.775 8  21259224.55345  21259226.05045 111717979.353    87052969.7204 
     -1318.948       -1027.735  
  24152371.524 6  24152370.39942  24152375.21842 126921572.299    98899933.0334 
      1262.995         984.146  
  20971821.146 8  20971820.71645  20971823.80446 110207663.552    85876101.4714 
      -839.866        -654.447  
  20845423.288 7  20845423.45346  20845425.77346 109543428.537    85358513.9574 
      2680.155        2088.442  
  21783792.514 7  21783792.93545  21783796.28045 114474592.194    89200980.5044 
      2784.174        2169.505  
  19930435.065 8  19930435.44746  19930438.43346 104735145.283    81611804.5404 
      2450.851        1909.766  
  21663459.525 8  21663460.03146  21663462.31446 113842247.945    88708247.3184 
      1546.311        1204.932  
 08  5 22  0 50 40.0000000  0  7G 2G 8G10G15G24G26G29               
  21561527.800 8  21561527.60345  21561529.05245 113306592.748    88290850.2794 
     -1319.823       -1028.454  
  24449762.803 6  24449762.95943  24449766.87943 128484374.923   100117701.3084 
      1261.324         982.851  
  21273210.021 8  21273209.56145  21273212.93545 111791473.847    87110239.3684 
      -838.265        -653.207  
  21140118.215 8  21140118.00846  21140120.51046 111092060.237    86565239.9504 
      2678.039        2086.790  
  22078286.192 7  22078286.13945  22078290.17245 116022165.424    90406881.7204 
      2785.795        2170.731  
  20225567.839 8  20225568.14446  20225570.87746 106286077.732    82820323.3294 
      2447.113        1906.840  
  21960313.100 8  21960313.04046  21960315.53946 115402222.067    89923811.5664 
      1543.218        1202.491  
 08  5 22  0 50 50.0000000  0  7G 2G 8G10G15G24G26G29               
  21564041.202 8  21564040.93745  21564042.56545 113319800.774    88301142.2484 
     -1321.603       -1029.817  
  24447365.542 6  24447366.29542  24447369.80043 128471779.100   100107886.3584 
      1258.043         980.282  
  21274804.624 7  21274804.08745  21274807.38245 111799853.357    87116768.8594 
      -837.318        -652.466  
  21135024.578 8  21135024.43846  21135027.11346 111065293.481    86544382.7474 
      2675.321        2084.667  
  22072984.254 8  22072984.03845  22072988.16245 115994302.743    90385170.5514 
      2786.830        2171.553  
  20220915.482 8  20220915.59946  20220918.47246 106261628.796    82801272.1964 
      2442.794        1903.493  
  21957379.904 7  21957380.00646  21957382.53546 115386808.701    89911801.1604 
      1539.539        1199.649  
 08  5 22  0 51  0.0000000  0  7G 2G 8G10G15G24G26G29               
  21566557.361 8  21566557.15945  21566558.72546 113333022.723    88311445.0504 
     -1322.730       -1030.699  
  24444973.066 6  24444972.73242  24444976.97943 128459206.798   100098089.7714 
      1256.100         978.785  
  21276397.368 8  21276396.63845  21276400.03545 111808221.763    87123289.6784 
      -836.064        -651.484  
  21129935.605 7  21129935.69246  21129938.27846 111038551.592    86523544.9144 
      2673.129        2082.959  
  22067679.393 8  22067679.72045  22067683.44245 115966427.521    90363449.6054 
      2788.515        2172.849  
  20216270.865 8  20216271.11946  20216273.92546 106237221.558    82782253.5854 
      2438.868        1900.404  
  21954453.182 8  21954453.43646  21954455.86646 115371430.023    89899817.7644 
      1536.486        1197.275  
 08  5 22  0 51 10.0000000  0  7G 2G 8G10G15G24G26G29               
  21569076.251 8  21569075.76645  21569077.20245 113346258.035    88321758.2654 
     -1324.061       -1031.749  
  24442583.823 6  24442584.12442  24442589.03142 128446657.520   100088311.1164 
      1253.968         977.166  
  21277987.255 8  21277986.89045  21277990.44245 111816578.529    87129801.4484 
      -835.051        -650.673  
  21124851.361 7  21124851.60946  21124854.08546 111011834.089    86502726.0734 
      2670.537        2080.960  
  22062372.615 7  22062372.91445  22062376.16145 115938539.304    90341718.5264 
      2789.390        2173.544  
  20211634.225 8  20211634.43846  20211637.23546 106212855.722    82763267.2184 
      2434.487        1897.002  
  21951533.359 8  21951533.39946  21951535.66445 115356085.582    89887861.0494 
      1532.657        1194.280  
 08  5 22  0 51 20.0000000  0  7G 2G 8G10G15G24G26G29               
  21571596.972 8  21571597.03145  21571598.43345 113359507.641    88332082.6334 
     -1325.792       -1033.091  
  24440201.282 5  24440201.36842  24440205.34742 128434132.274   100078551.1774 
      1251.176         974.945  
  21279575.624 8  21279574.77545  21279578.63145 111824924.358    87136304.6824 
      -834.057        -649.878  
  21119772.040 7  21119772.22846  21119774.66046 110985141.932    86481926.9934 
      2667.827        2078.851  
  22057063.448 7  22057063.43645  22057066.62345 115910639.079    90319978.0934 
      2790.615        2174.569  
  20207005.731 8  20207005.86946  20207008.69646 106188532.273    82744313.8794 
      2430.085        1893.558  
  21948619.868 7  21948620.18245  21948622.38246 115340776.341    89875931.7684 
      1529.140        1191.552  
 08  5 22  0 51 30.0000000  0  7G 2G 8G10G15G24G26G29               
  21574121.172 8  21574121.08245  21574122.49645 113372771.480    88342418.0864 
     -1326.988       -1034.030  
  24437822.198 6  24437822.39242  24437825.87442 128421631.028   100068809.9434 
      1248.812         973.142  
  21281161.615 8  21281160.74245  21281164.76745 111833259.272    87142799.4164 
      -832.714        -648.887  
  21114697.427 7  21114697.84946  21114700.02946 110958475.229    86461147.7444 
      2665.368        2076.934  
  22051751.755 7  22051751.41645  22051755.39145 115882726.855    90298228.3124 
      2791.775        2175.431  
  20202385.107 8  20202385.30746  20202388.14846 106164251.048    82725393.4514 
      2426.084        1890.455  
  21945713.337 8  21945713.79946  21945715.75446 115325502.255    89864029.8844 
      1525.598        1188.751  
 08  5 22  0 51 40.0000000  0  7G 2G 8G10G15G24G26G29               
  21576647.861 8  21576647.63345  21576649.20245 113386049.440    88352764.5404 
     -1328.570       -1035.266  
  24435448.397 6  24435447.43242  24435452.10842 128409153.745   100059087.3754 
      1246.436         971.265  
  21282745.596 8  21282744.60045  21282748.69445 111841583.286    87149285.6564 
      -831.842        -648.197  
  21109627.815 8  21109628.13646  21109630.49046 110931833.876    86440388.2444 
      2662.754        2074.858  
  22046438.008 7  22046437.93245  22046441.79345 115854802.653    90276469.1834 
      2792.945        2176.303  
  20197772.426 8  20197772.86346  20197775.63646 106140012.108    82706505.9594 
      2421.615        1886.969  
  21942813.644 8  21942814.03646  21942816.06046 115310263.244    89852155.3194 
      1521.988        1185.974  
 08  5 22  0 51 50.0000000  0  7G 2G 8G10G15G24G26G29               
  21579177.430 8  21579177.12245  21579178.99245 113399342.439    88363122.7204 
     -1330.121       -1036.442  
  24433078.890 5  24433077.51242  24433082.48242 128396701.515   100049384.3314 
      1243.958         969.328  
  21284327.662 8  21284326.71045  21284330.70445 111849897.109    87155763.9574 
      -830.807        -647.373  
  21104562.912 8  21104563.58146  21104566.04046 110905218.873    86419649.2884 
      2660.182        2072.862  
  22041122.018 7  22041122.19845  22041125.96345 115826867.379    90254701.4454 
      2794.112        2177.249  
  20193168.396 8  20193168.48646  20193171.34446 106115816.474    82687652.2164 
      2417.369        1883.667  
  21939920.702 8  21939921.02546  21939922.99546 115295060.258    89840308.8394 
      1518.532        1183.248  
 08  5 22  0 52  0.0000000  0  7G 2G 8G10G15G24G26G29               
  21581709.938 7  21581709.78045  21581711.44445 113412650.939    88373492.9754 
     -1331.601       -1037.595  
  24430713.315 6  24430712.45642  24430717.24842 128384274.718   100039701.1314 
      1241.307         967.239  
  21285907.840 8  21285907.14045  21285910.92946 111858201.152    87162234.6394 
      -829.815        -646.602  
  21099503.686 8  21099503.94246  21099506.34546 110878630.597    86398931.1484 
      2657.532        2070.801  
  22035804.531 8  22035804.16245  22035808.18245 115798921.553    90232925.4844 
      2795.193        2178.061  
  20188572.349 8  20188572.50146  20188575.42346 106091664.555    82668832.5384 
      2413.095        1880.319  
  21937034.400 8  21937034.98646  21937036.84846 115279893.754    89828490.7834 
      1514.827        1180.346  
 08  5 22  0 52 10.0000000  0  7G 2G 8G10G15G24G26G29               
  21584245.242 8  21584245.12445  21584246.89245 113425973.954    88383874.5424 
     -1333.116       -1038.803  
  24428354.048 6  24428353.35242  24428357.46842 128371872.522   100030037.0744 
      1239.082         965.569  
  21287486.317 8  21287485.47645  21287489.03245 111866494.496    87168696.9864 
      -828.918        -645.910  
  21094449.207 8  21094449.29946  21094451.67846 110852068.193    86378233.1734 
      2654.904        2068.734  
  22030484.769 7  22030483.66245  22030488.38945 115770964.232    90211140.5704 
      2796.340        2178.930  
  20183984.418 8  20183984.66346  20183987.41446 106067555.287    82650046.0904 
      2408.723        1876.893  
  21934155.294 7  21934155.36446  21934157.42746 115264762.758    89816700.3944 
      1511.312        1177.608  
 08  5 22  0 52 20.0000000  0  7G 2G 8G10G15G24G26G29               
  21586783.841 8  21586783.52945  21586785.11245 113439313.161    88394268.7214 
     -1334.472       -1039.870  
  24425998.959 6  24425998.77742  24426002.30042 128359496.593   100020393.4944 
      1236.227         963.239  
  21289062.573 8  21289062.08346  21289065.52346 111874778.911    87175152.3654 
      -827.608        -644.894  
  21089399.490 7  21089399.83346  21089402.28646 110825533.354    86357556.6774 
      2652.371        2066.792  
  22025162.360 7  22025161.66645  22025165.59245 115742997.185    90189348.0614 
      2797.290        2179.698  
  20179405.109 8  20179405.28546  20179408.15146 106043490.668    82631294.4464 
      2404.607        1873.705  
  21931283.138 8  21931283.19146  21931285.37946 115249669.116    89804939.1074 
      1507.533        1174.676  
 08  5 22  0 52 30.0000000  0  7G 2G 8G10G15G24G26G29               
  21589325.231 8  21589324.96645  21589326.30745 113452668.061    88404675.1304 
     -1336.312       -1041.275  
  24423648.652 6  24423648.46242  24423652.42242 128347146.495   100010770.0644 
      1233.933         961.516  
  21290637.368 8  21290636.68645  21290640.22645 111883053.621    87181600.1864 
      -826.846        -644.318  
  21084355.017 8  21084355.68546  21084357.94246 110799025.705    86336901.3704 
      2649.237        2064.333  
  22019838.406 7  22019838.07945  22019841.98245 115715020.060    90167547.7074 
      2798.341        2180.514  
  20174834.491 8  20174834.25046  20174837.39246 106019470.336    82612577.3044 
      2399.617        1869.831  
  21928417.892 8  21928417.98446  21928420.61346 115234612.355    89793206.5654 
      1503.889        1171.861  
 08  5 22  0 52 40.0000000  0  7G 2G 8G10G15G24G26G29               
  21591869.798 8  21591869.62145  21591870.81845 113466039.694    88415094.5764 
     -1337.858       -1042.496  
  24421303.268 6  24421302.58642  24421307.40042 128334823.370   100001167.6344 
      1231.527         959.637  
  21292210.175 8  21292209.63346  21292213.15645 111891319.672    87188041.2594 
      -826.112        -643.736  
  21079316.797 7  21079316.55346  21079319.04546 110772546.402    86316268.1484 
      2646.517        2062.199  
  22014512.882 7  22014512.86445  22014516.52245 115687033.916    90145740.3144 
      2799.203        2181.224  
  20170271.672 8  20170271.83846  20170275.12446 105995495.241    82593895.4084 
      2395.222        1866.395  
  21925559.765 8  21925560.02746  21925562.84546 115219593.480    89781503.5494 
      1500.148        1168.920  
 08  5 22  0 52 50.0000000  0  7G 2G 8G10G15G24G26G29               
  21594417.146 8  21594417.42845  21594418.49445 113479427.712    88425526.7964 
     -1339.496       -1043.766  
  24418963.356 5  24418962.30742  24418967.19042 128322526.974    99991586.0364 
      1228.457         957.244  
  21293781.521 8  21293780.90245  21293784.71745 111899576.850    87194475.4134 
      -825.275        -643.079  
  21074283.192 8  21074283.03246  21074285.52646 110746095.083    86295656.7254 
      2643.729        2060.057  
  22009185.482 7  22009185.72445  22009189.59445 115659038.481    90123925.6934 
      2799.944        2181.774  
  20165718.120 8  20165718.15746  20165721.21946 105971565.075    82575248.5254 
      2390.784        1862.937  
  21922709.284 8  21922709.42446  21922711.99346 115204612.146    89769829.7754 
      1496.232        1165.902  
 08  5 22  0 53  0.0000000  0  7G 2G 8G10G15G24G26G29               
  21596967.973 8  21596967.95145  21596969.30345 113492832.133    88435971.7884 
     -1341.342       -1045.210  
  24416628.419 5  24416627.41342  24416632.77042 128310257.310    99982025.2684 
      1225.022         954.554  
  21295350.783 8  21295350.41345  21295354.15645 111907825.005    87200902.5464 
      -824.567        -642.502  
  21069254.972 7  21069254.86346  21069257.27246 110719671.936    86275067.2624 
      2641.096        2058.001  
  22003856.831 8  22003856.18845  22003860.30245 115631033.822    90102103.8834 
      2800.645        2182.340  
  20161172.947 8  20161172.93646  20161175.98146 105947680.037    82556636.8084 
      2386.517        1859.602  
  21919865.181 8  21919865.57146  21919868.43746 115189668.510    89758185.3804 
      1492.280        1162.843  
 08  5 22  0 53 10.0000000  0  7G 2G 8G10G15G24G26G29               
  21599521.948 8  21599521.60145  21599523.23945 113506253.049    88446429.6334 
     -1342.831       -1046.349  
  24414298.856 6  24414297.63642  24414303.74942 128298014.635    99972485.5004 
      1222.625         952.672  
  21296918.857 7  21296918.25045  21296922.12546 111916064.201    87207322.6864 
      -823.426        -641.624  
  21064231.856 7  21064231.96446  21064234.56146 110693276.994    86254499.7754 
      2638.141        2055.714  
  21998525.561 8  21998525.29245  21998529.53645 115603020.107    90080275.0234 
      2801.596        2183.045  
  20156636.223 8  20156636.32246  20156639.46846 105923840.174    82538060.2954 
      2381.861        1856.015  
  21917028.672 8  21917028.79746  21917031.76146 115174762.575    89746570.3634 
      1488.535        1159.890  
 08  5 22  0 53 20.0000000  0  7G 2G 8G10G15G24G26G29               
  21602079.049 7  21602078.94045  21602080.38445 113519691.816    88456901.3914 
     -1344.601       -1047.723  
  24411974.574 6  24411973.62242  24411979.32742 128285800.329    99962967.8504 
      1220.034         950.664  
  21298485.278 8  21298484.72545  21298488.36745 111924295.840    87213736.9414 
      -822.722        -641.113  
  21059214.859 8  21059214.79846  21059217.55246 110666911.718    86233955.3994 
      2635.310        2053.479  
  21993193.129 8  21993193.18745  21993197.07845 115574998.814    90058440.2434 
      2802.612        2183.835  
  20152108.846 8  20152108.76346  20152111.76546 105900046.962    82519520.1294 
      2377.179        1852.321  
  21914199.762 7  21914199.53146  21914202.24846 115159895.820    89734985.8794 
      1484.970        1157.115  
 08  5 22  0 53 30.0000000  0  7G 2G 8G10G15G24G26G29               
  21604639.603 8  21604639.66745  21604641.09145 113533147.728    88467386.5144 
     -1346.578       -1049.303  
  24409656.281 6  24409655.23842  24409659.79642 128273613.726    99953471.7834 
      1217.255         948.534  
  21300050.428 7  21300049.61445  21300053.16145 111932519.310    87220144.8294 
      -822.078        -640.554  
  21054203.180 8  21054203.24446  21054206.07246 110640575.418    86213433.6114 
      2631.945        2050.858  
  21987859.629 7  21987859.20445  21987862.91745 115546969.237    90036599.0104 
      2803.254        2184.328  
  20147589.731 8  20147589.76446  20147592.83446 105876299.811    82501015.8534 
      2372.055        1848.350  
  21911377.745 7  21911377.61946  21911380.24645 115145067.567    89723431.3914 
      1480.731        1153.812  
 08  5 22  0 53 40.0000000  0  7G 2G 8G10G15G24G26G29               
  21607204.076 8  21607203.77345  21607205.34545 113546622.180    88477886.0764 
     -1348.646       -1050.897  
  24407342.201 6  24407342.18842  24407346.34142 128261456.276    99943998.4464 
      1213.851         945.787  
  21301613.870 7  21301613.13045  21301616.62445 111940735.829    87226547.3054 
      -820.958        -639.703  
  21049197.184 7  21049197.58946  21049200.24946 110614269.508    86192935.5084 
      2628.659        2048.287  
  21982524.334 7  21982524.09645  21982528.06445 115518932.872    90014752.4974 
      2804.070        2184.968  
  20143079.820 8  20143080.00946  20143082.80746 105852600.161    82482548.5984 
      2367.425        1844.752  
  21908563.825 8  21908563.55046  21908566.13846 115130279.283    89711908.0454 
      1476.572        1150.591  
 08  5 22  0 53 50.0000000  0  7G 2G 8G10G15G24G26G29               
  21609771.390 8  21609771.37045  21609772.73845 113560114.178    88488399.3204 
     -1349.987       -1051.900  
  24405034.619 6  24405033.56842  24405038.36243 128249327.087    99934547.1344 
      1211.479         944.038  
  21303175.631 7  21303175.12445  21303178.56445 111948944.361    87232943.5644 
      -820.451        -639.317  
  21044196.902 8  21044197.44746  21044199.99946 110587993.030    86172460.3234 
      2626.242        2046.430  
  21977188.115 7  21977187.39345  21977192.04345 115490888.805    89992899.9814 
      2804.738        2185.505  
  20138578.722 8  20138578.88546  20138581.74246 105828947.025    82464117.5864 
      2363.139        1841.412  
  21905757.102 8  21905757.10446  21905759.27346 115115529.993    89700415.0924 
      1472.958        1147.776  
 08  5 22  0 54  0.0000000  0  7G 2G 8G10G15G24G26G29               
  21612342.533 8  21612342.40945  21612343.63945 113573624.234    88498926.6204 
     -1351.787       -1053.356  
  24402731.062 6  24402730.22242  24402735.85442 128237226.766    99925118.3294 
      1208.812         941.845  
  21304736.342 8  21304735.63545  21304739.17745 111957145.297    87239333.9004 
      -819.727        -638.755  
  21039201.968 8  21039202.69346  21039205.29546 110561746.656    86152008.6154 
      2623.310        2044.142  
  21971849.888 7  21971849.21845  21971854.04345 115462837.613    89971041.9174 
      2805.514        2186.124  
  20134086.725 8  20134086.90446  20134089.69946 105805340.944    82445723.2344 
      2358.376        1837.696  
  21902958.142 7  21902958.46746  21902959.94046 115100820.226    89688952.9294 
      1469.167        1144.770  
 08  5 22  0 54 10.0000000  0  7G 2G 8G10G15G24G26G29               
  21614916.380 7  21614916.24845  21614917.85245 113587151.122    88509467.0444 
     -1353.587       -1054.745  
  24400432.968 5  24400432.14942  24400438.01142 128225154.205    99915711.1344 
      1205.734         939.564  
  21306295.332 7  21306294.45845  21306298.19145 111965337.560    87245717.4744 
      -818.663        -637.927  
  21034213.441 7  21034213.71946  21034216.21246 110535529.313    86131579.5104 
      2620.273        2041.801  
  21966510.448 7  21966509.88045  21966514.05645 115434778.197    89949177.4454 
      2806.233        2186.694  
  20129603.437 8  20129603.46546  20129606.53846 105781780.857    82427364.7274 
      2353.751        1834.095  
  21900166.222 8  21900166.76546  21900168.10446 115086148.773    89677520.6274 
      1465.144        1141.657  
 08  5 22  0 54 20.0000000  0  7G 2G 8G10G15G24G26G29               
  21617493.979 7  21617493.68445  21617495.33745 113600696.350    88520021.7574 
     -1355.342       -1056.109  
  24398142.015 5  24398140.80042  24398146.45142 128213111.020    99906326.8594 
      1203.261         937.611  
  21307853.023 8  21307852.15845  21307855.82845 111973522.693    87252095.4994 
      -817.995        -637.422  
  21029230.415 8  21029230.39646  21029232.98046 110509342.512    86111174.2154 
      2617.189        2039.368  
  21961169.694 7  21961169.10545  21961172.88545 115406712.236    89927307.8664 
      2807.069        2187.320  
  20125128.960 8  20125129.17246  20125132.27846 105758268.390    82409043.3234 
      2348.855        1830.269  
  21897381.829 8  21897382.49446  21897383.98346 115071517.310    89666119.4844 
      1461.253        1138.632  
 08  5 22  0 54 30.0000000  0  7G 2G 8G10G15G24G26G29               
  21620074.992 8  21620074.73245  21620076.41945 113614260.491    88530591.2074 
     -1357.495       -1057.784  
  24395855.834 5  24395853.97942  24395860.04242 128201097.738    99896965.8624 
      1199.719         934.931  
  21309409.193 7  21309408.67645  21309412.10246 111981701.147    87258468.3094 
      -817.478        -637.027  
  21024253.002 7  21024253.38646  21024255.72746 110483186.842    86090793.1794 
      2613.995        2036.884  
  21955827.661 7  21955826.90845  21955830.86845 115378640.187    89905433.5394 
      2807.633        2187.761  
  20120663.987 8  20120664.21746  20120667.19046 105734804.153    82390759.5044 
      2344.004        1826.486  
  21894605.338 8  21894606.00746  21894607.80246 115056926.341    89654749.8944 
      1457.255        1135.505  
 08  5 22  0 54 40.0000000  0  7G 2G 8G10G15G24G26G29               
  21622660.153 7  21622659.71845  21622661.20545 113627843.703    88541175.5244 
     -1359.213       -1059.163  
  24393575.557 6  24393575.53742  24393579.70542 128189114.588    99887628.3504 
      1196.562         932.366  
  21310964.211 8  21310963.65645  21310967.16145 111989872.943    87264835.9384 
      -816.800        -636.483  
  21019281.682 8  21019282.16046  21019284.47046 110457062.497    86070436.5464 
      2611.091        2034.592  
  21950484.190 8  21950484.14845  21950488.02045 115350562.286    89883554.6634 
      2808.115        2188.137  
  20116208.137 8  20116208.31146  20116211.13746 105711388.233    82372513.3304 
      2339.411        1822.894  
  21891836.228 8  21891837.21046  21891839.34746 115042376.165    89643412.0944 
      1453.046        1132.234  
 08  5 22  0 54 50.0000000  0  7G 2G 8G10G15G24G26G29               
  21625248.193 8  21625247.82245  21625249.29945 113641444.482    88551773.5264 
     -1360.839       -1060.407  
  24391300.536 6  24391300.83642  24391305.12542 128177160.151    99878313.1754 
      1194.504         930.791  
  21312517.801 8  21312517.11945  21312520.78445 111998036.590    87271197.2234 
      -815.773        -635.663  
  21014316.352 8  21014316.54046  21014318.80946 110430968.046    86050103.2094 
      2607.740        2032.011  
  21945140.029 8  21945139.72645  21945143.99845 115322477.142    89861670.1334 
      2809.024        2188.863  
  20111761.035 8  20111761.33546  20111764.23546 105688019.284    82354303.7574 
      2334.366        1818.984  
  21889075.068 7  21889075.61846  21889078.12946 115027865.199    89632104.8434 
      1449.126        1129.200  
 08  5 22  0 55  0.0000000  0  7G 2G 8G10G15G24G26G29               
  21627839.849 7  21627839.54745  21627841.11445 113655064.082    88562386.1934 
     -1362.764       -1061.888  
  24389031.025 5  24389031.53042  24389035.45342 128165235.741    99869021.4184 
      1191.264         928.297  
  21314070.211 8  21314069.51645  21314073.00945 112006193.395    87277553.1694 
      -814.948        -635.007  
  21009356.801 7  21009356.87346  21009359.03746 110404904.817    86029794.2014 
      2604.757        2029.684  
  21939794.538 7  21939794.16145  21939798.61145 115294386.075    89839781.0024 
      2809.752        2189.429  
  20107323.480 8  20107323.46646  20107326.45746 105664698.652    82336131.8434 
      2329.736        1815.393  
  21886321.572 7  21886321.95846  21886324.56646 115013394.800    89620829.2104 
      1445.131        1126.081  
 08  5 22  0 55 10.0000000  0  7G 2G 8G10G15G24G26G29               
  21630434.893 8  21630434.97545  21630436.45345 113668702.148    88573013.2514 
     -1364.799       -1063.473  
  24386767.780 6  24386767.48942  24386772.44842 128153341.085    99859752.8724 
      1188.049         925.805  
  21315620.963 8  21315620.47545  21315623.78845 112014342.926    87283903.4544 
      -814.675        -634.836  
  21004403.137 7  21004403.02546  21004405.46446 110378872.491    86009509.2734 
      2601.607        2027.246  
  21934447.213 7  21934447.69745  21934451.53045 115266288.774    89817887.0074 
      2810.170        2189.705  
  20102894.901 8  20102894.87146  20102897.70146 105641426.028    82317997.3274 
      2324.782        1811.495  
  21883575.712 8  21883576.02546  21883578.50646 114998964.591    89609584.8934 
      1441.170        1122.997  
 08  5 22  0 55 20.0000000  0  7G 2G 8G10G15G24G26G29               
  21633034.393 8  21633034.13345  21633035.52245 113682359.838    88583655.5974 
     -1366.598       -1064.870  
  24384509.126 5  24384509.05442  24384515.26042 128141477.379    99850508.4504 
      1185.016         923.332  
  21317170.660 7  21317169.97945  21317173.37945 112022486.282    87290248.9224 
      -814.238        -634.472  
  20999455.116 8  20999455.40746  20999457.81946 110352872.339    85989249.4134 
      2598.510        2024.830  
  21929100.314 7  21929099.99245  21929103.15145 115238186.446    89795989.0814 
      2810.344        2189.878  
  20098475.557 8  20098475.67546  20098478.50146 105618202.613    82299901.1604 
      2319.846        1807.654  
  21880837.624 8  21880837.81346  21880840.11446 114984575.803    89598372.8394 
      1436.804        1119.611  
 08  5 22  0 55 30.0000000  0  7G 2G 8G10G15G24G26G29               
  21635636.804 8  21635636.67145  21635638.31845 113696036.194    88594312.4904 
     -1368.530       -1066.378  
  24382258.543 6  24382258.43842  24382263.21242 128129643.805    99841287.4664 
      1181.699         920.773  
  21318718.809 8  21318718.19145  21318721.60745 112030622.552    87296588.8664 
      -813.331        -633.737  
  20994513.521 7  20994513.65446  20994516.20146 110326903.397    85969013.8794 
      2595.469        2022.446  
  21923751.903 7  21923750.61845  21923754.40745 115210078.254    89774086.5964 
      2811.088        2190.471  
  20094065.662 8  20094065.60746  20094068.47346 105595027.467    82281842.6084 
      2315.228        1804.094  
  21878106.964 8  21878107.23245  21878109.73446 114970227.523    89587192.3554 
      1432.898        1116.565  
 08  5 22  0 55 40.0000000  0  7G 2G 8G10G15G24G26G29               
  21638243.181 7  21638242.72145  21638244.33145 113709731.943    88604984.4944 
     -1370.403       -1067.860  
  24380012.748 6  24380012.31942  24380017.63743 128117840.955    99832090.4464 
      1179.227         918.886  
  21320265.817 8  21320265.36145  21320268.76245 112038752.354    87302923.7784 
      -812.661        -633.244  
  20989577.895 7  20989578.08346  20989580.46346 110300966.387    85948803.2174 
      2591.949        2019.691  
  21918401.580 7  21918400.93845  21918405.12545 115181964.980    89752180.1444 
      2811.341        2190.673  
  20089664.793 8  20089664.83946  20089667.85346 105571901.446    82263822.3294 
      2310.020        1800.005  
  21875384.737 8  21875384.57646  21875387.10246 114955920.493    89576044.0134 
      1428.354        1112.991  
 08  5 22  0 55 50.0000000  0  7G 2G 8G10G15G24G26G29               
  21640852.593 7  21640852.60545  21640854.20445 113723447.073    88615671.5984 
     -1372.296       -1069.304  
  24377772.706 6  24377772.49043  24377777.17743 128106069.136    99822917.5844 
      1175.626         916.140  
  21321811.794 8  21321811.29645  21321814.79345 112046875.773    87309253.7084 
      -811.843        -632.620  
  20984648.561 8  20984648.62446  20984650.86746 110275061.441    85928617.5474 
      2589.091        2017.462  
  21913050.602 7  21913050.53745  21913054.89045 115153846.677    89730269.7894 
      2812.199        2191.327  
  20085273.304 8  20085273.53246  20085276.50046 105548824.652    82245840.4144 
      2305.378        1796.395  
  21872670.007 7  21872669.83246  21872672.53146 114941654.763    89564927.8574 
      1424.620        1110.082  
 08  5 22  0 56  0.0000000  0  7G 2G 8G10G15G24G26G29               
  21643466.246 7  21643466.04845  21643467.63045 113737181.253    88626373.5464 
     -1374.512       -1071.007  
  24375538.023 5  24375538.33543  24375543.04642 128094327.896    99813768.6034 
      1172.129         913.405  
  21323356.134 8  21323355.60045  21323359.28545 112054992.477    87315578.4074 
      -811.542        -632.366  
  20979724.695 7  20979725.33746  20979727.36846 110249188.544    85908456.8474 
      2585.762        2014.895  
  21907698.753 7  21907699.24045  21907702.99245 115125723.103    89708355.3264 
      2812.381        2191.481  
  20080891.176 8  20080891.39846  20080894.24646 105525796.796    82227896.6324 
      2300.469        1792.598  
  21869962.865 7  21869962.92446  21869965.62546 114927430.014    89553843.6284 
      1420.361        1106.810  
 08  5 22  0 56 10.0000000  0  7G 2G 8G10G15G24G26G29               
  21646083.693 8  21646083.22145  21646085.04345 113750934.929    88637090.6884 
     -1375.938       -1072.149  
  24373310.042 6  24373310.71942  24373314.89942 128082617.902    99804643.9284 
      1170.156         911.803  
  21324899.354 8  21324898.81545  21324902.65945 112063102.867    87321898.1904 
      -810.348        -631.424  
  20974807.176 8  20974807.93946  20974810.04946 110223347.971    85888321.3374 
      2582.413        2012.269  
  21902346.532 7  21902346.33645  21902350.16445 115097594.853    89686437.2034 
      2813.129        2192.035  
  20076518.745 8  20076518.72746  20076521.65046 105502818.322    82209991.3324 
      2295.527        1788.697  
  21867263.983 7  21867263.75846  21867266.77546 114913246.749    89542791.7324 
      1416.160        1103.467  
 08  5 22  0 56 20.0000000  0  7G 2G 8G10G15G24G26G29               
  21648704.512 8  21648704.33445  21648706.06445 113764708.022    88647822.9614 
     -1378.162       -1073.857  
  24371087.656 6  24371087.63643  24371092.44543 128070939.196    99795543.6434 
      1166.105         908.706  
  21326441.786 8  21326440.90545  21326444.79045 112071206.719    87328212.8714 
      -809.919        -631.112  
  20969896.217 8  20969896.49446  20969899.03146 110197539.642    85868210.9504 
      2579.152        2009.741  
  21896993.054 7  21896992.30345  21896996.17045 115069461.887    89664515.4174 
      2813.330        2192.194  
  20072155.358 8  20072155.56246  20072158.42546 105479889.312    82192124.5664 
      2290.469        1784.828  
  21864572.445 8  21864572.83446  21864575.43246 114899104.922    89531772.1274 
      1411.784        1100.100  
 08  5 22  0 56 30.0000000  0  7G 2G 8G10G15G24G26G29               
  21651329.348 7  21651328.92445  21651330.61245 113778500.760    88658570.5404 
     -1379.922       -1075.252  
  24368871.393 6  24368871.22343  24368876.66843 128059291.896    99786467.8534 
      1163.605         906.727  
  21327982.515 8  21327982.08745  21327985.61445 112079304.266    87334522.6414 
      -809.041        -630.421  
  20964991.162 8  20964991.55146  20964994.13146 110171763.809    85848125.8934 
      2576.016        2007.279  
  21891638.565 7  21891637.70045  21891641.32445 115041324.482    89642590.1614 
      2814.154        2192.860  
  20067801.454 8  20067801.76146  20067804.64046 105457009.897    82174296.4544 
      2285.604        1781.010  
  21861889.594 8  21861890.14446  21861892.26546 114885004.844    89520785.0584 
      1407.996        1097.133  
 08  5 22  0 56 40.0000000  0  7G 2G 8G10G15G24G26G29               
  21653958.007 8  21653957.51245  21653959.08945 113792313.302    88669333.5594 
     -1382.146       -1076.987  
  24366661.452 6  24366660.77243  24366666.43943 128047676.269    99777416.7094 
      1160.196         904.009  
  21329522.335 8  21329521.97245  21329525.36346 112087395.637    87340827.6014 
      -808.633        -630.096  
  20960092.650 8  20960092.75546  20960095.21546 110146020.653    85828066.2894 
      2572.704        2004.722  
  21886282.940 8  21886283.01845  21886286.51645 115013182.847    89620661.6124 
      2814.444        2193.096  
  20063457.244 8  20063457.42946  20063460.23546 105434180.331    82156507.1794 
      2280.565        1777.074  
  21859214.648 8  21859215.24746  21859216.97046 114870946.625    89509830.6044 
      1403.620        1093.740  
 08  5 22  0 56 50.0000000  0  7G 2G 8G10G15G24G26G29               
  21656589.959 7  21656589.71845  21656590.97145 113806145.452    88680111.8504 
     -1384.338       -1078.688  
  24364457.123 6  24364456.22743  24364461.20343 128036092.218    99768390.1594 
      1156.672         901.306  
  21331060.949 8  21331060.69945  21331064.02245 112095480.701    87347127.6514 
      -808.356        -629.881  
  20955200.166 7  20955200.33646  20955202.63846 110120310.168    85808032.1434 
      2569.313        2002.065  
  21880926.962 7  21880927.11745  21880930.96545 114985036.929    89598729.7314 
      2814.816        2193.325  
  20059122.470 8  20059122.43146  20059125.41746 105411400.527    82138756.6854 
      2275.444        1773.077  
  21856547.434 8  21856548.24146  21856549.63646 114856930.121    89498908.6524 
      1399.556        1090.561  
 08  5 22  0 57  0.0000000  0  7G 2G 8G10G15G24G26G29               
  21659225.994 8  21659225.81845  21659227.16445 113819997.924    88690905.9794 
     -1386.075       -1080.032  
  24362258.493 6  24362258.16443  24362262.46143 128024540.457    99759388.7814 
      1153.971         899.212  
  21332598.330 8  21332597.98345  21332601.70245 112103560.068    87353423.2594 
      -807.493        -629.212  
  20950313.894 7  20950314.27946  20950316.47146 110094633.080    85788024.0294 
      2566.020        1999.524  
  21875570.345 7  21875570.56845  21875574.61045 114956887.423    89576795.0604 
      2815.239        2193.716  
  20054797.316 8  20054797.15546  20054800.21846 105388671.323    82121045.6134 
      2270.385        1769.133  
  21853888.593 8  21853889.09646  21853890.33046 114842956.046    89488019.7594 
      1395.400        1087.349  
 08  5 22  0 57 10.0000000  0  7G 2G 8G10G15G24G26G29               
  21661865.960 8  21661865.70045  21661867.05445 113833870.811    88701716.0124 
     -1388.388       -1081.857  
  24360066.639 6  24360066.02543  24360070.80643 128013021.249    99750412.7804 
      1150.333         896.334  
  21334134.928 8  21334134.09545  21334138.00745 112111633.728    87359714.4134 
      -807.143        -628.948  
  20945434.024 8  20945434.47846  20945436.73646 110068989.608    85768042.1024 
      2562.719        1996.901  
  21870213.241 7  21870213.06545  21870216.87745 114928734.617    89554857.8164 
      2815.611        2194.010  
  20050481.692 8  20050481.67146  20050484.66446 105365992.697    82103373.9664 
      2265.339        1765.170  
  21851237.221 8  21851237.72046  21851239.07446 114829024.503    89477164.0064 
      1391.190        1084.039  
 08  5 22  0 57 20.0000000  0  7G 2G 8G10G15G24G26G29               
  21664509.831 7  21664509.66745  21664510.79545 113847764.098    88712541.9434 
     -1390.172       -1083.233  
  24357881.631 6  24357881.01142  24357884.49043 128001534.644    99741462.1534 
      1147.093         893.832  
  21335670.228 8  21335669.26546  21335673.33945 112119701.895    87366001.2934 
      -806.279        -628.271  
  20940560.505 7  20940561.02446  20940563.44546 110043379.766    85748086.3844 
      2559.442        1994.380  
  21864855.509 7  21864854.94545  21864858.83245 114900578.623    89532918.0794 
      2815.846        2194.174  
  20046175.648 7  20046175.72846  20046178.69946 105343364.909    82085741.9214 
      2260.442        1761.391  
  21848594.441 7  21848594.31646  21848596.19846 114815135.595    89466341.4704 
      1386.814        1080.639  
 08  5 22  0 57 30.0000000  0  7G 2G 8G10G15G24G26G29               
  21667157.270 7  21667157.19345  21667158.65645 113861677.656    88723383.6714 
     -1392.125       -1084.795  
  24355700.430 6  24355700.82042  24355705.72442 127990080.497    99732536.8624 
      1143.778         891.218  
  21337204.474 8  21337203.46245  21337207.39745 112127764.222    87372283.6274 
      -805.804        -627.886  
  20935693.387 7  20935693.90346  20935696.36246 110017803.422    85728156.7674 
      2556.079        1991.744  
  21859496.828 8  21859496.65545  21859500.25845 114872419.269    89510975.7224 
      2815.999        2194.261  
  20041879.462 8  20041879.39346  20041882.47746 105320787.822    82068149.3884 
      2255.424        1757.475  
  21845959.507 8  21845959.18745  21845961.45646 114801289.250    89455552.1094 
      1382.343        1077.152  
 08  5 22  0 57 40.0000000  0  7G 2G 8G10G15G24G26G29               
  21669809.063 8  21669808.66345  21669810.28545 113875611.663    88734241.3324 
     -1394.305       -1086.485  
  24353526.995 6  24353527.43842  24353532.20942 127978659.217    99723637.1744 
      1140.591         888.711  
  21338737.166 8  21338736.63545  21338740.45245 112135820.935    87378561.5804 
      -805.254        -627.457  
  20930833.176 8  20930833.23846  20930835.66746 109992260.949    85708253.5444 
      2552.531        1988.959  
  21854137.560 7  21854137.62045  21854141.32445 114844256.929    89489031.0384 
      2816.310        2194.551  
  20037592.562 8  20037592.87846  20037595.84246 105298261.785    82050596.6294 
      2250.111        1753.310  
  21843332.805 7  21843332.53946  21843334.76746 114787485.798    89444796.1754 
      1378.095        1073.847  
 08  5 22  0 57 50.0000000  0  7G 2G 8G10G15G24G26G29               
  21672464.599 8  21672464.31845  21672465.78345 113889566.439    88745115.1764 
     -1396.527       -1088.203  
  24351360.658 5  24351359.61842  24351364.65742 127967270.996    99714763.2394 
      1137.185         886.145  
  21340269.488 8  21340268.85045  21340272.56545 112143872.273    87384835.3474 
      -804.910        -627.198  
  20925979.104 8  20925979.09046  20925981.67146 109966752.574    85688376.8854 
      2549.080        1986.286  
  21848778.233 7  21848777.88145  21848781.74145 114816091.824    89467084.2124 
      2816.661        2194.793  
  20033315.779 8  20033316.01146  20033319.08446 105275786.964    82033083.7814 
      2244.908        1749.260  
  21840714.185 8  21840714.03646  21840716.30046 114773725.417    89434073.7944 
      1373.895        1070.576  
 08  5 22  0 58  0.0000000  0  7G 2G 8G10G15G24G26G29               
  21675124.208 8  21675123.84645  21675125.30945 113903542.226    88756005.3844 
     -1398.667       -1089.874  
  24349199.843 5  24349198.26042  24349203.74842 127955916.048    99705915.2244 
      1134.114         883.731  
  21341800.647 8  21341799.92045  21341803.47145 112151918.438    87391105.0804 
      -804.441        -626.828  
  20921131.437 7  20921131.60446  20921134.12946 109941278.533    85668526.9894 
      2545.459        1983.445  
  21843418.013 7  21843417.86745  21843422.02545 114787924.297    89445135.4974 
      2816.828        2194.910  
  20029048.894 8  20029048.89446  20029051.95946 105253363.562    82015611.0024 
      2239.553        1745.064  
  21838103.712 7  21838103.31346  21838106.22646 114760008.271    89423385.1084 
      1369.501        1067.122  
 08  5 22  0 58 10.0000000  0  7G 2G 8G10G15G24G26G29               
  21677787.311 7  21677787.08545  21677788.80945 113917538.818    88766911.8174 
     -1400.943       -1091.630  
  24347045.198 5  24347044.36242  24347049.95042 127944594.404    99697093.1714 
      1130.557         880.971  
  21343330.753 8  21343330.05745  21343333.37945 112159959.268    87397370.6624 
      -804.071        -626.544  
  20916290.780 8  20916290.80146  20916293.13046 109915838.855    85648703.8664 
      2542.145        1980.890  
  21838057.456 7  21838057.15145  21838061.47445 114759754.328    89423184.8824 
      2817.046        2195.129  
  20024791.751 8  20024791.59446  20024794.78346 105230991.653    81998178.3504 
      2234.411        1741.095  
  21835501.735 7  21835501.28145  21835504.47446 114746334.363    89412730.1074 
      1365.256        1063.862  
 08  5 22  0 58 20.0000000  0  7G 2G 8G10G15G24G26G29               
  21680454.754 8  21680454.53445  21680456.33345 113931556.814    88777834.9214 
     -1402.931       -1093.178  
  24344895.745 5  24344896.40042  24344901.72442 127933306.672    99688297.4994 
      1127.194         878.347  
  21344859.944 8  21344859.15845  21344862.66545 112167995.280    87403632.4834 
      -803.304        -625.961  
  20911456.095 7  20911456.47246  20911458.67946 109890434.170    85628908.0104 
      2538.668        1978.190  
  21832696.387 7  21832696.41345  21832700.04645 114731582.518    89401232.8174 
      2817.533        2195.469  
  20020544.418 8  20020544.29446  20020547.55946 105208671.917    81980786.3474 
      2229.250        1737.112  
  21832907.964 8  21832907.35445  21832911.02046 114732704.307    89402109.2844 
      1361.105        1060.597  
 08  5 22  0 58 30.0000000  0  7G 2G 8G10G15G24G26G29               
  21683126.110 8  21683126.08245  21683127.93745 113945595.754    88788774.3444 
     -1404.997       -1094.805  
  24342754.908 6  24342754.70442  24342760.45442 127922052.467    99679527.9834 
      1123.662         875.460  
  21346388.097 8  21346387.21945  21346390.86045 112176026.124    87409890.2854 
      -802.859        -625.630  
  20906628.177 8  20906628.56846  20906631.02646 109865064.101    85609139.1264 
      2535.128        1975.422  
  21827335.114 7  21827335.14745  21827338.36245 114703408.510    89379279.0504 
      2817.292        2195.251  
  20016306.923 8  20016306.94446  20016310.04746 105186403.965    81963434.6994 
      2224.112        1733.076  
  21830322.181 7  21830322.11646  21830325.86446 114719117.711    89391522.3194 
      1356.174        1056.749  
 08  5 22  0 58 40.0000000  0  7G 2G 8G10G15G24G26G29               
  21685801.971 8  21685801.93445  21685803.40245 113959655.962    88799730.3424 
     -1407.428       -1096.683  
  24340620.489 6  24340619.72542  24340624.46542 127910832.343    99670785.0304 
      1120.013         872.753  
  21347915.441 7  21347914.53045  21347918.29345 112184052.043    87416144.2404 
      -802.691        -625.477  
  20901806.891 8  20901807.36646  20901809.83846 109839728.967    85589397.4644 
      2531.583        1972.673  
  21821973.614 7  21821973.29445  21821977.24745 114675232.762    89357323.9194 
      2817.481        2195.453  
  20012079.551 8  20012079.46146  20012082.64946 105164188.139    81946123.6704 
      2218.767        1728.902  
  21827745.038 7  21827745.36646  21827748.84346 114705574.895    89380969.4794 
      1352.004        1053.510  
 08  5 22  0 58 50.0000000  0  7G 2G 8G10G15G24G26G29               
  21688481.754 7  21688481.68645  21688483.45445 113973738.413    88810703.6684 
     -1409.506       -1098.307  
  24338492.123 6  24338492.07242  24338495.35542 127899647.130    99662069.2684 
      1117.007         870.457  
  21349441.994 7  21349441.18645  21349444.86345 112192073.883    87422395.0144 
      -802.078        -624.955  
  20896993.167 7  20896992.94146  20896995.52646 109814429.818    85569683.8454 
      2528.034        1969.896  
  21816611.672 7  21816611.60545  21816615.68345 114647056.249    89335368.2064 
      2817.769        2195.687  
  20007861.830 8  20007862.17346  20007865.10946 105142025.522    81928854.1004 
      2213.446        1724.761  
  21825176.615 7  21825177.16846  21825180.06146 114692076.855    89370451.5224 
      1347.741        1050.224  
 08  5 22  0 59  0.0000000  0  7G 2G 8G10G15G24G26G29               
  21691166.386 7  21691165.98045  21691167.52545 113987843.769    88821694.8474 
     -1411.747       -1100.077  
  24336370.057 6  24336369.95842  24336374.22242 127888497.576    99653381.3064 
      1112.970         867.302  
  21350967.794 7  21350967.21545  21350970.69945 112200092.548    87428643.3134 
      -801.852        -624.838  
  20892185.701 8  20892185.78046  20892188.30446 109789167.326    85549998.7894 
      2524.498        1967.135  
  21811249.900 7  21811249.72045  21811253.80845 114618879.704    89313412.4624 
      2817.577        2195.503  
  20003654.650 8  20003654.95646  20003657.89846 105119916.712    81911626.4564 
      2208.252        1720.695  
  21822616.725 8  21822617.56446  21822619.83046 114678624.248    89359968.9794 
      1342.989        1046.503  
 08  5 22  0 59 10.0000000  0  7G 2G 8G10G15G24G26G29               
  21693854.864 7  21693854.16745  21693855.86545 114001971.614    88832703.5404 
     -1414.007       -1101.826  
  24334253.531 5  24334253.34542  24334259.39342 127877383.332    99644720.8774 
      1109.302         864.347  
  21352493.330 8  21352492.53445  21352495.77245 112208107.472    87434888.6994 
      -801.779        -624.778  
  20887385.150 8  20887385.56846  20887387.88246 109763941.206    85530342.0714 
      2521.002        1964.431  
  21805888.219 7  21805887.66545  21805891.62845 114590702.825    89291456.4584 
      2817.346        2195.314  
  19999457.873 8  19999458.03446  19999460.92646 105097861.280    81894440.4044 
      2203.053        1716.659  
  21820065.856 8  21820066.19346  21820068.19346 114665216.795    89349521.6054 
      1338.458        1042.962  
 08  5 22  0 59 20.0000000  0  7G 2G 8G10G15G24G26G29               
  21696547.283 7  21696547.05345  21696548.56645 114016122.022    88843729.8284 
     -1416.184       -1103.520  
  24332146.609 5  24332145.05342  24332150.36542 127866304.709    99636088.1574 
      1105.893         861.711  
  21354017.347 8  21354017.07245  21354020.38045 112216118.554    87441131.0974 
      -800.681        -623.913  
  20882591.914 8  20882592.21646  20882594.51846 109738751.636    85510713.8414 
      2517.060        1961.354  
  21800526.063 7  21800525.80545  21800529.64145 114562525.802    89269500.3284 
      2817.792        2195.646  
  19995271.156 8  19995271.13846  19995274.16046 105075859.570    81877296.2204 
      2197.522        1712.352  
  21817523.135 7  21817523.49946  21817525.43646 114651854.589    89339109.4924 
      1333.931        1039.436  
 08  5 22  0 59 30.0000000  0  7G 2G 8G10G15G24G26G29               
  21699244.369 8  21699244.19645  21699245.61445 114030295.038    88854773.7194 
     -1418.358       -1105.187  
  24330045.194 6  24330044.47642  24330049.91942 127855261.730    99627483.2514 
      1102.724         859.206  
  21355541.312 8  21355540.73345  21355544.14045 112224126.099    87447370.7354 
      -800.535        -623.799  
  20877805.379 7  20877805.80046  20877808.11446 109713598.759    85491114.1944 
      2513.376        1958.464  
  21795164.133 7  21795163.84045  21795167.75845 114534348.768    89247544.2184 
      2817.746        2195.615  
  19991094.605 8  19991094.65246  19991097.64346 105053911.725    81860194.0054 
      2192.010        1708.064  
  21814988.752 8  21814989.53546  21814991.38546 114638537.728    89328732.7114 
      1329.385        1035.884  
 08  5 22  0 59 40.0000000  0  7G 2G 8G10G15G24G26G29               
  21701945.888 8  21701945.67445  21701946.87045 114044490.838    88865835.3684 
     -1420.901       -1107.185  
  24327950.986 6  24327951.49642  24327956.12442 127844254.565    99618906.2254 
      1098.942         856.320  
  21357064.258 8  21357063.74045  21357067.50845 112232130.004    87453607.5344 
      -800.146        -623.499  
  20873025.957 8  20873026.30146  20873028.60346 109688482.578    85471543.1484 
      2509.506        1955.447  
  21789802.660 7  21789801.91145  21789806.34245 114506171.858    89225588.1704 
      2817.741        2195.625  
  19986928.209 8  19986928.49946  19986931.38046 105032017.843    81843133.8354 
      2186.427        1703.698  
  21812463.641 8  21812464.01546  21812465.86746 114625266.257    89318391.3054 
      1324.797        1032.295  
 08  5 22  0 59 50.0000000  0  7G 2G 8G10G15G24G26G29               
  21704651.610 8  21704651.38545  21704652.78745 114058709.980    88876915.2064 
     -1422.725       -1108.573  
  24325863.613 6  24325863.63342  24325867.46542 127833283.879    99610357.6524 
      1095.361         853.564  
  21358586.769 7  21358586.17745  21358590.05645 112240130.897    87459841.9964 
      -799.653        -623.109  
  20868253.758 8  20868254.10046  20868256.29946 109663403.768    85452001.2174 
      2506.229        1952.940  
  21784440.418 7  21784440.00245  21784445.16645 114477995.840    89203632.8424 
      2817.436        2195.414  
  19982772.453 8  19982772.72246  19982775.52146 105010178.509    81826116.1744 
      2181.523        1699.892  
  21809946.733 8  21809947.06746  21809949.09346 114612040.902    89308085.8344 
      1319.988        1028.586  
 08  5 22  1  0  0.0000000  0  7G 2G 8G10G15G24G26G29               
  21707361.647 7  21707361.40645  21707363.02145 114072951.703    88888012.6404 
     -1425.546       -1110.796  
  24323781.946 6  24323782.17242  24323786.65242 127822348.897    99601836.8714 
      1091.582         850.559  
  21360108.624 8  21360108.08445  21360111.90045 112248127.991    87466073.4904 
      -799.845        -623.271  
  20863488.346 8  20863488.77246  20863491.08546 109638361.574    85432487.8264 
      2502.380        1949.907  
  21779079.313 7  21779078.20045  21779083.16745 114449819.914    89181677.5864 
      2817.565        2195.486  
  19978626.709 8  19978627.05246  19978629.81546 104988393.064    81809140.5054 
      2175.763        1695.397  
  21807438.705 8  21807438.49345  21807440.77846 114598860.789    89297815.6134 
      1315.902        1025.391  
 08  5 22  1  0 10.0000000  0  7G 2G 8G10G15G24G26G29               
  21710076.295 7  21710076.11845  21710077.56545 114087217.145    88899128.5614 
     -1427.528       -1112.356  
  24321708.962 6  24321707.85642  24321713.91742 127811450.948    99593344.9574 
      1087.701         847.507  
  21361629.979 7  21361629.49945  21361633.05445 112256122.374    87472302.8724 
      -799.413        -622.914  
  20858730.193 7  20858730.50446  20858732.89346 109613357.329    85413003.9964 
      2498.501        1946.910  
  21773717.369 8  21773716.92845  21773720.98445 114421645.386    89159723.4074 
      2816.954        2195.033  
  19974491.579 8  19974491.78046  19974494.72146 104966662.656    81792207.7264 
      2170.454        1691.277  
  21804939.385 7  21804938.82645  21804941.44546 114585727.218    89287581.6604 
      1310.587        1021.261  
 08  5 22  1  0 20.0000000  0  7G 2G 8G10G15G24G26G29               
  21712795.539 7  21712795.06145  21712796.71445 114101506.247    88910262.9164 
     -1430.213       -1114.441  
  24319641.678 5  24319642.00043  24319646.71342 127800589.888    99584881.8084 
      1083.779         844.528  
  21363150.833 8  21363150.22445  21363153.76345 112264113.925    87478530.0504 
      -799.196        -622.729  
  20853979.379 8  20853979.49146  20853982.01046 109588390.902    85393549.6414 
      2494.873        1944.063  
  21768356.216 7  21768356.10545  21768359.46345 114393472.206    89137770.2784 
      2817.121        2195.167  
  19970367.009 8  19970366.92246  19970370.06346 104944987.321    81775317.8604 
      2164.904        1686.962  
  21802448.661 7  21802448.40145  21802451.00246 114572640.116    89277383.9174 
      1306.364        1017.969  
 08  5 22  1  0 30.0000000  0  7G 2G 8G10G15G24G26G29               
  21715519.250 7  21715518.77745  21715520.38445 114115818.704    88921415.4664 
     -1432.454       -1116.188  
  24317582.904 6  24317582.70443  24317587.19343 127789765.644    99576447.2904 
      1081.066         842.430  
  21364670.858 8  21364670.23245  21364673.85945 112272102.398    87484754.8264 
      -798.695        -622.365  
  20849235.423 8  20849235.72446  20849238.18146 109563462.227    85374124.7014 
      2490.665        1940.795  
  21762995.553 8  21762995.24945  21762998.60745 114365300.239    89115818.1014 
      2817.153        2195.217  
  19966253.000 7  19966252.63246  19966255.74446 104923366.903    81758470.7834 
      2158.949        1682.288  
  21799967.375 8  21799966.71346  21799969.58346 114559599.316    89267222.2474 
      1301.827        1014.420  
 08  5 22  1  0 40.0000000  0  7G 2G 8G10G15G24G26G29               
  21718247.115 7  21718246.90745  21718248.52045 114130154.925    88932586.5364 
     -1434.590       -1117.869  
  24315529.508 6  24315529.17943  24315534.03743 127778978.672    99568041.8574 
      1077.166         839.318  
  21366190.686 7  21366189.89145  21366193.75445 112280088.203    87490977.5304 
      -798.227        -621.985  
  20844499.087 7  20844499.19146  20844501.77746 109538571.673    85354729.4684 
      2487.289        1938.157  
  21757634.744 7  21757634.75545  21757637.97745 114337129.917    89093867.1974 
      2817.157        2195.168  
  19962149.112 8  19962148.91846  19962151.94346 104901801.700    81741666.7244 
      2153.899        1678.376  
  21797494.473 8  21797494.10146  21797497.17946 114546605.189    89257096.9544 
      1297.243        1010.838  
 08  5 22  1  0 50.0000000  0  7G 2G 8G10G15G24G26G29               
  21720979.622 7  21720979.27345  21720980.92545 114144513.851    88943775.3014 
     -1436.778       -1119.564  
  24313484.121 6  24313483.62643  24313488.56243 127768227.991    99559664.6934 
      1073.051         836.149  
  21367709.404 7  21367708.98745  21367712.55845 112288070.317    87497197.3574 
      -797.862        -621.711  
  20839769.499 8  20839769.68346  20839772.20146 109513718.288    85335363.1934 
      2483.531        1935.237  
  21752274.002 7  21752273.91745  21752277.27545 114308960.331    89071916.8714 
      2816.753        2194.872  
  19958055.604 8  19958055.59746  19958058.58846 104880290.896    81724905.0614 
      2148.608        1674.242  
  21795030.341 7  21795030.07646  21795033.03546 114533656.752    89247007.2584 
      1292.249        1006.945  
 08  5 22  1  1  0.0000000  0  7G 2G 8G10G15G24G26G29               
  21723716.517 8  21723716.36345  21723717.86145 114158896.685    88954982.6984 
     -1439.567       -1121.733  
  24311445.291 6  24311445.10842  24311449.71143 127757514.798    99551316.7524 
      1069.418         833.375  
  21369227.903 8  21369227.33045  21369230.93145 112296049.980    87503415.2724 
      -797.839        -621.712  
  20835047.165 8  20835047.66946  20835050.04446 109488903.331    85316026.8664 
      2479.621        1932.171  
  21746914.109 7  21746913.53945  21746917.41345 114280792.693    89049968.0654 
      2816.750        2194.887  
  19953972.864 8  19953972.86846  19953975.69746 104858835.744    81708186.7614 
      2142.727        1669.676  
  21792575.259 7  21792575.09046  21792577.67546 114520755.166    89236954.0764 
      1287.930        1003.548  
 08  5 22  1  1 10.0000000  0  7G 2G 8G10G15G24G26G29               
  21726458.364 8  21726457.94045  21726459.32345 114173303.522    88966208.7874 
     -1441.918       -1123.578  
  24309413.957 6  24309414.30742  24309417.69942 127746839.233    99542998.1174 
      1065.714         830.416  
  21370745.874 7  21370745.43045  21370748.94745 112304027.198    87509631.2814 
      -797.669        -621.580  
  20830332.373 8  20830332.89646  20830335.28846 109464126.921    85296720.5744 
      2475.750        1929.121  
  21741554.210 7  21741554.11445  21741557.47945 114252627.215    89028020.9374 
      2816.569        2194.732  
  19949900.672 8  19949900.67546  19949903.55646 104837436.303    81691511.8734 
      2137.038        1665.233  
  21790129.392 8  21790129.26746  21790131.55745 114507900.663    89226937.5744 
      1283.274         999.960  
 08  5 22  1  1 20.0000000  0  7G 2G 8G10G15G24G26G29               
  21729204.108 7  21729203.97345  21729205.24445 114187733.987    88977453.2914 
     -1443.945       -1125.177  
  24307389.726 6  24307389.66642  24307393.37442 127736201.069    99534708.6374 
      1062.006         827.512  
  21372263.360 7  21372262.91245  21372266.35145 112312001.500    87515845.0164 
      -797.269        -621.253  
  20825624.763 8  20825625.32846  20825627.66846 109439388.647    85277444.0064 
      2472.099        1926.274  
  21736194.929 7  21736194.93845  21736198.15945 114224463.547    89006075.2164 
      2816.042        2194.263  
  19945839.123 8  19945839.00146  19945842.08646 104816092.260    81674880.1544 
      2131.869        1661.184  
  21787692.258 8  21787691.98246  21787694.57446 114495092.738    89216957.3694 
      1278.152         995.951  
 08  5 22  1  1 30.0000000  0  7G 2G 8G10G15G24G26G29               
  21731954.687 8  21731954.30245  21731955.85645 114202188.932    88988716.8824 
     -1446.636       -1127.252  
  24305372.525 6  24305372.41042  24305376.72842 127725601.093    99526448.9204 
      1058.418         824.728  
  21373780.550 8  21373780.05945  21373783.48645 112319973.749    87522057.1584 
      -797.028        -621.063  
  20820924.705 8  20820925.10146  20820927.44246 109414689.478    85258197.8974 
      2467.782        1922.938  
  21730836.043 8  21730835.89945  21730839.58145 114196302.561    88984131.5864 
      2815.980        2194.251  
  19941787.976 8  19941787.98046  19941791.04846 104794804.474    81658292.2714 
      2125.858        1656.496  
  21785263.849 8  21785263.77245  21785266.62646 114482332.308    89207014.1704 
      1273.534         992.338  
 08  5 22  1  1 40.0000000  0  7G 2G 8G10G15G24G26G29               
  21734709.953 8  21734709.51445  21734710.88745 114216666.779    88999998.3114 
     -1448.652       -1128.815  
  24303362.787 6  24303362.18542  24303367.20443 127715037.806    99518217.7954 
      1054.343         821.590  
  21375296.824 8  21375296.38745  21375300.04845 112327942.371    87528266.4764 
      -796.717        -620.817  
  20816231.879 8  20816232.30546  20816234.54746 109390027.901    85238981.0904 
      2464.312        1920.257  
  21725477.439 7  21725477.07345  21725481.15745 114168142.862    88962188.9754 
      2815.496        2193.894  
  19937747.568 8  19937747.60046  19937750.52646 104773571.447    81641747.0484 
      2120.719        1652.521  
  21782844.429 8  21782844.68946  21782847.14146 114469617.858    89197106.8114 
      1268.731         988.649  
 08  5 22  1  1 50.0000000  0  7G 2G 8G10G15G24G26G29               
  21737469.469 7  21737469.08345  21737470.55345 114231168.090    89011298.0184 
     -1451.349       -1130.925  
  24301359.266 6  24301359.74043  24301364.36643 127704511.845    99510015.7424 
      1050.653         818.701  
  21376812.902 8  21376812.12645  21376815.93645 112335908.004    87534473.4534 
      -796.641        -620.756  
  20811546.244 8  20811546.57646  20811548.81746 109365404.490    85219794.0144 
      2460.261        1917.084  
  21720119.394 7  21720118.80545  21720122.87945 114139985.123    88940247.8804 
      2815.338        2193.745  
  19933717.558 8  19933717.63146  19933720.79746 104752393.833    81625245.0154 
      2114.833        1647.941  
  21780433.671 8  21780434.31946  21780436.60046 114456949.984    89187235.7344 
      1264.157         985.065  
 08  5 22  1  2  0.0000000  0  7G 2G 8G10G15G24G26G29               
  21740233.412 7  21740233.10045  21740234.49145 114245692.904    89022616.0494 
     -1453.797       -1132.808  
  24299364.245 6  24299364.67643  24299368.11743 127694023.362    99501842.8924 
      1046.533         815.410  
  21378328.045 7  21378327.57545  21378331.13445 112343870.515    87540678.0024 
      -796.256        -620.424  
  20806867.964 8  20806868.23846  20806870.63546 109340819.412    85200636.8144 
      2456.597        1914.255  
  21714761.120 7  21714761.34045  21714764.97845 114111829.451    88918308.3924 
      2815.238        2193.697  
  19929698.041 8  19929698.30346  19929701.23046 104731271.674    81608786.1954 
      2109.473        1643.770  
  21778031.969 7  21778032.64446  21778035.12246 114444328.743    89177401.0064 
      1259.673         981.548  
 08  5 22  1  2 10.0000000  0  7G 2G 8G10G15G24G26G29               
  21743001.843 7  21743001.82745  21743003.16945 114260241.517    89033952.6244 
     -1456.053       -1134.601  
  24297375.055 6  24297374.73843  24297379.33143 127683572.699    99493699.5144 
      1043.105         812.771  
  21379842.731 7  21379842.34145  21379845.88145 112351830.261    87546880.3944 
      -795.930        -620.208  
  20802196.818 8  20802197.17546  20802199.67946 109316273.064    85181509.7934 
      2452.746        1911.252  
  21709403.671 8  21709404.32245  21709407.51245 114083676.237    88896370.8344 
      2815.270        2193.702  
  19925689.366 8  19925689.67146  19925692.43146 104710205.422    81592370.9244 
      2103.851        1639.388  
  21775639.734 8  21775639.77446  21775642.04646 114431754.539    89167602.9204 
      1255.220         978.089  
 08  5 22  1  2 20.0000000  0  7G 2G 8G10G15G24G26G29               
  21745774.838 8  21745774.59745  21745776.17845 114274813.658    89045307.5234 
     -1458.191       -1136.239  
  24295393.501 6  24295393.45443  24295397.58843 127673159.648    99485585.4244 
      1039.504         810.016  
  21381356.610 8  21381356.42145  21381359.94745 112359786.986    87553080.4364 
      -795.528        -619.865  
  20797533.222 7  20797533.49046  20797535.92746 109291765.218    85162412.7644 
      2449.074        1908.359  
  21704046.980 7  21704047.41045  21704050.55845 114055525.289    88874435.0304 
      2814.932        2193.417  
  19921691.116 7  19921691.28546  19921694.26646 104689194.838    81575999.0454 
      2098.427        1635.126  
  21773255.514 8  21773255.55746  21773257.94046 114419227.009    89157841.2024 
      1250.362         974.317  
 08  5 22  1  2 30.0000000  0  7G 2G 8G10G15G24G26G29               
  21748552.498 8  21748552.29645  21748553.50545 114289409.572    89056680.9594 
     -1461.163       -1138.560  
  24293418.990 6  24293418.76043  24293423.27743 127662784.515    99477500.9134 
      1035.085         806.543  
  21382870.109 8  21382869.92845  21382873.63645 112367740.776    87559278.1884 
      -795.495        -619.846  
  20792876.764 8  20792877.04946  20792879.52846 109267296.075    85143345.9034 
      2444.969        1905.172  
  21698690.589 8  21698690.80645  21698693.99145 114027376.872    88852501.2014 
      2814.783        2193.332  
  19917703.516 8  19917703.68146  19917706.76546 104668240.137    81559670.7104 
      2092.591        1630.599  
  21770880.585 7  21770880.11346  21770882.85146 114406746.443    89148116.0854 
      1245.846         970.767  
 08  5 22  1  2 40.0000000  0  7G 2G 8G10G15G24G26G29               
  21751334.603 7  21751333.85145  21751335.58345 114304028.864    89068072.5974 
     -1463.105       -1140.083  
  24291451.747 6  24291451.39243  24291456.33643 127652446.949    99469445.6624 
      1031.606         803.856  
  21384383.233 8  21384382.87445  21384386.64045 112375691.306    87565473.3944 
      -795.056        -619.528  
  20788227.908 8  20788227.86846  20788230.50346 109242865.386    85124309.0074 
      2441.061        1902.148  
  21693334.497 8  21693334.60245  21693337.96945 113999230.703    88830569.1214 
      2814.436        2193.079  
  19913726.664 8  19913726.72146  19913729.84246 104647341.064    81543385.7164 
      2087.038        1626.258  
  21768514.524 8  21768514.22146  21768517.05446 114394312.661    89138427.4224 
      1241.042         967.051  
 08  5 22  1  2 50.0000000  0  7G 2G 8G10G15G24G26G29               
  21754120.554 8  21754120.30845  21754121.65945 114318671.155    89079482.1654 
     -1465.441       -1141.912  
  24289491.273 6  24289491.68843  24289496.79343 127642146.612    99461419.4124 
      1027.815         800.936  
  21385895.661 8  21385895.17745  21385898.99045 112383638.269    87571665.8224 
      -794.704        -619.251  
  20783586.075 8  20783586.01746  20783588.72146 109218472.772    85105301.7744 
      2437.308        1899.196  
  21687978.808 7  21687979.18445  21687982.73845 113971086.534    88808638.6044 
      2814.064        2192.770  
  19909760.219 8  19909760.29546  19909763.36746 104626497.253    81527143.7794 
      2081.648        1622.051  
  21766157.173 8  21766157.01046  21766159.94246 114381925.261    89128774.9034 
      1236.155         963.229  
 08  5 22  1  3  0.0000000  0  7G 2G 8G10G15G24G26G29               
  21756911.633 7  21756911.45145  21756912.65245 114333337.554    89090910.5174 
     -1467.716       -1143.657  
  24287539.046 6  24287538.75043  24287544.04243 127631884.729    99453423.1274 
      1024.387         798.214  
  21387407.168 8  21387406.72745  21387410.73145 112391582.640    87577856.2454 
      -794.035        -618.693  
  20778952.021 8  20778951.90946  20778954.33546 109194119.463    85086325.1724 
      2433.473        1896.230  
  21682624.016 8  21682623.90745  21682627.44945 113942945.531    88786710.5514 
      2814.112        2192.838  
  19905804.565 8  19905804.54346  19905807.67646 104605709.915    81510945.8584 
      2076.068        1617.726  
  21763808.936 8  21763808.82346  21763811.67346 114369585.324    89119159.3644 
      1231.706         959.772  
 08  5 22  1  3 10.0000000  0  7G 2G 8G10G15G24G26G29               
  21759707.101 7  21759706.76945  21759708.28745 114348027.698    89102357.3774 
     -1470.155       -1145.571  
  24285593.010 6  24285592.32943  24285598.07843 127621661.033    99445456.5884 
      1020.520         795.230  
  21388918.159 8  21388917.95445  21388921.82145 112399524.132    87584044.4194 
      -794.028        -618.729  
  20774324.819 8  20774325.29146  20774327.59146 109169805.104    85067378.9184 
      2429.596        1893.200  
  21677269.559 7  21677268.88945  21677273.07045 113914807.480    88764784.8014 
      2813.695        2192.481  
  19901859.363 8  19901859.69746  19901862.72746 104584978.742    81494791.6944 
      2070.420        1613.315  
  21761469.585 8  21761469.33346  21761472.17645 114357292.376    89109580.4374 
      1227.024         956.106  
 08  5 22  1  3 20.0000000  0  7G 2G 8G10G15G24G26G29               
  21762507.014 8  21762506.82445  21762508.23645 114362741.767    89113822.8834 
     -1472.571       -1147.466  
  24283654.966 5  24283654.16243  24283660.30443 127611475.768    99437520.0364 
      1016.307         791.947  
  21390429.096 8  21390428.75645  21390432.43445 112407462.827    87590230.4004 
      -793.786        -618.523  
  20769705.429 8  20769705.75646  20769708.16546 109145529.906    85048463.1854 
      2425.805        1890.241  
  21671915.844 7  21671915.11045  21671919.04945 113886672.569    88742861.4884 
      2813.391        2192.263  
  19897925.476 8  19897925.40246  19897928.33846 104564303.988    81478681.5014 
      2064.835        1608.959  
  21759139.316 8  21759138.96845  21759141.80946 114345046.827    89100038.4484 
      1222.203         952.399  
 08  5 22  1  3 30.0000000  0  7G 2G 8G10G15G24G26G29               
  21765311.503 7  21765311.31345  21765312.62845 114377479.977    89125307.1954 
     -1474.981       -1149.340  
  24281724.788 6  24281724.24143  24281728.98143 127601329.291    99429613.6754 
      1012.424         788.930  
  21391939.241 8  21391938.70545  21391942.83045 112415399.055    87596414.4704 
      -793.439        -618.234  
  20765093.777 8  20765093.76446  20765096.29646 109121294.140    85029578.1704 
      2421.739        1887.069  
  21666562.058 7  21666562.28345  21666565.83845 113858541.105    88720940.8624 
      2813.061        2192.004  
  19894001.758 8  19894001.92846  19894004.83546 104543685.914    81462615.4694 
      2059.201        1604.578  
  21756818.115 7  21756817.84546  21756820.55346 114332848.921    89090533.5854 
      1217.396         948.629  
 08  5 22  1  3 40.0000000  0  7G 2G 8G10G15G24G26G29               
  21768120.650 8  21768120.70345  21768121.64045 114392241.883    89136809.9764 
     -1477.690       -1151.452  
  24279801.019 6  24279800.74443  24279805.41543 127591220.991    99421737.0834 
      1008.487         785.834  
  21393449.120 7  21393448.32345  21393452.35245 112423332.229    87602596.1534 
      -793.406        -618.199  
  20760489.061 7  20760489.32646  20760491.72746 109097097.435    85010723.5934 
      2417.581        1883.819  
  21661209.352 8  21661209.85345  21661213.03345 113830412.748    88699022.6644 
      2812.577        2191.635  
  19890088.888 8  19890089.13546  19890091.97646 104523124.040    81446593.2314 
      2053.115        1599.841  
  21754506.096 7  21754505.95946  21754508.32246 114320698.178    89081065.4684 
      1212.665         944.950  
 08  5 22  1  3 50.0000000  0  7G 2G 8G10G15G24G26G29               
  21770934.620 7  21770934.46045  21770935.41045 114407028.857    89148332.2854 
     -1479.894       -1153.148  
  24277884.919 6  24277884.73043  24277889.35843 127581152.359    99413891.3774 
      1005.105         783.258  
  21394958.197 7  21394957.79145  21394961.51445 112431263.645    87608776.4684 
      -792.847        -617.809  
  20755892.217 8  20755892.58246  20755895.03846 109072941.062    84991900.4494 
      2413.558        1880.692  
  21655857.840 7  21655857.88945  21655861.34845 113802288.898    88677107.9764 
      2812.230        2191.349  
  19886187.201 8  19886187.28446  19886190.23146 104502619.735    81430615.8564 
      2047.588        1595.529  
  21752202.736 8  21752202.79945  21752205.17345 114308595.908    89071635.1264 
      1207.722         941.073  
 08  5 22  1  4  0.0000000  0  7G 2G 8G10G15G24G26G29               
  21773753.421 8  21773753.00745  21773754.27945 114421841.061    89159874.2544 
     -1482.319       -1155.065  
  24275976.692 6  24275975.02442  24275981.02042 127571123.738    99406076.8434 
      1001.152         780.145  
  21396467.606 8  21396466.93445  21396470.53945 112439193.699    87614955.7254 
      -792.997        -617.936  
  20751303.138 8  20751303.54346  20751305.98346 109048825.399    84973109.0254 
      2409.522        1877.543  
  21650507.063 8  21650506.79745  21650510.56645 113774169.887    88655197.0634 
      2811.538        2190.784  
  19882296.179 8  19882296.36546  19882299.50846 104482173.411    81414683.6544 
      2041.737        1590.966  
  21749908.709 7  21749908.99446  21749911.33345 114296542.405    89062242.7834 
      1202.875         937.293  
 08  5 22  1  4 10.0000000  0  7G 2G 8G10G15G24G26G29               
  21776576.586 7  21776576.53045  21776577.79345 114436678.409    89171435.8194 
     -1484.947       -1157.099  
  24274075.588 6  24274074.34842  24274080.27042 127561135.040    99398293.4474 
       997.197         777.038  
  21397976.182 7  21397975.55745  21397979.07045 112447122.195    87621133.7724 
      -792.691        -617.691  
  20746721.811 8  20746722.27046  20746724.69046 109024750.485    84954349.3474 
      2405.250        1874.251  
  21645157.142 7  21645156.86545  21645160.67745 113746055.717    88633289.9224 
      2811.192        2190.522  
  19878416.709 8  19878416.72946  19878419.59046 104461784.962    81398796.5464 
      2035.881        1586.391  
  21747624.714 8  21747624.79045  21747626.66846 114284537.675    89052888.4464 
      1197.904         933.431  
 08  5 22  1  4 20.0000000  0  7G 2G 8G10G15G24G26G29               
  21779405.137 7  21779404.69145  21779406.21245 114451541.295    89183017.2744 
     -1487.291       -1158.922  
  24272181.052 5  24272181.05842  24272187.23842 127551186.784    99390541.5544 
       993.265         773.946  
  21399484.372 7  21399484.17045  21399487.49245 112455049.511    87627310.8984 
      -792.484        -617.519  
  20742148.804 8  20742148.86746  20742151.16846 109000716.691    84935621.7224 
      2401.406        1871.207  
  21639808.339 7  21639807.90545  21639811.65245 113717946.867    88611386.9174 
      2810.737        2190.176  
  19874548.044 8  19874548.01646  19874551.00046 104441454.865    81382954.9114 
      2030.177        1581.946  
  21745349.674 8  21745349.97246  21745351.76246 114272582.083    89043572.3984 
      1193.169         929.710  
 08  5 22  1  4 30.0000000  0  7G 2G 8G10G15G24G26G29               
  21782238.359 8  21782238.16345  21782239.76045 114466430.740    89194619.4334 
     -1490.124       -1161.131  
  24270297.082 6  24270297.00242  24270301.39242 127541279.989    99382821.9644 
       988.833         770.565  
  21400993.168 8  21400992.65745  21400995.97745 112462976.488    87633487.7564 
      -792.518        -617.555  
  20737583.416 8  20737583.50346  20737585.66046 108976725.105    84916926.9794 
      2396.949        1867.757  
  21634460.762 7  21634459.78845  21634464.10045 113689844.407    88589488.8954 
      2809.878        2189.500  
  19870690.559 8  19870690.64246  19870693.51446 104421184.148    81367159.5464 
      2024.025        1577.154  
  21743084.300 7  21743084.60246  21743086.37046 114260676.664    89034295.4514 
      1187.879         925.628  
 08  5 22  1  4 40.0000000  0  7G 2G 8G10G15G24G26G29               
  21785077.035 8  21785076.75345  21785078.20245 114481346.921    89206242.4224 
     -1492.919       -1163.308  
  24268419.766 5  24268418.32442  24268423.95942 127531414.833    99375134.8374 
       984.382         766.966  
  21402501.409 7  21402500.97145  21402504.35345 112470903.456    87639664.6124 
      -792.599        -617.640  
  20733025.800 8  20733026.04146  20733028.31646 108952775.947    84898265.2974 
      2392.796        1864.519  
  21629113.729 7  21629113.62545  21629117.69145 113661748.575    88567596.0444 
      2809.378        2189.128  
  19866844.535 8  19866844.54546  19866847.49846 104400972.950    81351410.5624 
      2018.107        1572.551  
  21740828.255 8  21740828.91445  21740830.48545 114248821.609    89025057.7434 
      1183.033         921.867  
 08  5 22  1  4 50.0000000  0  7G 2G 8G10G15G24G26G29               
  21787920.661 8  21787920.18845  21787921.94845 114496290.015    89217886.3894 
     -1495.817       -1165.575  
  24266549.959 6  24266549.36342  24266555.28742 127521591.557    99367480.3324 
       980.078         763.718  
  21404009.998 8  21404009.67445  21404012.97845 112478830.501    87645841.5204 
      -792.560        -617.582  
  20728476.877 8  20728476.75446  20728479.13846 108928869.447    84879636.8544 
      2388.556        1861.249  
  21623768.650 8  21623768.65945  21623772.52945 113633659.625    88545708.5544 
      2808.751        2188.663  
  19863009.889 8  19863009.98746  19863012.85646 104380821.596    81335708.2044 
      2012.209        1567.971  
  21738581.866 8  21738582.49046  21738584.28246 114237017.075    89015859.3964 
      1178.109         918.010  
 08  5 22  1  5  0.0000000  0  7G 2G 8G10G15G24G26G29               
  21790769.462 7  21790769.21645  21790770.56645 114511261.282    89229552.3094 
     -1498.491       -1167.667  
  24264690.028 6  24264688.95442  24264694.10242 127511811.559    99359859.5354 
       976.149         760.661  
  21405519.083 8  21405518.35145  21405521.82745 112486758.836    87652019.4344 
      -792.746        -617.739  
  20723935.861 7  20723935.88746  20723938.18646 108905006.860    84861042.6324 
      2383.990        1857.642  
  21618424.611 7  21618425.35645  21618429.03445 113605578.903    88523827.4784 
      2807.727        2187.855  
  19859186.761 8  19859186.97046  19859189.82746 104360731.429    81320053.5324 
      2005.922        1563.055  
  21736345.355 8  21736346.00146  21736348.29146 114225264.371    89006701.4424 
      1172.727         913.799  
 08  5 22  1  5 10.0000000  0  7G 2G 8G10G15G24G26G29               
  21793623.887 7  21793623.34945  21793625.06245 114526260.700    89241240.1614 
     -1501.668       -1170.129  
  24262836.970 6  24262836.43342  24262841.97342 127502074.839    99352272.5084 
       971.217         756.804  
  21407028.033 8  21407027.32645  21407030.80645 112494688.674    87658198.5144 
      -793.239        -618.096  
  20719403.074 8  20719403.35546  20719405.75646 108881188.307    84842482.7184 
      2379.538        1854.166  
  21613082.632 8  21613083.06845  21613086.89445 113577506.465    88501952.8474 
      2806.826        2187.117  
  19855375.136 8  19855375.47346  19855378.46146 104340702.402    81304446.4984 
      1999.629        1558.141  
  21734119.256 7  21734119.04546  21734121.68946 114213563.583    88997583.9394 
      1167.559         909.771  
 08  5 22  1  5 20.0000000  0  7G 2G 8G10G15G24G26G29               
  21796483.381 7  21796483.27745  21796484.77545 114541288.816    89252950.3824 
     -1504.545       -1172.391  
  24260991.920 5  24260991.60643  24260997.52242 127492382.026    99344719.6534 
       967.157         753.584  
  21408537.149 7  21408536.67445  21408540.07545 112502620.481    87664379.1414 
      -793.186        -618.057  
  20714879.246 8  20714879.37146  20714881.69546 108857414.458    84823957.6434 
      2375.032        1850.672  
  21607742.464 8  21607742.77545  21607746.37545 113549442.968    88480085.1964 
      2806.256        2186.698  
  19851575.635 8  19851575.94946  19851578.80846 104320735.195    81288887.6384 
      1993.461        1553.356  
  21731902.438 7  21731902.68446  21731905.01445 114201915.241    88988507.3034 
      1162.459         905.839  
 08  5 22  1  5 30.0000000  0  7G 2G 8G10G15G24G26G29               
  21799348.879 7  21799348.37045  21799350.09545 114556344.873    89264682.3644 
     -1507.147       -1174.416  
  24259155.328 5  24259154.71542  24259159.86342 127482732.447    99337200.5104 
       962.777         750.141  
  21410046.723 7  21410046.31745  21410049.67445 112510553.437    87670560.6594 
      -793.351        -618.178  
  20710363.547 8  20710363.53446  20710365.97746 108833684.514    84805466.7744 
      2370.647        1847.274  
  21602404.052 8  21602404.16345  21602407.69345 113521387.821    88458224.0374 
      2805.098        2185.788  
  19847787.815 8  19847787.72946  19847790.82046 104300829.102    81273376.3964 
      1987.447        1548.654  
  21729695.838 7  21729696.17646  21729698.29646 114190318.608    88979470.9694 
      1157.049         901.588  
 08  5 22  1  5 40.0000000  0  7G 2G 8G10G15G24G26G29               
  21802219.324 7  21802219.05145  21802220.45945 114571430.021    89276437.0154 
     -1509.929       -1176.552  
  24257328.889 5  24257327.48542  24257332.57042 127473127.249    99329715.9354 
       958.228         746.722  
  21411556.508 7  21411556.42845  21411559.71245 112518488.669    87676743.9524 
      -793.611        -618.399  
  20705856.257 7  20705856.50946  20705858.88246 108809999.712    84787011.0814 
      2366.333        1843.901  
  21597067.034 7  21597067.22345  21597070.84545 113493342.282    88436370.3714 
      2804.265        2185.127  
  19844011.590 7  19844011.45946  19844014.69546 104280985.262    81257913.6604 
      1981.349        1543.920  
  21727499.107 8  21727499.48746  21727501.59846 114178774.926    88970475.8824 
      1151.986         897.648  
 08  5 22  1  5 50.0000000  0  7G 2G 8G10G15G24G26G29               
  21805095.214 7  21805094.94645  21805096.62345 114586543.755    89288213.9434 
     -1512.698       -1178.753  
  24255509.231 6  24255508.13142  24255512.51042 127463566.074    99322265.6774 
       953.907         743.403  
  21413067.200 7  21413066.55245  21413070.09845 112526425.651    87682928.6114 
      -793.838        -618.599  
  20701357.466 8  20701357.91746  20701360.32146 108786359.532    84768590.1674 
      2361.631        1840.211  
  21591732.032 7  21591731.86245  21591736.07245 113465305.894    88414523.8374 
      2802.864        2183.999  
  19840247.226 8  19840247.18046  19840250.39046 104261203.240    81242499.1004 
      1974.989        1538.942  
  21725312.347 8  21725312.56346  21725315.15346 114167283.682    88961521.6624 
      1146.156         893.105  
 08  5 22  1  6  0.0000000  0  7G 2G 8G10G15G24G26G29               
  21807976.670 7  21807976.58945  21807978.05345 114601686.241    89300013.2734 
     -1515.749       -1181.115  
  24253697.525 6  24253698.28742  24253702.35842 127454049.161    99314849.8914 
       949.323         739.820  
  21414578.144 7  21414577.34345  21414580.78445 112534364.487    87689114.7114 
      -794.104        -618.791  
  20696867.577 7  20696867.76946  20696870.23246 108762764.105    84750204.1224 
      2357.102        1836.699  
  21586398.874 7  21586398.46745  21586402.64145 113437278.760    88392684.5194 
      2801.963        2183.364  
  19836494.393 8  19836494.67046  19836497.78646 104241483.310    81227132.9204 
      1968.749        1534.079  
  21723135.567 8  21723135.40946  21723138.67246 114155844.972    88952608.3884 
      1140.919         889.035  
 08  5 22  1  6 10.0000000  0  7G 2G 8G10G15G24G26G29               
  21810864.217 7  21810863.79245  21810865.13845 114616857.963    89311835.3874 
     -1518.402       -1183.154  
  24251894.556 5  24251894.36642  24251900.69842 127444576.854    99307468.8604 
       945.445         736.762  
  21416089.524 8  21416088.56845  21416092.07745 112542305.677    87695302.6464 
      -794.109        -618.770  
  20692386.136 8  20692386.25146  20692388.87146 108739214.103    84731853.4664 
      2352.668        1833.263  
  21581067.113 7  21581067.35245  21581071.10645 113409261.526    88370852.9044 
      2801.287        2182.840  
  19832753.920 8  19832753.95446  19832757.09946 104221825.908    81211815.4634 
      1962.523        1529.228  
  21720968.819 7  21720968.60746  21720971.91746 114144459.354    88943736.4734 
      1135.982         885.184  
 08  5 22  1  6 20.0000000  0  7G 2G 8G10G15G24G26G29               
  21813756.403 7  21813756.14145  21813757.81245 114632058.712    89323680.1144 
     -1521.610       -1185.666  
  24250100.725 6  24250100.47942  24250105.85442 127435149.175    99300122.6404 
       940.509         732.853  
  21417600.780 7  21417600.29545  21417603.65945 112550248.919    87701492.1764 
      -794.587        -619.144  
  20687913.198 8  20687913.63346  20687916.05746 108715709.419    84713538.1304 
      2348.164        1829.741  
  21575737.279 8  21575738.05645  21575741.40845 113381254.167    88349028.9894 
      2800.214        2181.966  
  19829025.320 8  19829025.38246  19829028.24246 104202230.920    81196546.6394 
      1956.363        1524.434  
  21718812.166 7  21718811.86445  21718815.06146 114133126.676    88934905.8174 
      1130.520         880.954  
 08  5 22  1  6 30.0000000  0  7G 2G 8G10G15G24G26G29               
  21816654.518 7  21816654.29445  21816655.74645 114647288.347    89335547.3564 
     -1524.556       -1187.962  
  24248315.302 6  24248315.39242  24248320.38942 127425766.039    99292811.0814 
       935.881         729.285  
  21419112.721 7  21419112.20345  21419115.63645 112558194.171    87707683.2794 
      -794.784        -619.293  
  20683449.059 7  20683449.62646  20683451.90046 108692249.923    84695258.0014 
      2343.590        1826.161  
  21570409.901 8  21570409.58545  21570413.92645 113353256.608    88327212.7104 
      2799.217        2181.177  
  19825308.310 8  19825308.34146  19825311.19646 104182698.296    81181326.4104 
      1950.067        1519.524  
  21716665.923 7  21716665.30545  21716668.31745 114121847.000    88926116.4544 
      1125.354         876.901  
 08  5 22  1  6 40.0000000  0  7G 2G 8G10G15G24G26G29               
  21819558.384 7  21819558.02745  21819559.73045 114662547.821    89347437.8394 
     -1527.333       -1190.124  
  24246539.328 6  24246539.00243  24246543.83843 127416428.445    99285535.0514 
       931.527         725.891  
  21420625.157 7  21420624.89045  21420628.28345 112566142.424    87713876.7164 
      -794.801        -619.305  
  20678993.777 7  20678994.14946  20678996.56846 108668836.602    84677013.8624 
      2339.153        1822.722  
  21565084.304 7  21565083.23745  21565087.98145 113325269.883    88305404.8824 
      2798.230        2180.433  
  19821603.092 8  19821603.36546  19821606.33046 104163229.056    81166155.5734 
      1944.036        1514.840  
  21714529.264 7  21714529.29446  21714531.95846 114110621.144    88917369.0274 
      1119.908         872.652  
 08  5 22  1  6 50.0000000  0  7G 2G 8G10G15G24G26G29               
  21822467.946 7  21822467.56945  21822469.07845 114677836.470    89359351.0594 
     -1530.153       -1192.318  
  24244771.080 5  24244770.26943  24244774.66143 127407135.794    99278294.0164 
       927.270         722.435  
  21422138.360 7  21422137.79245  21422141.23745 112574093.050    87720071.9964 
      -795.147        -619.600  
  20674547.110 7  20674547.37546  20674549.81546 108645468.798    84658805.1784 
      2334.705        1819.238  
  21559760.631 7  21559759.84245  21559764.29145 113297293.448    88283605.0654 
      2797.237        2179.625  
  19817910.398 8  19817910.43446  19817913.35046 104143822.458    81151033.5444 
      1937.589        1509.829  
  21712403.461 7  21712403.29145  21712405.82045 114099448.438    88908663.0184 
      1114.832         868.687  
 08  5 22  1  7  0.0000000  0  7G 2G 8G10G15G24G26G29               
  21825382.854 7  21825382.62445  21825383.89445 114693154.212    89371286.9554 
     -1533.469       -1194.920  
  24243011.149 6  24243010.24743  24243014.67443 127397888.036    99271087.9814 
       922.239         718.592  
  21423651.416 8  21423651.26845  21423654.78545 112582045.917    87726269.0314 
      -795.549        -619.896  
  20670108.910 8  20670109.35346  20670111.79846 108622146.438    84640631.9104 
      2329.883        1815.505  
  21554437.871 7  21554438.57045  21554442.13045 113269327.276    88261813.2414 
      2796.083        2178.807  
  19814229.406 8  19814229.45946  19814232.25946 104124478.484    81135960.3154 
      1931.071        1504.719  
  21710287.298 8  21710287.41045  21710289.84046 114088328.735    88899998.3164 
      1109.471         864.514  
 08  5 22  1  7 10.0000000  0  7G 2G 8G10G15G24G26G29               
  21828302.887 7  21828303.00745  21828304.58045 114708501.968    89383246.2354 
     -1536.369       -1197.140  
  24241260.767 6  24241260.00243  24241264.55543 127388686.212    99263917.7074 
       917.938         715.245  
  21425165.288 8  21425165.28345  21425168.82745 112590001.938    87732468.5184 
      -795.496        -619.905  
  20665679.360 8  20665680.15346  20665682.50746 108598870.679    84622494.9604 
      2325.179        1811.807  
  21549119.137 7  21549118.94845  21549122.37245 113241372.437    88240030.2514 
      2794.994        2177.944  
  19810560.450 8  19810560.47846  19810563.38646 104105198.286    81120936.7834 
      1924.919        1499.918  
  21708181.797 8  21708181.95546  21708183.88246 114077263.048    88891375.6944 
      1103.638         859.986  
 08  5 22  1  7 20.0000000  0  7G 2G 8G10G15G24G26G29               
  21831229.306 8  21831229.28745  21831230.62545 114723879.158    89395228.4574 
     -1538.958       -1199.194  
  24239518.011 6  24239518.01143  24239522.16643 127379529.791    99256782.8324 
       913.530         711.858  
  21426679.895 7  21426679.57145  21426683.33645 112597960.501    87738669.9854 
      -796.325        -620.511  
  20661258.948 8  20661259.71446  20661262.00946 108575640.959    84604393.8824 
      2320.564        1808.243  
  21543801.768 7  21543800.81545  21543805.09345 113213428.389    88218255.6764 
      2793.490        2176.752  
  19806903.629 8  19806903.65646  19806906.57446 104085981.305    81105962.5154 
      1918.326        1494.801  
  21706086.352 8  21706086.64445  21706088.56446 114066250.923    88882794.8124 
      1098.417         855.921  
 08  5 22  1  7 30.0000000  0  7G 2G 8G10G15G24G26G29               
  21834161.371 7  21834160.79245  21834162.55645 114739285.824    89407233.6354 
     -1542.297       -1201.748  
  24237783.819 6  24237785.05543  24237788.49543 127370418.743    99249683.3254 
       908.577         707.966  
  21428194.785 7  21428194.35845  21428198.24345 112605921.433    87744873.3024 
      -796.570        -620.703  
  20656847.665 8  20656847.91646  20656850.21246 108552457.312    84586328.6994 
      2316.182        1804.824  
  21538485.690 7  21538485.38645  21538489.69745 113185495.154    88196489.5144 
      2792.657        2176.114  
  19803258.688 8  19803258.93846  19803261.60046 104066827.390    81091037.3934 
      1912.219        1490.052  
  21704000.944 8  21704001.01346  21704003.26346 114055292.298    88874255.6174 
      1093.339         851.992  
 08  5 22  1  7 40.0000000  0  7G 2G 8G10G15G24G26G29               
  21837098.672 8  21837098.26445  21837099.82045 114754722.108    89419261.9024 
     -1544.851       -1203.775  
  24236058.168 6  24236059.17743  24236062.58243 127361353.372    99242619.4024 
       904.698         704.946  
  21429710.257 7  21429709.61245  21429713.42545 112613885.117    87751078.7594 
      -796.577        -620.683  
  20652444.762 8  20652445.02846  20652447.44246 108529319.960    84568299.5904 
      2311.278        1801.008  
  21533172.657 7  21533172.43645  21533176.25445 113157573.134    88174732.0994 
      2791.524        2175.193  
  19799625.661 8  19799626.11446  19799628.77746 104047736.894    81076161.6834 
      1905.749        1484.995  
  21701925.947 8  21701925.75646  21701928.26046 114044387.548    88865758.4134 
      1087.604         847.480  
 08  5 22  1  7 50.0000000  0  7G 2G 8G10G15G24G26G29               
  21840041.359 8  21840041.38345  21840042.66645 114770187.176    89431312.6014 
     -1548.105       -1206.331  
  24234341.659 6  24234341.09943  24234345.77442 127352332.908    99235590.4634 
       899.656         701.076  
  21431226.328 7  21431225.53045  21431229.14645 112621850.667    87757285.6684 
      -796.844        -620.897  
  20648050.566 8  20648050.82846  20648053.13246 108506228.064    84550305.9094 
      2306.949        1797.614  
  21527861.161 7  21527860.82945  21527864.80245 113129661.526    88152982.7984 
      2790.598        2174.513  
  19796005.023 8  19796005.08546  19796007.96646 104028709.095    81061334.8254 
      1899.661        1480.265  
  21699860.832 7  21699860.91746  21699863.32946 114033535.749    88857302.4604 
      1082.547         843.553  
 08  5 22  1  8  0.0000000  0  7G 2G 8G10G15G24G26G29               
  21842990.330 7  21842990.11645  21842991.49645 114785682.809    89443387.1124 
     -1551.045       -1208.608  
  24232634.866 6  24232633.55942  24232637.94442 127343359.149    99228597.9424 
       894.935         697.356  
  21432742.701 7  21432742.20445  21432745.50145 112629819.892    87763495.4484 
      -797.240        -621.222  
  20643665.427 7  20643665.57746  20643667.90346 108483183.604    84532349.1864 
      2302.338        1794.014  
  21522552.363 7  21522551.60145  21522555.79245 113101762.167    88131243.0304 
      2789.407        2173.555  
  19792396.286 8  19792396.55246  19792399.29046 104009745.789    81046558.2234 
      1893.215        1475.213  
  21697805.963 7  21697806.38646  21697808.81646 114022738.660    88848889.1354 
      1077.232         839.383  
 08  5 22  1  8 10.0000000  0  7G 2G 8G10G15G24G26G29               
  21845944.579 8  21845944.73245  21845945.73545 114801208.105    89455484.7344 
     -1554.173       -1211.036  
  24230935.239 5  24230935.26342  24230939.86442 127334431.281    99221641.1824 
       890.647         694.039  
  21434259.626 8  21434259.16145  21434262.46945 112637791.811    87769707.3304 
      -797.161        -621.177  
  20639288.921 7  20639289.12646  20639291.52446 108460185.606    84514428.6754 
      2297.343        1790.104  
  21517245.473 7  21517244.58745  21517248.79345 113073874.193    88109512.1444 
      2788.301        2172.679  
  19788799.689 8  19788800.06346  19788802.82246 103990846.020    81031831.1284 
      1886.737        1470.156  
  21695761.818 8  21695762.22846  21695764.68046 114011995.460    88840517.8124 
      1071.537         834.942  
 08  5 22  1  8 20.0000000  0  7G 2G 8G10G15G24G26G29               
  21848904.651 8  21848904.77645  21848906.04345 114816763.311    89467605.6724 
     -1556.657       -1212.942  
  24229245.720 6  24229245.57843  24229250.39543 127325549.677    99214720.4454 
       886.305         690.630  
  21435777.357 7  21435776.81045  21435779.92445 112645766.649    87775921.4884 
      -797.676        -621.555  
  20634921.885 8  20634921.57046  20634923.96446 108437234.307    84496544.5484 
      2292.821        1786.644  
  21511940.546 7  21511940.26345  21511944.25845 113045998.011    88087790.4454 
      2786.833        2171.584  
  19785215.589 8  19785215.75446  19785218.49146 103972010.142    81017153.8194 
      1880.439        1465.303  
  21693727.672 8  21693728.32546  21693730.47646 114001306.407    88832188.6754 
      1066.220         830.833  
 08  5 22  1  8 30.0000000  0  7G 2G 8G10G15G24G26G29               
  21851870.356 8  21851870.38445  21851871.87145 114832348.198    89479749.7244 
     -1559.522       -1215.221  
  24227563.538 6  24227564.74043  24227569.29243 127316714.069    99207835.5494 
       881.939         687.192  
  21437295.374 7  21437294.91345  21437298.10145 112653744.244    87782137.7934 
      -797.857        -621.707  
  20630562.769 8  20630562.89346  20630565.35746 108414329.656    84478696.7684 
      2288.043        1782.885  
  21506637.918 7  21506637.95445  21506641.72745 113018133.537    88066077.8724 
      2785.615        2170.620  
  19781643.250 8  19781643.55646  19781646.32046 103953237.995    81002526.1714 
      1873.923        1460.191  
  21691703.973 7  21691704.58346  21691706.48746 113990671.396    88823901.6514 
      1060.618         826.440  
 08  5 22  1  8 40.0000000  0  7G 2G 8G10G15G24G26G29               
  21854841.667 8  21854841.93945  21854843.29745 114847963.471    89491917.4714 
     -1562.996       -1217.925  
  24225891.392 6  24225891.56043  24225896.42443 127307925.287    99200987.1244 
       876.612         683.081  
  21438814.024 8  21438813.72545  21438816.83945 112661725.256    87788356.7624 
      -798.214        -621.966  
  20626213.233 8  20626213.42346  20626215.65446 108391472.383    84460885.9084 
      2283.436        1779.284  
  21501337.996 8  21501337.75045  21501341.67145 112990281.542    88044375.0164 
      2784.706        2169.880  
  19778083.478 8  19778083.67246  19778086.47746 103934530.367    80987948.7984 
      1867.588        1455.260  
  21689690.642 8  21689691.23545  21689693.05546 113980091.073    88815657.2414 
      1055.386         822.390  
 08  5 22  1  8 50.0000000  0  7G 2G 8G10G15G24G26G29               
  21857818.977 7  21857818.90945  21857820.49345 114863608.721    89504108.5574 
     -1566.132       -1220.386  
  24224227.901 6  24224228.22043  24224231.71943 127299182.886    99194174.8544 
       872.206         679.634  
  21440333.147 8  21440333.18445  21440336.15745 112669709.310    87794578.0964 
      -798.375        -622.127  
  20621872.813 8  20621872.79546  20621875.09846 108368662.089    84443111.6514 
      2278.537        1775.469  
  21496039.957 7  21496039.94445  21496043.64045 112962441.598    88022681.5644 
      2783.453        2168.939  
  19774535.620 8  19774535.83346  19774538.60546 103915886.850    80973421.3834 
      1861.095        1450.195  
  21687687.708 7  21687687.68945  21687689.98045 113969565.025    88807455.1184 
      1049.773         817.992  
 08  5 22  1  9  0.0000000  0  7G 2G 8G10G15G24G26G29               
  21860802.171 7  21860802.01345  21860803.53045 114879285.177    89516323.9684 
     -1569.491       -1222.966  
  24222572.937 6  24222573.29943  24222577.92643 127290488.295    99187399.8654 
       866.894         675.500  
  21441853.479 8  21441853.13745  21441856.42745 112677697.583    87800802.7174 
      -799.070        -622.626  
  20617541.339 8  20617541.27446  20617543.68646 108345900.069    84425375.0164 
      2273.624        1771.650  
  21490744.649 8  21490745.28245  21490748.53045 112934615.141    88000998.6074 
      2781.962        2167.767  
  19771000.600 8  19771000.40546  19771003.41246 103897308.685    80958944.8884 
      1854.402        1444.984  
  21685695.050 8  21685694.84145  21685697.48745 113959094.538    88799296.2894 
      1044.033         813.540  
 08  5 22  1  9 10.0000000  0  7G 2G 8G10G15G24G26G29               
  21863791.092 7  21863790.95445  21863792.37345 114894992.214    89528563.2094 
     -1572.319       -1225.179  
  24220927.547 5  24220926.12643  24220932.92243 127281840.932    99180661.6564 
       862.288         671.883  
  21443374.446 7  21443373.79245  21443377.28545 112685689.425    87807030.1214 
      -799.459        -622.961  
  20613218.633 8  20613218.91846  20613221.30046 108323185.694    84407675.5064 
      2268.918        1767.988  
  21485452.367 7  21485452.35145  21485455.93145 112906801.566    87979325.6864 
      2780.592        2166.693  
  19767477.354 8  19767477.47546  19767480.42546 103878795.296    80944518.8754 
      1847.871        1439.898  
  21683713.245 8  21683712.73045  21683715.69545 113948678.976    88791180.2554 
      1038.763         809.402  
 08  5 22  1  9 20.0000000  0  7G 2G 8G10G15G24G26G29               
  21866785.802 7  21866785.66745  21866787.40445 114910730.275    89540826.6264 
     -1575.476       -1227.655  
  24219291.920 6  24219290.28942  24219296.21542 127273241.237    99173960.5974 
       857.761         668.410  
  21444895.745 8  21444895.31845  21444899.19745 112693685.266    87813260.6464 
      -799.207        -622.744  
  20608905.303 8  20608905.69846  20608908.00746 108300519.525    84390013.5544 
      2264.177        1764.294  
  21480162.310 7  21480161.84245  21480165.86145 112879001.443    87957663.2524 
      2779.861        2166.200  
  19763966.963 8  19763967.03346  19763969.90646 103860347.165    80930143.7084 
      1841.672        1435.086  
  21681741.746 8  21681741.45745  21681744.24146 113938318.743    88783107.3434 
      1033.460         805.302  
 08  5 22  1  9 30.0000000  0  7G 2G 8G10G15G24G26G29               
  21869786.514 7  21869785.99645  21869787.62645 114926497.965    89553113.1194 
     -1578.403       -1229.930  
  24217663.967 6  24217663.38042  24217668.82043 127264687.851    99167295.6274 
       852.921         664.618  
  21446418.010 8  21446417.26845  21446421.17245 112701683.868    87819493.3124 
      -800.038        -623.393  
  20604600.906 8  20604601.33846  20604603.66546 108277900.232    84372388.1324 
      2259.595        1760.759  
  21474874.718 7  21474873.73645  21474878.13845 112851213.641    87936010.4224 
      2778.268        2164.880  
  19760468.424 8  19760468.70746  19760471.49846 103841963.117    80915818.4794 
      1835.175        1430.007  
  21679780.311 8  21679780.31645  21679783.12246 113928012.598    88775076.5784 
      1028.112         801.114  
 08  5 22  1  9 40.0000000  0  7G 2G 8G10G15G24G26G29               
  21872792.740 7  21872792.30945  21872794.02345 114942295.148    89565422.6084 
     -1581.306       -1232.164  
  24216044.817 6  24216044.94843  24216049.58443 127256180.806    99160666.7444 
       848.041         660.857  
  21447940.593 7  21447939.79445  21447943.68645 112709684.818    87825727.8134 
      -800.406        -623.667  
  20600305.630 8  20600305.87346  20600308.35646 108255327.747    84354799.1884 
      2254.872        1757.063  
  21469588.731 7  21469588.26845  21469592.45045 112823437.974    87914367.0484 
      2776.898        2163.805  
  19756982.177 8  19756982.44546  19756985.36946 103823642.892    80901542.9794 
      1828.785        1425.016  
  21677829.595 8  21677829.35945  21677832.16546 113917760.415    88767087.8654 
      1022.599         796.810  
 08  5 22  1  9 50.0000000  0  7G 2G 8G10G15G24G26G29               
  21875804.676 7  21875804.20845  21875805.86045 114958122.526    89577755.6194 
     -1584.455       -1234.673  
  24214435.005 6  24214435.51442  24214439.53242 127247720.692    99154074.4434 
       843.441         657.201  
  21449463.263 8  21449462.87845  21449466.87345 112717689.076    87831964.8934 
      -800.722        -623.926  
  20596019.449 7  20596019.59346  20596022.05546 108232802.808    84337247.2924 
      2250.055        1753.260  
  21464305.634 7  21464305.32145  21464309.28345 112795675.229    87892733.7444 
      2775.551        2162.789  
  19753508.222 8  19753508.50746  19753511.45646 103805387.267    80887317.8184 
      1822.275        1419.927  
  21675888.859 8  21675888.84546  21675891.73246 113907562.888    88759141.7364 
      1017.114         792.546  
 08  5 22  1 10  0.0000000  0  7G 2G 8G10G15G24G26G29               
  21878822.360 7  21878822.12745  21878823.58045 114973980.426    89590112.4134 
     -1586.908       -1236.559  
  24212834.312 6  24212834.15842  24212838.66442 127239307.980    99147519.0734 
       839.159         653.866  
  21450987.119 8  21450986.82845  21450990.82545 112725696.862    87838204.7194 
      -800.989        -624.144  
  20591742.123 7  20591742.36546  20591744.81946 108210325.833    84319732.7724 
      2245.443        1749.695  
  21459025.070 8  21459024.79045  21459028.77045 112767925.787    87871110.8004 
      2774.074        2161.632  
  19750046.803 8  19750046.92546  19750049.85346 103787196.663    80873143.3234 
      1815.841        1414.950  
  21673958.832 8  21673958.97146  21673961.77145 113897420.389    88751238.4944 
      1011.415         788.121  
 08  5 22  1 10 10.0000000  0  7G 2G 8G10G15G24G26G29               
  21881845.869 8  21881845.50945  21881847.04945 114989868.848    89602492.9864 
     -1590.215       -1239.112  
  24211240.697 5  24211240.56542  24211246.80942 127230942.621    99141000.6164 
       834.353         650.112  
  21452511.895 7  21452511.31345  21452515.14445 112733708.181    87844447.3024 
      -801.231        -624.318  
  20587473.663 7  20587474.34946  20587476.63246 108187896.725    84302255.5434 
      2240.442        1745.804  
  21453747.049 8  21453746.78145  21453750.87445 112740189.737    87849498.2994 
      2772.844        2160.679  
  19746597.599 8  19746597.62646  19746600.58946 103769070.980    80859019.4174 
      1809.286        1409.846  
  21672039.240 8  21672039.34745  21672042.18745 113887332.862    88743378.0794 
      1005.725         783.700  
 08  5 22  1 10 20.0000000  0  7G 2G 8G10G15G24G26G29               
  21884874.961 8  21884874.83145  21884876.33745 115005787.300    89614896.9624 
     -1593.359       -1241.542  
  24209659.265 6  24209657.92742  24209664.01942 127222624.301    99134518.8174 
       829.982         646.738  
  21454036.972 7  21454036.40945  21454040.31545 112741722.611    87850692.3064 
      -801.414        -624.490  
  20583214.672 8  20583215.27946  20583217.57546 108165515.204    84284815.3994 
      2235.857        1742.241  
  21448471.385 7  21448471.55045  21448475.04345 112712466.764    87827895.9834 
      2771.899        2159.918  
  19743160.663 8  19743160.78346  19743163.71846 103751009.949    80844945.8894 
      1802.914        1404.880  
  21670130.104 7  21670129.92746  21670133.13246 113877299.886    88735560.1754 
      1000.826         779.878  
 08  5 22  1 10 30.0000000  0  7G 2G 8G10G15G24G26G29               
  21887909.897 7  21887909.31545  21887911.08445 115021736.075    89627324.5704 
     -1596.423       -1243.983  
  24208085.649 5  24208084.53442  24208090.43442 127214353.408    99128073.9694 
       824.020         642.120  
  21455562.801 7  21455562.30845  21455565.95045 112749740.300    87856939.8534 
      -802.090        -625.005  
  20578964.704 8  20578965.30146  20578967.46746 108143181.542    84267412.5554 
      2231.130        1738.544  
  21443198.160 7  21443198.65045  21443201.97745 112684757.193    87806304.1114 
      2770.065        2158.507  
  19739735.995 8  19739736.14546  19739739.20446 103733013.734    80830922.8634 
      1796.631        1399.973  
  21668231.260 7  21668231.16646  21668234.46846 113867321.822    88727785.0564 
       994.914         775.268  
 08  5 22  1 10 40.0000000  0  7G 2G 8G10G15G24G26G29               
  21890950.722 7  21890950.40945  21890951.96545 115037715.861    89639776.3424 
     -1599.032       -1245.989  
  24206520.055 5  24206519.44442  24206525.74742 127206130.535    99121666.5344 
       820.014         639.016  
  21457089.409 8  21457088.82345  21457092.27745 112757762.044    87863190.5524 
      -802.406        -625.257  
  20574724.180 8  20574724.56446  20574726.86746 108120896.446    84250047.5444 
      2226.387        1734.826  
  21437928.258 8  21437928.05445  21437931.66845 112657061.822    87784723.3004 
      2768.811        2157.516  
  19736323.998 8  19736324.03446  19736327.13346 103715083.258    80816951.0724 
      1789.926        1394.755  
  21666343.332 8  21666343.41446  21666346.10346 113857399.378    88720053.2764 
       989.617         771.136  
 08  5 22  1 10 50.0000000  0  7G 2G 8G10G15G24G26G29               
  21893997.313 7  21893996.96545  21893998.42945 115053725.688    89652251.5254 
     -1602.797       -1248.948  
  24204964.746 5  24204963.44342  24204968.70342 127197954.955    99115295.9324 
       815.232         635.215  
  21458616.206 7  21458615.68345  21458619.27145 112765786.775    87869443.5804 
      -802.567        -625.374  
  20570492.556 7  20570493.04646  20570495.23646 108098658.981    84232719.6564 
      2221.288        1730.870  
  21432660.486 8  21432660.32945  21432664.01845 112629379.803    87763152.8894 
      2767.760        2156.675  
  19732924.302 8  19732924.24046  19732927.33246 103697217.543    80803029.7394 
      1783.298        1389.577  
  21664465.405 8  21664465.78946  21664467.89845 113847531.590    88712364.0844 
       984.129         766.850  
 08  5 22  1 11  0.0000000  0  7G 2G 8G10G15G24G26G29               
  21897049.612 8  21897049.40445  21897050.88345 115069766.056    89664750.5054 
     -1605.396       -1250.950  
  24203417.915 5  24203415.75742  24203422.63342 127189827.076    99108962.5274 
       810.577         631.703  
  21460143.789 7  21460143.20745  21460147.14045 112773815.082    87875699.4014 
      -802.840        -625.591  
  20566269.845 8  20566270.52946  20566272.65946 108076469.743    84215429.3514 
      2216.413        1727.071  
  21427395.394 8  21427395.44145  21427398.78345 112601711.712    87741593.3424 
      2766.104        2155.385  
  19729537.014 8  19729537.04846  19729540.03946 103679417.044    80789159.2184 
      1776.717        1384.469  
  21662598.526 8  21662598.52645  21662600.43046 113837718.946    88704717.8684 
       978.383         762.387  
 08  5 22  1 11 10.0000000  0  7G 2G 8G10G15G24G26G29               
  21900107.698 7  21900107.62145  21900108.93345 115085836.866    89677273.2024 
     -1608.788       -1253.589  
  24201879.153 5  24201878.72342  24201885.89042 127181746.978    99102666.3714 
       805.511         627.670  
  21461672.225 7  21461671.72845  21461675.49245 112781846.953    87881957.9864 
      -803.511        -626.099  
  20562056.944 8  20562057.17046  20562059.34746 108054328.755    84198176.6294 
      2211.524        1723.277  
  21422132.902 7  21422133.38445  21422136.52545 112574057.593    87720044.6794 
      2764.694        2154.326  
  19726162.290 8  19726162.12946  19726165.08446 103661681.848    80775339.5874 
      1770.133        1379.337  
  21660741.603 8  21660741.80345  21660743.56946 113827961.412    88697114.5884 
       972.969         758.170  
 08  5 22  1 11 20.0000000  0  7G 2G 8G10G15G24G26G29               
  21903171.647 7  21903171.70545  21903173.01145 115101938.020    89689819.5484 
     -1611.581       -1255.787  
  24200351.304 5  24200350.64342  24200357.02542 127173714.595    99096407.3704 
       801.039         624.089  
  21463201.436 8  21463200.86345  21463204.52045 112789882.122    87888219.1534 
      -803.797        -626.328  
  20557852.869 8  20557853.03146  20557855.24146 108032235.993    84180961.4854 
      2206.817        1719.614  
  21416873.268 8  21416873.46145  21416876.71745 112546417.420    87698506.8814 
      2763.324        2153.251  
  19722799.492 8  19722799.59446  19722802.66946 103644011.750    80761570.6854 
      1763.556        1374.209  
  21658895.243 8  21658895.63446  21658897.33346 113818258.896    88689554.1844 
       967.644         754.005  
 08  5 22  1 11 30.0000000  0  7G 2G 8G10G15G24G26G29               
  21906241.387 7  21906241.52345  21906243.03145 115118070.284    89702390.1314 
     -1614.455       -1258.029  
  24198832.944 5  24198831.82242  24198837.30442 127165730.744    99090186.1844 
       796.446         620.604  
  21464731.321 7  21464730.76045  21464734.43045 112797921.494    87894483.5914 
      -804.258        -626.718  
  20553658.098 8  20553658.25046  20553660.65846 108010192.276    84163784.5714 
      2201.826        1715.709  
  21411616.357 8  21411616.68245  21411619.90645 112518792.100    87676980.6494 
      2761.667        2151.945  
  19719449.546 8  19719449.76946  19719452.61846 103626407.733    80747853.2734 
      1756.886        1368.998  
  21657059.430 8  21657059.84345  21657061.91346 113808612.218    88682037.2834 
       961.773         749.458  
 08  5 22  1 11 40.0000000  0  7G 2G 8G10G15G24G26G29               
  21909317.419 7  21909317.46845  21909318.68245 115134233.941    89714985.1804 
     -1617.756       -1260.577  
  24197321.163 5  24197320.74542  24197326.90342 127157795.774    99084003.0964 
       791.295         616.536  
  21466261.803 7  21466261.36745  21466265.04845 112805965.451    87900751.6044 
      -804.784        -627.091  
  20549472.462 8  20549473.03346  20549475.18646 107988197.806    84146646.0234 
      2196.881        1711.887  
  21406362.683 8  21406362.47145  21406365.76145 112491181.901    87655466.2174 
      2760.218        2150.842  
  19716112.356 8  19716112.53946  19716115.33046 103608869.989    80734187.5004 
      1750.250        1363.867  
  21655234.463 8  21655234.59646  21655236.94646 113799021.597    88674564.0764 
       956.485         745.315  
 08  5 22  1 11 50.0000000  0  7G 2G 8G10G15G24G26G29               
  21912399.350 7  21912398.98345  21912400.76445 115150429.307    89727604.9314 
     -1620.930       -1263.062  
  24195821.657 6  24195819.77942  24195826.37342 127149910.043    99077858.3714 
       786.255         612.713  
  21467793.826 7  21467793.10745  21467796.59145 112814014.086    87907023.2564 
      -804.909        -627.203  
  20545296.575 8  20545296.99446  20545299.18446 107966252.934    84129546.1284 
      2192.071        1708.099  
  21401111.191 8  21401111.24545  21401114.90145 112463587.246    87633963.8884 
      2758.753        2149.699  
  19712787.697 8  19712787.76046  19712790.70446 103591398.796    80720573.5854 
      1743.926        1358.887  
  21653420.205 8  21653420.39946  21653422.65346 113789487.349    88667134.7894 
       950.680         740.791  
 08  5 22  1 12  0.0000000  0  7G 2G 8G10G15G24G26G29               
  21915487.190 7  21915487.06345  21915488.44145 115166656.495    89740249.4854 
     -1624.440       -1265.808  
  24194331.521 5  24194329.76442  24194336.51942 127142073.662    99071752.0994 
       780.990         608.578  
  21469326.392 7  21469325.76145  21469329.15445 112822067.538    87913298.6754 
      -805.729        -627.810  
  20541130.203 8  20541130.38046  20541132.62146 107944357.914    84112485.0764 
      2186.881        1704.070  
  21395863.240 7  21395863.22645  21395866.86545 112436008.379    87612473.8624 
      2756.988        2148.336  
  19709475.801 8  19709475.85846  19709478.86946 103573994.394    80707011.7174 
      1736.882        1353.421  
  21651616.680 7  21651616.81645  21651618.96246 113780009.613    88659749.5344 
       944.893         736.298  
 08  5 22  1 12 10.0000000  0  7G 2G 8G10G15G24G26G29               
  21918581.671 7  21918581.14445  21918582.33545 115182916.029    89752919.2404 
     -1627.826       -1268.467  
  24192848.397 5  24192847.43642  24192855.05942 127134287.253    99065684.7564 
       775.681         604.442  
  21470859.917 7  21470859.24745  21470862.61145 112830126.068    87919578.0354 
      -806.328        -628.322  
  20536973.302 8  20536973.42646  20536975.76346 107922513.224    84095463.2404 
      2181.879        1700.151  
  21390618.398 8  21390618.37145  21390621.92645 112408445.880    87590996.5894 
      2755.462        2147.090  
  19706176.656 8  19706176.75146  19706179.59646 103556657.379    80693502.3574 
      1730.229        1348.224  
  21649823.879 8  21649823.96745  21649826.15046 113770588.999    88652408.7924 
       939.228         731.866  
 08  5 22  1 12 20.0000000  0  7G 2G 8G10G15G24G26G29               
  21921681.759 7  21921681.50645  21921682.85645 115199207.229    89765613.6754 
     -1630.325       -1270.394  
  24191375.764 5  24191375.10242  24191381.93542 127126550.194    99059655.8914 
       771.543         601.195  
  21472394.302 7  21472393.62145  21472397.01245 112838189.278    87925861.0394 
      -806.383        -628.354  
  20532826.140 8  20532826.06246  20532828.40846 107900718.301    84078480.1884 
      2177.130        1696.460  
  21385376.000 8  21385376.45445  21385379.90345 112380899.230    87569531.6754 
      2753.893        2145.901  
  19702890.208 8  19702890.27946  19702893.22846 103539387.128    80680045.0204 
      1723.825        1343.237  
  21648041.634 8  21648042.11845  21648044.39446 113761224.978    88645112.1494 
       933.606         727.492  
 08  5 22  1 12 30.0000000  0  7G 2G 8G10G15G24G26G29               
  21924787.364 7  21924787.34045  21924788.55845 115215528.861    89778331.8244 
     -1633.553       -1272.882  
  24189913.187 6  24189912.83742  24189918.07142 127118861.285    99053664.5324 
       766.594         597.371  
  21473929.481 8  21473928.84345  21473932.09445 112846255.977    87932146.7734 
      -806.972        -628.826  
  20528687.556 8  20528687.95646  20528690.23346 107878971.946    84061534.9764 
      2172.346        1692.708  
  21380137.225 8  21380136.85045  21380140.74845 112353367.302    87548078.2324 
      2752.473        2144.773  
  19699616.594 8  19699616.37646  19699619.06346 103522182.455    80666638.7864 
      1717.293        1338.147  
  21646270.732 7  21646270.93345  21646273.20946 113751916.170    88637858.5314 
       928.220         723.285  
 08  5 22  1 12 40.0000000  0  7G 2G 8G10G15G24G26G29               
  21927899.375 7  21927899.29245  21927900.73945 115231882.295    89791074.7584 
     -1637.218       -1275.787  
  24188459.180 5  24188459.17742  24188465.18242 127111221.966    99047711.8384 
       761.339         593.279  
  21475465.297 8  21475464.75145  21475468.19745 112854327.416    87938436.1934 
      -807.302        -629.076  
  20524559.055 7  20524559.32846  20524561.62146 107857275.520    84044628.6794 
      2167.040        1688.603  
  21374901.364 7  21374900.86345  21374904.50745 112325851.453    87526637.3034 
      2750.925        2143.588  
  19696354.983 8  19696355.19746  19696357.83146 103505044.684    80653284.6834 
      1710.450        1332.804  
  21644510.076 8  21644510.30546  21644512.72546 113742663.997    88630649.0354 
       922.550         718.864  
 08  5 22  1 12 50.0000000  0  7G 2G 8G10G15G24G26G29               
  21931017.505 7  21931017.10745  21931018.68645 115248267.009    89803842.0514 
     -1640.028       -1277.933  
  24187014.965 5  24187013.24942  24187020.57542 127103631.684    99041797.3334 
       756.371         589.363  
  21477001.916 7  21477001.55245  21477005.01745 112862403.064    87944728.8974 
      -808.002        -629.629  
  20520439.414 8  20520440.12846  20520442.23246 107835628.595    84027760.9454 
      2162.383        1684.985  
  21369667.836 7  21369667.69045  21369671.44745 112298351.354    87505208.6504 
      2749.074        2142.129  
  19693106.473 8  19693106.66146  19693109.38146 103487973.359    80639982.3484 
      1703.956        1327.744  
  21642760.174 7  21642759.80746  21642762.74246 113733467.958    88623483.2844 
       916.844         714.415  
 08  5 22  1 13  0.0000000  0  7G 2G 8G10G15G24G26G29               
  21934140.992 7  21934140.92545  21934142.49145 115264683.294    89816633.9514 
     -1643.149       -1280.391  
  24185578.783 5  24185578.91742  24185585.09842 127096090.895    99035921.3844 
       751.523         585.589  
  21478539.483 8  21478539.34045  21478542.61245 112870483.328    87951025.2084 
      -808.239        -629.786  
  20516329.380 8  20516330.34346  20516332.47746 107814031.573    84010932.1024 
      2157.293        1681.037  
  21364438.389 7  21364437.76145  21364441.22045 112270867.411    87483792.5924 
      2747.596        2141.015  
  19689870.631 8  19689870.80446  19689873.59446 103470968.909    80626732.1264 
      1697.261        1322.544  
  21641020.739 8  21641020.48545  21641023.35446 113724328.412    88616361.5604 
       911.183         709.996  
 08  5 22  1 13 10.0000000  0  7G 2G 8G10G15G24G26G29               
  21937271.189 8  21937270.85045  21937272.42045 115281130.783    89829450.1694 
     -1646.375       -1282.912  
  24184153.407 5  24184152.77142  24184159.60242 127088599.220    99030083.6964 
       746.402         581.712  
  21480078.266 8  21480077.81045  21480081.07245 112878567.803    87957324.7874 
      -808.812        -630.246  
  20512229.380 8  20512229.95446  20512232.16746 107792484.150    83994141.8984 
      2152.410        1677.185  
  21359211.189 7  21359210.56245  21359214.25245 112243399.242    87462388.8304 
      2745.948        2139.729  
  19686647.642 8  19686647.68146  19686650.44046 103454030.938    80613533.7164 
      1690.555        1317.324  
  21639292.288 7  21639292.21046  21639294.57446 113715244.900    88609283.4994 
       905.503         705.586  
 08  5 22  1 13 20.0000000  0  7G 2G 8G10G15G24G26G29               
  21940407.080 7  21940407.01745  21940408.09145 115297609.431    89842290.6644 
     -1649.344       -1285.185  
  24182738.757 6  24182737.85842  24182744.51042 127081156.718    99024284.3574 
       741.987         578.189  
  21481617.263 7  21481616.98145  21481620.16045 112886656.499    87963627.6574 
      -809.080        -630.456  
  20508138.736 8  20508138.93546  20508141.29246 107770986.299    83977390.3284 
      2147.144        1673.097  
  21353986.618 7  21353986.85945  21353990.40845 112215947.003    87440997.4754 
      2744.375        2138.491  
  19683437.089 8  19683437.10746  19683439.90446 103437159.569    80600387.1934 
      1683.657        1311.933  
  21637574.548 7  21637574.21745  21637576.68146 113706217.540    88602249.1884 
       899.849         701.169  
 08  5 22  1 13 30.0000000  0  7G 2G 8G10G15G24G26G29               
  21943549.045 7  21943548.57245  21943549.91445 115314119.749    89855155.8444 
     -1652.499       -1287.635  
  24181331.917 6  24181331.47142  24181337.17742 127073763.971    99018523.7484 
       736.735         574.119  
  21483157.402 7  21483156.91145  21483160.23845 112894749.867    87969934.1704 
      -809.771        -630.989  
  20504057.360 8  20504057.55946  20504059.83446 107749538.596    83960677.8404 
      2142.377        1669.355  
  21348766.002 8  21348766.22845  21348769.46045 112188511.266    87419618.9774 
      2742.676        2137.145  
  19680239.318 8  19680239.28046  19680242.17646 103420355.230    80587292.8994 
      1677.043        1306.782  
  21635867.078 8  21635866.93145  21635869.51645 113697246.811    88595259.0004 
       894.387         696.931  
 08  5 22  1 13 40.0000000  0  7G 2G 8G10G15G24G26G29               
  21946696.524 7  21946696.54945  21946698.11245 115330661.378    89868045.4144 
     -1655.847       -1290.301  
  24179934.199 5  24179934.02642  24179940.09742 127066420.595    99012801.6284 
       731.828         570.294  
  21484698.300 7  21484697.81745  21484701.04245 112902847.559    87976244.0564 
      -810.280        -631.386  
  20499985.897 8  20499985.73546  20499987.84546 107728140.673    83944004.1354 
      2137.255        1665.387  
  21343548.376 7  21343548.00945  21343551.58045 112161091.752    87398253.1234 
      2741.082        2135.876  
  19677054.197 8  19677054.21546  19677056.99546 103403617.554    80574250.5604 
      1670.234        1301.454  
  21634170.901 8  21634170.63646  21634173.21445 113688332.384    88588312.6964 
       888.814         692.551  
 08  5 22  1 13 50.0000000  0  7G 2G 8G10G15G24G26G29               
  21949850.335 7  21949850.05445  21949851.69745 115347234.765    89880959.7294 
     -1658.564       -1292.394  
  24178547.103 5  24178545.24942  24178550.92142 127059127.222    99007118.5014 
       727.091         566.562  
  21486240.350 7  21486239.86345  21486242.94045 112910950.131    87982557.7394 
      -810.489        -631.519  
  20495922.870 8  20495923.53246  20495925.44846 107706793.160    83927369.7084 
      2132.227        1661.484  
  21338333.898 8  21338333.39345  21338336.95345 112133689.156    87376900.4484 
      2739.265        2134.525  
  19673881.833 8  19673882.02946  19673884.69846 103386947.208    80561260.6774 
      1663.668        1296.392  
  21632485.523 8  21632485.26945  21632487.76345 113679474.785    88581410.6664 
       882.817         687.903  
 08  5 22  1 14  0.0000000  0  7G 2G 8G10G15G24G26G29               
  21953010.198 7  21953010.13145  21953011.55445 115363840.144    89893898.9684 
     -1662.196       -1295.211  
  24177167.738 5  24177167.40342  24177171.93742 127051884.084    99001474.4864 
       721.940         562.574  
  21487783.214 7  21487782.63745  21487785.78345 112919057.700    87988875.3234 
      -811.145        -632.078  
  20491870.048 8  20491870.87946  20491872.74246 107685496.191    83910774.6684 
      2127.070        1657.448  
  21333122.292 7  21333122.24745  21333125.99645 112106303.653    87355561.0924 
      2737.720        2133.283  
  19670722.405 8  19670722.48746  19670725.29746 103370344.266    80548323.3254 
      1656.744        1290.964  
  21630810.876 7  21630810.58745  21630813.19645 113670674.215    88574553.0764 
       877.329         683.648  
 08  5 22  1 14 10.0000000  0  7G 2G 8G10G15G24G26G29               
  21956176.352 7  21956176.04945  21956177.49345 115380477.659    89906863.2574 
     -1665.664       -1297.934  
  24175799.600 5  24175799.10142  24175804.39642 127044691.440    98995869.8114 
       715.932         557.839  
  21489326.815 7  21489326.32545  21489329.50445 112927170.343    87995196.8654 
      -811.935        -632.675  
  20487827.210 8  20487827.81046  20487829.92846 107664249.932    83894219.1474 
      2122.264        1653.694  
  21327914.127 7  21327914.37945  21327918.29745 112078935.488    87334235.2564 
      2735.870        2131.844  
  19667575.865 8  19667575.86046  19667578.90246 103353808.907    80535438.6314 
      1650.219        1285.842  
  21629146.800 7  21629146.54046  21629149.61346 113661930.783    88567740.0084 
       871.599         679.143  
 08  5 22  1 14 20.0000000  0  7G 2G 8G10G15G24G26G29               
  21959348.207 7  21959347.90945  21959349.45445 115397146.749    89919852.1374 
     -1668.410       -1300.085  
  24174440.569 6  24174439.73942  24174445.21742 127037548.551    98990303.9174 
       712.051         554.784  
  21490871.486 8  21490871.02345  21490874.48145 112935287.490    88001521.9024 
      -811.747        -632.546  
  20483793.923 8  20483794.20246  20483796.45646 107643053.905    83877702.7684 
      2116.934        1649.575  
  21322709.875 7  21322709.28645  21322713.67845 112051584.113    87312922.4944 
      2734.389        2130.691  
  19664442.052 8  19664442.10146  19664445.18446 103337340.712    80522606.2734 
      1643.377        1280.547  
  21627493.780 8  21627493.47946  21627496.67246 113653243.887    88560971.0004 
       865.678         674.547  
 08  5 22  1 14 30.0000000  0  7G 2G 8G10G15G24G26G29               
  21962526.062 7  21962525.73645  21962527.04245 115413846.344    89932864.7934 
     -1671.566       -1302.509  
  24173089.605 5  24173089.50142  24173095.83442 127030454.579    98984776.1494 
       706.975         550.867  
  21492416.825 7  21492416.17745  21492419.57345 112943408.258    88007849.7734 
      -812.527        -633.133  
  20479769.551 8  20479770.06146  20479772.37346 107621907.113    83861224.7534 
      2111.995        1645.703  
  21317507.853 7  21317507.39045  21317511.56845 112024248.710    87291622.1884 
      2732.561        2129.246  
  19661320.553 8  19661320.90046  19661323.98446 103320938.676    80509825.4684 
      1636.631        1275.302  
  21625851.381 7  21625851.11846  21625854.19446 113644612.598    88554245.3154 
       860.302         670.348  
 08  5 22  1 14 40.0000000  0  7G 2G 8G10G15G24G26G29               
  21965709.772 7  21965709.56345  21965711.18745 115430577.779    89945902.2754 
     -1674.712       -1304.938  
  24171749.463 5  24171748.66542  24171754.83042 127023410.875    98979287.5214 
       701.227         546.396  
  21493962.782 7  21493962.36745  21493965.97245 112951533.835    88014181.3884 
      -813.159        -633.612  
  20475755.491 8  20475755.51046  20475757.87146 107600810.969    83844786.2074 
      2107.444        1642.156  
  21312309.263 7  21312308.89045  21312312.92545 111996930.688    87270335.4164 
      2730.822        2127.897  
  19658212.420 8  19658212.59446  19658215.66546 103304604.084    80497097.2144 
      1630.272        1270.345  
  21624219.820 8  21624219.62346  21624222.45945 113636038.150    88547563.9244 
       854.865         666.115  
 08  5 22  1 14 50.0000000  0  7G 2G 8G10G15G24G26G29               
  21968899.362 7  21968899.18945  21968901.05745 115447340.318    89958963.9834 
     -1678.066       -1307.577  
  24170418.397 6  24170418.22342  24170424.39542 127016416.855    98973837.6424 
       696.550         542.800  
  21495510.008 8  21495509.48645  21495513.03345 112959663.539    88020516.2164 
      -813.214        -633.685  
  20471750.354 8  20471750.56746  20471752.93046 107579764.800    83828386.5924 
      2102.070        1637.988  
  21307114.067 7  21307113.87245  21307117.77845 111969629.435    87249061.7154 
      2729.332        2126.714  
  19655116.727 8  19655116.83046  19655119.92546 103288336.399    80484421.0954 
      1623.403        1264.986  
  21622598.657 8  21622599.20446  21622601.45246 113627519.938    88540926.3594 
       849.026         661.586  
 08  5 22  1 15  0.0000000  0  7G 2G 8G10G15G24G26G29               
  21972095.559 7  21972095.07545  21972096.68045 115464133.731    89972049.7404 
     -1680.829       -1309.754  
  24169098.308 6  24169097.80542  24169102.64942 127009472.243    98968426.2704 
       692.190         539.433  
  21497058.071 7  21497057.40045  21497060.70345 112967797.140    88026854.0754 
      -813.527        -633.912  
  20467754.956 8  20467755.17046  20467757.55546 107558768.383    83812025.7494 
      2096.948        1633.987  
  21301922.406 7  21301921.69145  21301925.72445 111942344.757    87227800.9224 
      2727.500        2125.333  
  19652033.926 8  19652033.87446  19652036.90846 103272135.252    80471796.8314 
      1616.643        1259.683  
  21620988.498 8  21620989.01546  21620991.13046 113619057.761    88534332.4504 
       843.297         657.102  
 08  5 22  1 15 10.0000000  0  7G 2G 8G10G15G24G26G29               
  21975296.782 7  21975296.59245  21975298.58845 115480958.283    89985159.7714 
     -1684.119       -1312.318  
  24167785.677 6  24167785.43542  24167790.27542 127002577.393    98963053.6554 
       686.860         535.271  
  21498606.349 7  21498606.00545  21498609.25045 112975934.869    88033195.1574 
      -814.016        -634.291  
  20463768.871 8  20463769.22646  20463771.54246 107537821.997    83795703.8984 
      2092.066        1630.162  
  21296732.912 7  21296732.90345  21296737.02645 111915077.000    87206553.3234 
      2725.809        2123.999  
  19648963.548 8  19648963.61746  19648966.52746 103256000.891    80459224.6014 
      1610.027        1254.558  
  21619389.000 8  21619389.15546  21619391.49446 113610651.860    88527782.3934 
       837.615         652.687  
 08  5 22  1 15 20.0000000  0  7G 2G 8G10G15G24G26G29               
  21978503.922 7  21978504.05145  21978505.79345 115497813.356    89998293.5834 
     -1687.191       -1314.693  
  24166483.413 5  24166483.00842  24166487.24542 126995731.649    98957719.3224 
       682.481         531.813  
  21500155.327 8  21500155.29845  21500158.52845 112984076.167    88039539.0184 
      -814.219        -634.440  
  20459792.249 8  20459792.61646  20459794.89346 107516925.104    83779420.6024 
      2086.939        1626.162  
  21291547.610 7  21291547.03145  21291551.59845 111887825.704    87185318.5494 
      2724.380        2122.885  
  19645905.921 8  19645906.02646  19645908.95046 103239932.905    80446704.0944 
      1603.205        1249.253  
  21617799.866 8  21617800.15746  21617802.37445 113602301.639    88521275.7214 
       832.218         648.489  
 08  5 22  1 15 30.0000000  0  7G 2G 8G10G15G24G26G29               
  21981717.558 7  21981717.31645  21981719.17845 115514699.182    90011451.3554 
     -1689.875       -1316.764  
  24165189.606 6  24165190.33942  24165194.13042 126988935.427    98952423.5624 
       677.382         527.849  
  21501705.676 7  21501705.25545  21501708.29245 112992221.422    88045885.9624 
      -814.614        -634.764  
  20455825.338 7  20455825.43546  20455827.64346 107496077.922    83763176.0464 
      2082.281        1622.576  
  21286364.828 8  21286364.71945  21286368.84645 111860591.193    87164096.8544 
      2722.488        2121.426  
  19642861.167 8  19642861.16846  19642863.99446 103223931.570    80434235.5224 
      1596.752        1244.228  
  21616221.632 8  21616221.87546  21616223.84246 113594007.369    88514812.6564 
       826.567         644.080  
 08  5 22  1 15 40.0000000  0  7G 2G 8G10G15G24G26G29               
  21984937.283 7  21984936.43945  21984938.18145 115531616.368    90024633.5584 
     -1693.261       -1319.418  
  24163906.384 5  24163906.04242  24163910.39942 126982189.286    98947166.8144 
       672.101         523.752  
  21503256.618 8  21503256.00245  21503259.34645 113000371.038    88052236.3094 
      -814.980        -635.054  
  20451868.059 8  20451867.95846  20451870.29746 107475281.205    83746970.8114 
      2077.225        1618.645  
  21281185.478 8  21281185.83645  21281189.37845 111833374.195    87142888.8004 
      2720.988        2120.242  
  19639828.840 8  19639828.94846  19639832.01446 103207997.460    80421819.3334 
      1590.178        1239.096  
  21614653.823 8  21614654.10846  21614656.32345 113585769.736    88508393.7154 
       821.010         639.766  
 08  5 22  1 15 50.0000000  0  7G 2G 8G10G15G24G26G29               
  21988162.262 7  21988162.05745  21988163.39245 115548565.392    90037840.5964 
     -1696.771       -1322.184  
  24162631.105 5  24162631.16542  24162636.17942 126975493.835    98941949.5704 
       666.475         519.289  
  21504808.168 7  21504807.69845  21504811.19145 113008525.580    88058590.4954 
      -815.854        -635.753  
  20447920.075 8  20447920.30846  20447922.55946 107454535.422    83730805.2724 
      2071.967        1614.506  
  21276010.066 8  21276009.70945  21276013.63345 111806175.305    87121694.8644 
      2718.851        2118.562  
  19636809.486 8  19636809.75146  19636812.70746 103192131.131    80409455.9644 
      1583.180        1233.646  
  21613097.149 7  21613097.10845  21613099.79745 113577589.095    88502019.1914 
       815.063         635.102  
 08  5 22  1 16  0.0000000  0  7G 2G 8G10G15G24G26G29               
  21991393.560 7  21991393.53745  21991394.48645 115565545.832    90051072.0994 
     -1699.552       -1324.329  
  24161366.522 5  24161365.99442  24161371.85642 126968848.645    98936771.5234 
       662.320         516.172  
  21506360.929 7  21506360.26845  21506363.90945 113016684.714    88064948.2534 
      -816.123        -635.909  
  20443981.845 8  20443982.15646  20443984.48746 107433840.249    83714679.1664 
      2066.853        1610.521  
  21270837.565 7  21270837.03545  21270841.36245 111778994.205    87100514.7874 
      2717.184        2117.273  
  19633803.312 8  19633803.37446  19633806.31546 103176332.197    80397145.1024 
      1576.383        1228.327  
  21611551.118 7  21611551.09445  21611554.21845 113569465.102    88495688.8034 
       809.636         630.892  
 08  5 22  1 16 10.0000000  0  7G 2G 8G10G15G24G26G29               
  21994630.479 7  21994630.45145  21994632.07545 115582557.902    90064328.2474 
     -1702.658       -1326.752  
  24160111.976 5  24160112.18342  24160117.33442 126962254.031    98931632.8624 
       657.784         512.505  
  21507914.178 8  21507913.81545  21507917.22445 113024848.539    88071309.6694 
      -816.361        -636.138  
  20440053.789 8  20440053.62646  20440055.83446 107413195.884    83698592.6464 
      2061.725        1606.526  
  21265668.338 8  21265668.13445  21265672.43345 111751831.113    87079348.7464 
      2715.514        2115.949  
  19630809.688 8  19630809.76746  19630812.71546 103160600.885    80384886.9384 
      1569.622        1223.065  
  21610016.078 8  21610015.93645  21610019.25846 113561397.822    88489402.6064 
       803.823         626.321  
 08  5 22  1 16 20.0000000  0  7G 2G 8G10G15G24G26G29               
  21997874.138 7  21997874.01745  21997875.54245 115599601.922    90077609.2974 
     -1705.915       -1329.310  
  24158868.164 5  24158867.32142  24158872.61242 126955710.415    98926533.9394 
       652.480         508.324  
  21509468.634 8  21509468.03945  21509471.99145 113033017.413    88077675.0214 
      -816.870        -636.533  
  20436134.874 8  20436134.94246  20436136.97346 107392602.833    83682546.1114 
      2056.674        1602.574  
  21260502.858 7  21260502.99445  21260507.05245 111724686.543    87058197.1334 
      2713.771        2114.599  
  19627829.007 8  19627828.99946  19627831.93746 103144937.460    80372681.6684 
      1562.743        1217.727  
  21608491.927 8  21608491.87546  21608494.91145 113553387.790    88483161.0204 
       798.383         622.101  
 08  5 22  1 16 30.0000000  0  7G 2G 8G10G15G24G26G29               
  22001123.815 7  22001123.13345  22001125.14445 115616677.674    90090915.0584 
     -1709.157       -1331.817  
  24157630.731 5  24157631.71542  24157636.68742 126949217.651    98921474.6414 
       646.757         504.017  
  21511024.274 7  21511023.55545  21511027.47045 113041191.233    88084044.2204 
      -817.585        -637.048  
  20432226.002 8  20432226.01346  20432228.12346 107372060.893    83666539.4134 
      2051.673        1598.697  
  21255341.056 8  21255341.16245  21255344.86345 111697560.375    87037059.8604 
      2711.932        2113.192  
  19624861.171 8  19624861.25646  19624864.15546 103129341.955    80360529.3314 
      1556.269        1212.665  
  21606978.441 8  21606978.78345  21606981.16745 113545434.853    88476963.9214 
       792.611         617.624  
 08  5 22  1 16 40.0000000  0  7G 2G 8G10G15G24G26G29               
  22004379.285 7  22004378.58145  22004380.84445 115633785.727    90104245.9954 
     -1712.635       -1334.505  
  24156405.476 5  24156405.08942  24156409.46642 126942776.341    98916455.4244 
       641.177         499.623  
  21512580.690 7  21512580.08145  21512584.12245 113049370.406    88090417.5944 
      -818.359        -637.681  
  20428326.603 8  20428326.82046  20428328.94646 107351570.604    83650572.9534 
      2046.340        1594.583  
  21250183.033 8  21250182.86745  21250186.42345 111670453.282    87015937.4474 
      2709.729        2111.490  
  19621906.740 8  19621906.53746  19621909.32046 103113814.917    80348430.3384 
      1549.284        1207.222  
  21605475.901 8  21605476.09945  21605478.42545 113537539.549    88470811.7404 
       786.644         612.974  
 08  5 22  1 16 50.0000000  0  7G 2G 8G10G15G24G26G29               
  22007641.138 7  22007640.43345  22007642.39545 115650925.582    90117601.7214 
     -1715.374       -1336.666  
  24155189.539 5  24155188.80142  24155193.43842 126936385.986    98911475.9174 
       636.587         496.057  
  21514138.150 8  21514137.58745  21514141.53645 113057554.409    88096794.7394 
      -818.614        -637.889  
  20424436.753 8  20424437.33946  20424439.62046 107331131.502    83634646.3874 
      2041.413        1590.713  
  21245027.909 7  21245027.86245  21245031.85945 111643364.834    86994829.5664 
      2707.823        2109.990  
  19618964.798 8  19618964.81046  19618967.62746 103098355.824    80336384.2984 
      1542.511        1201.977  
  21603984.349 7  21603984.27345  21603986.86545 113529701.442    88464704.1164 
       780.894         608.485  
 08  5 22  1 17  0.0000000  0  7G 2G 8G10G15G24G26G29               
  22010908.380 7  22010908.57945  22010910.14845 115668098.121    90130982.9064 
     -1718.693       -1339.273  
  24153983.442 6  24153982.66142  24153986.46042 126930047.370    98906536.7474 
       631.558         492.172  
  21515696.512 8  21515695.98445  21515700.04045 113065744.307    88103176.4704 
      -819.079        -638.235  
  20420557.434 8  20420557.87346  20420559.98946 107310744.527    83618760.4314 
      2036.087        1586.526  
  21239877.369 7  21239876.77945  21239880.83545 111616295.909    86973736.8994 
      2705.942        2108.518  
  19616036.141 8  19616036.24146  19616039.09546 103082965.552    80324391.8784 
      1535.681        1196.617  
  21602504.011 8  21602503.91845  21602506.30545 113521921.292    88458641.6584 
       775.017         603.918  
 08  5 22  1 17 10.0000000  0  7G 2G 8G10G15G24G26G29               
  22014182.740 7  22014182.61045  22014184.48545 115685303.289    90144389.5194 
     -1721.834       -1341.665  
  24152786.953 6  24152787.47642  24152790.79242 126923760.726    98901638.0504 
       626.385         488.157  
  21517256.177 8  21517255.32045  21517259.27745 113073939.999    88109562.7184 
      -819.628        -638.702  
  20416687.914 8  20416688.33346  20416690.33046 107290409.740    83602915.1414 
      2031.021        1582.617  
  21234730.118 7  21234729.47845  21234733.55945 111589246.697    86952659.5874 
      2704.114        2107.077  
  19613120.629 8  19613120.58846  19613123.44446 103067644.105    80312453.0854 
      1528.904        1191.334  
  21601034.571 8  21601034.52945  21601036.93646 113514199.135    88452624.3844 
       769.542         599.617  
 08  5 22  1 17 20.0000000  0  7G 2G 8G10G15G24G26G29               
  22017462.831 7  22017462.47245  22017464.36645 115702540.885    90157821.3954 
     -1725.329       -1344.424  
  24151601.277 6  24151601.28142  24151605.06542 126917525.821    98896779.6934 
       620.969         483.877  
  21518817.086 8  21518816.05045  21518819.90445 113082141.328    88115953.3704 
      -820.458        -639.339  
  20412828.319 8  20412828.56446  20412830.67446 107270126.884    83587110.3184 
      2025.716        1578.472  
  21229586.204 7  21229585.90245  21229590.10545 111562217.077    86931597.5484 
      2701.953        2105.469  
  19610218.140 8  19610218.21546  19610221.09246 103052391.380    80300567.8454 
      1521.878        1185.857  
  21599576.073 8  21599576.47046  21599578.29446 113506534.741    88446652.1284 
       763.579         594.983  
 08  5 22  1 17 30.0000000  0  7G 2G 8G10G15G24G26G29               
  22020749.050 7  22020748.93545  22020751.09845 115719811.298    90171278.8534 
     -1728.405       -1346.809  
  24150424.779 5  24150424.56842  24150429.28142 126911343.089    98891961.9944 
       615.957         479.996  
  21520378.524 8  21520377.92745  21520381.70645 113090348.623    88122348.6554 
      -820.977        -639.694  
  20408978.506 8  20408978.77246  20408980.98846 107249896.487    83571346.3764 
      2020.305        1574.267  
  21224446.984 7  21224446.00845  21224450.13745 111535207.608    86910551.2074 
      2699.824        2103.790  
  19607328.719 8  19607328.68646  19607331.86346 103037207.754    80288736.4454 
      1514.761        1180.324  
  21598128.647 8  21598128.96146  21598130.96746 113498928.623    88440725.2804 
       757.591         590.331  
 08  5 22  1 17 40.0000000  0  7G 2G 8G10G15G24G26G29               
  22024042.162 7  22024041.34445  22024043.42145 115737113.502    90184761.0664 
     -1731.950       -1349.575  
  24149257.708 5  24149256.84142  24149262.53742 126905211.582    98887184.1744 
       610.796         475.810  
  21521941.499 7  21521940.80345  21521944.46845 113098560.799    88128747.7464 
      -821.338        -640.028  
  20405138.658 8  20405138.91946  20405141.13046 107229717.432    83555622.4364 
      2015.169        1570.218  
  21219310.693 8  21219310.03145  21219314.18145 111508217.237    86889519.7594 
      2698.134        2102.411  
  19604452.368 8  19604452.33446  19604455.28746 103022092.284    80276958.1624 
      1508.012        1175.075  
  21596692.282 8  21596692.35045  21596694.67645 113491379.630    88434842.9464 
       751.865         585.860  
 08  5 22  1 17 50.0000000  0  7G 2G 8G10G15G24G26G29               
  22027340.613 7  22027340.00345  22027342.01545 115754448.573    90198268.9074 
     -1734.941       -1351.879  
  24148100.712 6  24148100.46442  24148104.43242 126899132.400    98882447.1264 
       605.180         471.566  
  21523505.317 7  21523504.62045  21523507.95945 113106778.992    88135151.5284 
      -822.214        -640.678  
  20401308.913 8  20401308.94646  20401311.10246 107209591.012    83539939.5124 
      2010.092        1566.316  
  21214178.271 7  21214177.97745  21214182.14545 111481247.281    86868504.2074 
      2695.835        2100.617  
  19601589.118 8  19601589.19546  19601591.99046 103007046.095    80265233.8554 
      1501.154        1169.746  
  21595266.842 8  21595266.93445  21595269.22946 113483889.058    88429006.1294 
       746.027         581.336  
 08  5 22  1 18  0.0000000  0  7G 2G 8G10G15G24G26G29               
  22030645.531 7  22030645.46045  22030647.02545 115771816.741    90211802.5264 
     -1738.316       -1354.500  
  24146954.567 6  24146954.31542  24146957.69342 126893105.773    98877751.0264 
       600.387         467.837  
  21525070.397 7  21525069.51345  21525073.30945 113115003.398    88141560.1484 
      -822.520        -640.925  
  20397489.043 8  20397488.95846  20397491.28246 107189517.349    83524297.6974 
      2004.800        1562.181  
  21209049.863 8  21209050.03045  21209053.48045 111454297.888    86847504.6834 
      2694.040        2099.261  
  19598739.126 8  19598739.32746  19598741.92146 102992069.299    80253563.6214 
      1494.272        1164.383  
  21593852.345 8  21593852.82745  21593854.84646 113476456.950    88423214.8774 
       740.314         576.874  
 08  5 22  1 18 10.0000000  0  7G 2G 8G10G15G24G26G29               
  22033956.788 7  22033956.58145  22033958.24745 115789216.943    90225361.1094 
     -1741.836       -1357.268  
  24145817.124 6  24145817.16143  24145821.49543 126887130.620    98873095.0774 
       594.821         463.520  
  21526636.698 7  21526635.64845  21526639.15445 113123233.036    88147972.8294 
      -823.247        -641.481  
  20393678.839 8  20393678.85246  20393681.28546 107169495.445    83508696.2164 
      1999.530        1558.084  
  21203925.235 8  21203925.43145  21203929.02545 111427368.162    86826520.4794 
      2692.077        2097.749  
  19595902.285 8  19595902.36746  19595905.01946 102977160.925    80241946.7054 
      1487.373        1158.992  
  21592449.038 8  21592449.57045  21592451.52845 113469082.286    88417468.3744 
       734.560         572.414  
 08  5 22  1 18 20.0000000  0  7G 2G 8G10G15G24G26G29               
  22037274.041 7  22037273.89245  22037275.87045 115806649.591    90238944.9854 
     -1744.751       -1359.530  
  24144690.412 6  24144689.88443  24144693.87343 126881207.602    98868479.7264 
       589.990         459.779  
  21528203.908 7  21528202.84045  21528206.29845 113131468.318    88154389.9244 
      -823.549        -641.701  
  20389878.757 8  20389878.90846  20389881.31246 107149526.019    83493135.6284 
      1994.369        1554.066  
  21198804.907 7  21198804.65545  21198808.33945 111400458.671    86805552.0504 
      2690.079        2096.154  
  19593078.198 8  19593078.53346  19593081.21946 102962321.487    80230383.5054 
      1480.605        1153.714  
  21591056.872 8  21591057.13046  21591059.39546 113461765.555    88411767.0294 
       728.823         567.931  
 08  5 22  1 18 30.0000000  0  7G 2G 8G10G15G24G26G29               
  22040597.730 7  22040597.17045  22040599.07945 115824114.562    90252554.0324 
     -1748.186       -1362.210  
  24143571.949 5  24143572.29942  24143576.48842 126875336.615    98863904.9534 
       584.243         455.319  
  21529771.783 8  21529771.07645  21529774.51645 113139709.208    88160811.3884 
      -824.460        -642.428  
  20386088.789 8  20386088.60646  20386091.09246 107129608.837    83477615.7464 
      1989.030        1549.881  
  21193687.905 7  21193687.68045  21193691.64645 111373569.452    86784599.4124 
      2687.974        2094.549  
  19590267.535 8  19590267.63946  19590270.52446 102947550.931    80218873.9874 
      1473.520        1148.202  
  21589675.278 8  21589675.55346  21589678.20946 113454506.667    88406110.7514 
       723.092         563.425  
 08  5 22  1 18 40.0000000  0  7G 2G 8G10G15G24G26G29               
  22043927.162 7  22043927.07845  22043928.61445 115841612.125    90266188.4824 
     -1751.299       -1364.610  
  24142465.118 6  24142465.38742  24142469.10042 126869517.884    98859370.8724 
       579.495         451.632  
  21531340.850 7  21531340.22745  21531343.87545 113147955.844    88167237.3384 
      -824.529        -642.484  
  20382308.712 8  20382308.47846  20382310.87646 107109744.025    83462136.6744 
      1984.018        1546.005  
  21188574.848 8  21188574.70545  21188578.64945 111346700.778    86763662.7864 
      2686.019        2092.999  
  19587470.168 8  19587469.99946  19587472.81546 102932849.471    80207418.3084 
      1466.944        1143.076  
  21588305.089 8  21588305.42846  21588308.09146 113447305.913    88400499.7724 
       717.113         558.819  
 08  5 22  1 18 50.0000000  0  7G 2G 8G10G15G24G26G29               
  22047263.175 7  22047262.85545  22047264.59045 115859141.846    90279848.0024 
     -1754.452       -1367.095  
  24141368.315 6  24141368.12142  24141370.62242 126863751.088    98854877.2654 
       573.979         447.314  
  21532911.311 7  21532910.56645  21532914.17545 113156207.912    88173667.5124 
      -825.684        -643.369  
  20378538.263 8  20378538.36946  20378540.70246 107089931.250    83446698.1524 
      1978.579        1541.769  
  21183465.814 8  21183465.74345  21183469.51645 111319852.327    86742741.9084 
      2683.601        2091.125  
  19584685.358 8  19584685.45446  19584688.46246 102918216.650    80196016.1054 
      1459.693        1137.440  
  21586945.863 7  21586946.05346  21586948.70146 113440162.765    88394933.6814 
       711.343         554.286  
 08  5 22  1 19  0.0000000  0  7G 2G 8G10G15G24G26G29               
  22050605.031 7  22050604.74745  22050606.93645 115876704.463    90293533.1394 
     -1758.130       -1369.947  
  24140281.189 6  24140280.98842  24140283.66042 126858037.011    98850424.7434 
       568.615         443.087  
  21534482.611 7  21534481.94245  21534485.65745 113164465.981    88180102.3684 
      -826.127        -643.767  
  20374778.230 8  20374778.26846  20374780.56946 107070171.373    83431300.8434 
      1973.358        1537.669  
  21178360.800 7  21178360.58045  21178364.20045 111293024.905    86721837.4274 
      2681.775        2089.680  
  19581914.223 8  19581914.26146  19581917.08046 102903653.355    80184668.0784 
      1452.857        1132.092  
  21585597.715 8  21585597.70845  21585600.55145 113433078.022    88389413.0954 
       705.676         549.885  
 08  5 22  1 19 10.0000000  0  7G 2G 8G10G15G24G26G29               
  22053953.762 7  22053952.98945  22053954.96245 115894299.566    90307243.5884 
     -1760.948       -1372.145  
  24139203.147 6  24139203.25642  24139206.66342 126852375.206    98846012.9544 
       563.507         439.047  
  21536055.111 8  21536054.36745  21536058.30845 113172729.791    88186541.6884 
      -826.917        -644.327  
  20371027.841 8  20371028.19746  20371030.26046 107050463.976    83415944.4284 
      1968.274        1533.699  
  21173259.384 8  21173259.32145  21173262.91845 111266218.301    86700949.1614 
      2679.651        2088.050  
  19579155.995 8  19579156.15246  19579158.99246 102889159.130    80173373.8824 
      1446.027        1126.771  
  21584260.626 8  21584260.26245  21584263.06745 113426051.284    88383937.7084 
       700.139         545.560  
 08  5 22  1 19 20.0000000  0  7G 2G 8G10G15G24G26G29               
  22057308.041 7  22057307.73645  22057309.39445 115911927.468    90320979.6154 
     -1764.326       -1374.788  
  24138136.404 6  24138135.76342  24138139.58242 126846766.103    98841642.2144 
       558.743         435.413  
  21537628.887 7  21537628.22945  21537631.81245 113180999.657    88192985.7364 
      -827.112        -644.526  
  20367287.559 8  20367288.00346  20367290.19746 107030809.500    83400629.2534 
      1962.666        1529.328  
  21168162.353 8  21168162.39045  21168166.00145 111239432.812    86680077.3524 
      2677.506        2086.343  
  19576411.126 8  19576411.21146  19576414.06246 102874734.349    80162133.7904 
      1438.884        1121.220  
  21582934.796 7  21582934.29845  21582936.82945 113419082.804    88378507.7184 
       693.903         540.708  
 08  5 22  1 19 30.0000000  0  7G 2G 8G10G15G24G26G29               
  22060668.623 7  22060668.95845  22060670.14845 115929587.724    90334740.8434 
     -1767.585       -1377.321  
  24137079.600 6  24137079.00742  24137082.77642 126841209.412    98837312.3334 
       553.094         431.037  
  21539203.997 7  21539203.16245  21539206.62745 113189275.139    88199434.1564 
      -827.844        -645.057  
  20363557.349 8  20363557.95946  20363560.06346 107011207.529    83385354.9924 
      1957.482        1525.327  
  21163069.112 8  21163069.19945  21163073.17245 111212668.202    86659221.8114 
      2675.347        2084.688  
  19573679.425 8  19573679.35046  19573682.19246 102860378.671    80150947.5494 
      1432.033        1115.852  
  21581619.313 7  21581619.17845  21581621.74045 113412172.318    88373122.9234 
       688.035         536.135  
 08  5 22  1 19 40.0000000  0  7G 2G 8G10G15G24G26G29               
  22064035.546 7  22064035.25245  22064037.04645 115947280.245    90348527.2124 
     -1771.282       -1380.218  
  24136031.627 6  24136031.53642  24136035.44742 126835704.945    98833023.1454 
       547.752         426.774  
  21540779.930 8  21540779.31045  21540782.61645 113197556.191    88205886.9094 
      -828.289        -645.420  
  20359837.380 8  20359837.67646  20359839.89446 106991658.008    83370121.6044 
      1952.292        1521.285  
  21157980.311 7  21157979.80945  21157983.85145 111185924.393    86638382.4804 
      2673.547        2083.271  
  19570960.553 8  19570960.69546  19570963.57146 102846091.921    80139815.0214 
      1425.275        1110.578  
  21580315.588 7  21580315.48245  21580317.93645 113405319.738    88367783.2434 
       682.414         531.772  
 08  5 22  1 19 50.0000000  0  7G 2G 8G10G15G24G26G29               
  22067408.035 7  22067408.39145  22067410.05245 115965005.117    90362338.7874 
     -1774.316       -1382.571  
  24134993.409 5  24134993.30142  24134997.70542 126830253.012    98828774.9184 
       542.021         422.363  
  21542356.719 8  21542356.26345  21542359.54545 113205842.983    88212344.1394 
      -829.152        -646.083  
  20356127.329 7  20356127.53546  20356129.72546 106972161.124    83354929.2224 
      1947.036        1517.155  
  21152895.208 7  21152894.92545  21152898.48445 111159201.693    86617559.5954 
      2671.161        2081.417  
  19568255.120 8  19568255.06146  19568258.03846 102831874.339    80128736.3744 
      1418.299        1105.167  
  21579023.006 7  21579022.75045  21579025.08845 113398525.163    88362488.7704 
       676.323         527.018  
 08  5 22  1 20  0.0000000  0  7G 2G 8G10G15G24G26G29               
  22070787.117 7  22070787.10145  22070788.92645 115982762.472    90376175.6734 
     -1777.668       -1385.165  
  24133966.663 6  24133966.36742  24133970.80542 126824853.566    98824567.5534 
       537.401         418.717  
  21543934.530 8  21543933.92845  21543937.41545 113214135.482    88218805.8144 
      -829.342        -646.236  
  20352427.176 8  20352427.44146  20352429.58046 106952716.999    83339777.9574 
      1941.819        1513.094  
  21147813.601 8  21147813.98745  21147817.47845 111132500.276    86596753.3004 
      2669.365        2080.012  
  19565562.780 8  19565562.63046  19565565.76646 102817726.063    80117711.7494 
      1411.446        1099.812  
  21577740.971 7  21577741.03545  21577743.16645 113391788.692    88357239.5684 
       670.815         522.700  
 08  5 22  1 20 10.0000000  0  7G 2G 8G10G15G24G26G29               
  22074172.952 7  22074172.73945  22074174.67045 116000552.325    90390037.8884 
     -1780.951       -1387.750  
  24132948.995 6  24132948.50542  24132952.42342 126819506.886    98820401.3244 
       531.738         414.405  
  21545513.687 7  21545513.02045  21545516.73845 113222433.889    88225272.0954 
      -830.118        -646.856  
  20348737.092 8  20348737.47846  20348739.56746 106933325.795    83324667.9314 
      1936.470        1508.932  
  21142736.860 8  21142736.72145  21142740.58545 111105820.346    86575963.7424 
      2667.062        2078.255  
  19562883.625 8  19562883.56346  19562886.58446 102803647.049    80106741.0884 
      1404.436        1094.389  
  21576469.992 8  21576470.15745  21576472.27045 113385110.344    88352035.6594 
       665.081         518.278  
 08  5 22  1 20 20.0000000  0  7G 2G 8G10G15G24G26G29               
  22077564.370 7  22077564.02445  22077565.79445 116018374.060    90403924.9444 
     -1783.909       -1390.036  
  24131941.484 6  24131941.71642  24131944.01642 126814212.321    98816275.6994 
       526.641         410.334  
  21547093.897 7  21547093.11545  21547096.80645 113230737.452    88231742.3874 
      -830.706        -647.280  
  20345057.101 8  20345057.34046  20345059.54546 106913986.874    83309598.6394 
      1931.106        1504.759  
  21137663.837 8  21137663.80945  21137667.53045 111079161.334    86555190.4934 
      2664.692        2076.413  
  19560217.460 8  19560217.63946  19560220.68646 102789636.822    80095824.0214 
      1397.452        1088.969  
  21575210.068 8  21575210.33745  21575212.37246 113378489.677    88346876.6964 
       659.001         513.514  
 08  5 22  1 20 30.0000000  0  7G 2G 8G10G15G24G26G29               
  22080962.079 7  22080961.45345  22080963.38745 116036227.788    90417836.9204 
     -1786.954       -1392.435  
  24130943.349 6  24130943.50642  24130947.27042 126808969.939    98812190.7264 
       521.756         406.530  
  21548675.201 8  21548674.36245  21548677.75145 113239046.365    88238216.8514 
      -831.084        -647.609  
  20341387.110 7  20341387.25246  20341389.47146 106894700.365    83294570.1904 
      1926.022        1500.778  
  21132594.632 8  21132594.90845  21132598.34945 111052523.383    86534433.6494 
      2662.716        2074.870  
  19557564.707 8  19557564.64046  19557567.76446 102775695.469    80084960.6294 
      1390.672        1083.651  
  21573961.392 8  21573961.46445  21573963.86046 113371926.543    88341762.5624 
       653.449         509.151  
 08  5 22  1 20 40.0000000  0  7G 2G 8G10G15G24G26G29               
  22084365.310 7  22084365.14645  22084366.83845 116054113.088    90431773.5044 
     -1790.163       -1394.914  
  24129956.476 6  24129956.49242  24129959.40842 126803779.507    98808146.2314 
       516.267         402.355  
  21550257.211 7  21550256.58945  21550260.17045 113247360.246    88244695.1994 
      -831.769        -648.168  
  20337726.672 7  20337727.04346  20337729.20846 106875465.873    83279582.2774 
      1920.868        1496.759  
  21127529.723 8  21127529.72545  21127533.09045 111025906.291    86513693.0564 
      2660.519        2073.130  
  19554924.621 8  19554924.79346  19554927.78846 102761822.607    80074150.6064 
      1383.831        1078.298  
  21572723.127 7  21572723.07745  21572726.02745 113365420.581    88336692.9794 
       647.775         504.764  
 08  5 22  1 20 50.0000000  0  7G 2G 8G10G15G24G26G29               
  22087774.331 7  22087774.44845  22087776.24545 116072029.744    90445734.5274 
     -1793.089       -1397.189  
  24128977.957 6  24128978.31142  24128981.53842 126798640.848    98804142.1044 
       511.429         398.535  
  21551840.056 7  21551839.37845  21551842.71045 113255678.935    88251177.2804 
      -831.843        -648.164  
  20334076.738 8  20334076.74746  20334078.82346 106856283.185    83264634.7264 
      1915.839        1492.869  
  21122468.475 7  21122468.18145  21122472.07345 110999309.910    86492968.6094 
      2658.842        2071.826  
  19552297.832 8  19552297.88646  19552300.83946 102748018.130    80063393.8674 
      1377.248        1073.184  
  21571495.806 7  21571495.86845  21571498.69046 113358971.769    88331667.9254 
       642.173         500.395  
 08  5 22  1 21  0.0000000  0  7G 2G 8G10G15G24G26G29               
  22091189.706 7  22091189.45745  22091191.49445 116089976.841    90459719.2564 
     -1796.182       -1399.629  
  24128009.779 6  24128010.44442  24128014.11942 126793553.034    98800177.5934 
       506.424         394.632  
  21553424.001 7  21553423.12445  21553426.66645 113264001.373    88257662.2934 
      -832.369        -648.598  
  20330435.994 8  20330436.04146  20330438.16846 106837151.487    83249726.9184 
      1910.601        1488.753  
  21117411.623 7  21117411.18045  21117414.99345 110972733.422    86472259.6554 
      2656.605        2070.085  
  19549683.539 8  19549683.69746  19549686.78746 102734281.034    80052689.6394 
      1370.333        1067.781  
  21570279.511 7  21570279.58546  21570281.88146 113352579.139    88326686.6524 
       636.390         495.888  
 08  5 22  1 21 10.0000000  0  7G 2G 8G10G15G24G26G29               
  22094610.978 7  22094610.48445  22094612.63045 116107954.500    90473727.8094 
     -1799.337       -1402.090  
  24127051.076 6  24127050.53342  24127055.87642 126788516.219    98796252.7804 
       501.280         390.599  
  21555008.196 7  21555007.40745  21555011.20845 113272327.667    88264150.3074 
      -832.658        -648.827  
  20326804.931 8  20326805.05346  20326807.32846 106818070.960    83234858.9774 
      1905.447        1484.748  
  21112357.515 8  21112358.01645  21112361.09745 110946176.970    86451566.3134 
      2654.770        2068.633  
  19547082.535 8  19547082.43246  19547085.39746 102720611.467    80042038.0274 
      1363.546        1062.489  
  21569073.858 7  21569074.00146  21569076.23746 113346242.639    88321749.1124 
       630.901         491.590  
 08  5 22  1 21 20.0000000  0  7G 2G 8G10G15G24G26G29               
  22098037.651 7  22098037.50345  22098039.43445 116125962.780    90487760.2144 
     -1802.399       -1404.441  
  24126102.521 6  24126102.79642  24126107.07642 126783530.529    98792367.8124 
       495.662         386.251  
  21556593.728 8  21556592.67845  21556596.68745 113280658.075    88270641.5254 
      -833.326        -649.379  
  20323183.934 8  20323184.00746  20323186.17746 106799041.748    83220031.0134 
      1900.599        1480.972  
  21107308.032 8  21107308.24145  21107311.21045 110919640.839    86430888.8124 
      2652.684        2067.017  
  19544494.291 8  19544494.09346  19544496.97746 102707009.503    80031439.0934 
      1356.968        1057.369  
  21567878.474 8  21567878.99545  21567881.41045 113339962.538    88316855.5244 
       625.354         487.301  
 08  5 22  1 21 30.0000000  0  7G 2G 8G10G15G24G26G29               
  22101470.454 7  22101470.08545  22101471.71745 116144001.115    90501816.0494 
     -1805.252       -1406.697  
  24125164.052 6  24125164.30442  24125168.47242 126778595.569    98788522.3894 
       491.049         382.607  
  21558179.479 7  21558178.60845  21558182.47045 113288992.059    88277135.5284 
      -833.594        -649.560  
  20319572.329 7  20319572.56646  20319574.55446 106780063.310    83205242.6224 
      1895.333        1476.887  
  21102262.260 8  21102262.23045  21102265.48445 110893124.674    86410226.8594 
      2650.556        2065.365  
  19541918.636 8  19541918.60146  19541921.39546 102693474.838    80020892.6034 
      1350.129        1052.044  
  21566693.755 7  21566694.35246  21566696.90746 113333738.373    88312005.5264 
       619.521         482.761  
 08  5 22  1 21 40.0000000  0  7G 2G 8G10G15G24G26G29               
  22104908.781 7  22104908.59145  22104910.29945 116162069.849    90515895.5724 
     -1808.723       -1409.384  
  24124234.366 6  24124234.02942  24124238.81442 126773711.615    98784716.7064 
       485.551         378.305  
  21559766.253 8  21559765.33845  21559769.13145 113297329.932    88283632.5664 
      -834.000        -649.863  
  20315970.831 8  20315970.83346  20315972.92446 106761136.080    83190494.1314 
      1890.145        1472.849  
  21097220.098 8  21097220.17745  21097223.87445 110866628.846    86389580.7544 
      2648.629        2063.866  
  19539355.947 8  19539355.89646  19539358.69746 102680007.697    80010398.7214 
      1343.366        1046.794  
  21565520.259 7  21565520.31245  21565523.08945 113327570.367    88307199.2874 
       614.017         478.468  
 08  5 22  1 21 50.0000000  0  7G 2G 8G10G15G24G26G29               
  22108352.824 7  22108353.17145  22108354.27045 116180169.536    90529999.2134 
     -1811.678       -1411.647  
  24123314.713 6  24123314.93242  24123318.43542 126768879.212    98780951.2054 
       480.520         374.413  
  21561353.247 7  21561353.02745  21561356.53445 113305672.097    88290132.9544 
      -834.448        -650.234  
  20312378.572 8  20312379.05846  20312381.05946 106742260.612    83175785.9744 
      1885.027        1468.866  
  21092182.137 8  21092182.22345  21092186.21545 110840153.969    86368950.9884 
      2646.490        2062.221  
  19536806.121 8  19536806.15746  19536808.96446 102666608.565    79999957.8394 
      1336.556        1041.461  
  21564357.368 8  21564357.46146  21564359.87946 113321459.013    88302437.1894 
       608.362         474.055  
 08  5 22  1 22  0.0000000  0  7G 2G 8G10G15G24G26G29               
  22111803.225 7  22111803.10445  22111804.66045 116198300.457    90544127.1894 
     -1814.724       -1414.083  
  24122405.156 6  24122405.33942  24122409.16242 126764098.749    98777226.1604 
       475.035         370.210  
  21562941.950 7  21562941.31345  21562944.81145 113314018.877    88296636.9294 
      -835.156        -650.746  
  20308796.605 8  20308797.10846  20308799.08746 106723437.142    83161118.3344 
      1879.813        1464.804  
  21087148.641 8  21087148.08945  21087152.30745 110813700.350    86348337.7724 
      2644.271        2060.497  
  19534269.304 8  19534269.32146  19534272.20946 102653277.780    79989570.2134 
      1329.695        1036.147  
  21563205.434 7  21563205.34345  21563207.65445 113315404.535    88297719.4044 
       602.773         469.706  
 08  5 22  1 22 10.0000000  0  7G 2G 8G10G15G24G26G29               
  22115259.492 7  22115259.15945  22115260.70245 116216462.453    90558279.3854 
     -1817.869       -1416.496  
  24121504.434 6  24121504.77242  24121509.82542 126759370.111    98773541.4974 
       470.285         366.415  
  21564531.393 7  21564530.42745  21564533.90045 113322370.187    88303144.4344 
      -835.226        -650.815  
  20305224.212 8  20305224.90346  20305226.94246 106704665.453    83146491.0454 
      1874.616        1460.733  
  21082118.570 8  21082117.99745  21082121.93045 110787267.968    86327741.1184 
      2642.366        2058.993  
  19531745.345 8  19531745.43146  19531748.51146 102640015.315    79979235.8224 
      1322.893        1030.840  
  21562064.300 8  21562064.14545  21562066.59746 113309406.937    88293045.9454 
       597.120         465.270  
 08  5 22  1 22 20.0000000  0  7G 2G 8G10G15G24G26G29               
  22118721.278 7  22118721.19245  22118723.11545 116234655.100    90572455.4564 
     -1820.548       -1418.610  
  24120615.678 6  24120614.94842  24120619.80142 126754692.918    98769896.9384 
       465.443         362.666  
  21566121.396 8  21566120.61945  21566123.98745 113330725.664    88309655.1944 
      -835.664        -651.184  
  20301662.111 8  20301662.48646  20301664.52446 106685945.327    83131903.9314 
      1869.455        1456.707  
  21077092.566 7  21077092.02845  21077095.84245 110760856.567    86307160.7984 
      2640.071        2057.194  
  19529234.947 8  19529234.70546  19529237.68346 102626820.640    79968954.2564 
      1316.168        1025.572  
  21560933.571 8  21560933.70846  21560936.14446 113303465.806    88288416.4894 
       591.259         460.723  
 08  5 22  1 22 30.0000000  0  7G 2G 8G10G15G24G26G29               
  22122188.971 7  22122188.79545  22122190.52845 116252878.685    90586655.6444 
     -1823.666       -1421.053  
  24119734.695 6  24119733.86142  24119739.28942 126750067.538    98766292.7444 
       459.960         358.441  
  21567711.984 7  21567711.53245  21567715.10245 113339085.705    88316169.4984 
      -836.028        -651.461  
  20298110.027 8  20298110.01646  20298112.03746 106667277.069    83117357.2404 
      1864.391        1452.801  
  21072070.632 7  21072070.33445  21072074.17745 110734466.491    86286597.1064 
      2638.084        2055.696  
  19526736.860 8  19526736.78646  19526739.65946 102613694.197    79958725.8564 
      1309.406        1020.305  
  21559813.624 8  21559813.71046  21559816.59846 113297581.385    88283831.2234 
       585.721         456.423  
 08  5 22  1 22 40.0000000  0  7G 2G 8G10G15G24G26G29               
  22125662.684 7  22125662.76545  22125664.52945 116271133.447    90600880.1154 
     -1827.129       -1423.744  
  24118864.255 5  24118864.48042  24118869.38542 126745494.259    98762729.1634 
       454.572         354.229  
  21569303.996 8  21569303.22645  21569306.88745 113347450.579    88322687.5824 
      -836.854        -652.080  
  20294567.227 8  20294567.53746  20294569.65446 106648660.916    83102851.1494 
      1858.982        1448.546  
  21067052.966 7  21067052.82245  21067056.74545 110708098.179    86266050.3694 
      2635.720        2053.778  
  19524251.971 8  19524251.82446  19524254.73446 102600636.139    79948550.7544 
      1302.406        1014.845  
  21558704.806 8  21558704.74745  21558707.70046 113291753.953    88279290.3634 
       579.952         451.897  
 08  5 22  1 22 50.0000000  0  7G 2G 8G10G15G24G26G29               
  22129142.691 7  22129142.14745  22129144.14645 116289418.903    90615128.5124 
     -1830.226       -1426.146  
  24118004.151 5  24118002.88842  24118007.87542 126740972.706    98759205.8534 
       449.824         350.477  
  21570896.500 7  21570895.68645  21570899.45145 113355819.614    88329208.8994 
      -836.796        -652.053  
  20291034.641 8  20291035.03346  20291036.90046 106630096.500    83088385.3684 
      1853.746        1444.482  
  21062039.171 8  21062039.14845  21062042.93645 110681751.183    86245520.2444 
      2633.853        2052.344  
  19521780.168 8  19521779.94146  19521782.87546 102587646.193    79938428.7124 
      1295.522        1009.511  
  21557606.800 7  21557606.58345  21557609.55846 113285983.067    88274793.5724 
       574.258         447.434  
 08  5 22  1 23  0.0000000  0  7G 2G 8G10G15G24G26G29               
  22132628.202 7  22132628.11445  22132629.45545 116307735.074    90629400.8454 
     -1833.342       -1428.573  
  24117153.053 6  24117152.82142  24117157.23342 126736502.920    98755722.9164 
       444.264         346.110  
  21572489.970 7  21572489.08445  21572492.83445 113364192.900    88335733.5254 
      -837.640        -652.715  
  20287511.746 8  20287512.21246  20287514.22646 106611583.969    83073960.0214 
      1848.502        1440.377  
  21057029.905 8  21057029.59345  21057033.12245 110655425.681    86225006.8624 
      2631.333        2050.365  
  19519321.096 8  19519321.07046  19519323.98246 102574724.258    79928359.6764 
      1288.656        1004.135  
  21556519.378 7  21556519.24445  21556522.03445 113280268.771    88270340.8644 
       568.512         442.980  
 08  5 22  1 23 10.0000000  0  7G 2G 8G10G15G24G26G29               
  22136119.480 7  22136118.88245  22136120.67245 116326081.947    90643697.1044 
     -1836.203       -1430.781  
  24116313.510 6  24116312.79742  24116317.42742 126732084.844    98752280.2754 
       439.172         342.251  
  21574084.114 7  21574083.25245  21574087.17245 113372570.453    88342261.4784 
      -838.001        -652.986  
  20283998.660 8  20283999.32846  20284001.19046 106593123.262    83059575.0494 
      1843.546        1436.532  
  21052024.183 7  21052024.00945  21052027.47745 110629121.728    86204510.2784 
      2629.376        2048.896  
  19516875.030 8  19516875.06146  19516877.98446 102561870.389    79918343.6694 
      1281.934         998.923  
  21555442.647 8  21555442.40045  21555445.43745 113274611.032    88265932.2364 
       563.087         438.796  
 08  5 22  1 23 20.0000000  0  7G 2G 8G10G15G24G26G29               
  22139616.129 7  22139615.67645  22139617.62345 116344458.556    90658016.5244 
     -1839.288       -1433.201  
  24115482.141 6  24115481.49642  24115485.55542 126727717.657    98748877.2704 
       433.958         338.186  
  21575678.807 7  21575678.09245  21575681.87445 113380951.489    88348792.1514 
      -838.541        -653.392  
  20280495.117 8  20280496.01046  20280498.03046 106574713.504    83045229.7864 
      1838.308        1432.466  
  21047022.382 7  21047022.56845  21047025.82545 110602838.554    86184029.8844 
      2627.014        2047.019  
  19514441.727 7  19514441.72546  19514444.72946 102549083.682    79908380.0044 
      1275.125         993.600  
  21554376.754 8  21554376.38445  21554379.04345 113269008.950    88261566.9714 
       557.318         434.264  
 08  5 22  1 23 30.0000000  0  7G 2G 8G10G15G24G26G29               
  22143119.190 7  22143119.02645  22143121.01945 116362866.359    90672360.2524 
     -1842.305       -1435.543  
  24114660.279 6  24114660.65442  24114663.93842 126723402.774    98745515.0154 
       429.016         334.283  
  21577274.389 7  21577273.86945  21577277.69145 113389337.232    88355326.4824 
      -838.773        -653.564  
  20277001.877 8  20277002.54346  20277004.67246 106556356.103    83030925.3184 
      1833.125        1428.432  
  21042025.018 8  21042025.55745  21042029.01945 110576577.603    86163566.8024 
      2625.001        2045.463  
  19512021.636 8  19512021.58146  19512024.44846 102536365.569    79898469.7864 
      1268.405         988.363  
  21553320.845 7  21553321.34745  21553323.67045 113263463.864    88257246.1234 
       551.732         429.939  
 08  5 22  1 23 40.0000000  0  7G 2G 8G10G15G24G26G29               
  22146627.354 7  22146627.70945  22146629.24445 116381304.204    90686727.3984 
     -1845.060       -1437.694  
  24113849.174 6  24113847.64642  24113852.97342 126719139.131    98742192.6854 
       424.179         330.569  
  21578871.253 7  21578870.57345  21578874.42945 113397726.766    88361863.7744 
      -838.808        -653.622  
  20273518.730 8  20273518.84946  20273521.05246 106538049.999    83016660.8224 
      1828.228        1424.598  
  21037032.150 8  21037032.30145  21037035.88745 110550337.936    86143120.3094 
      2623.095        2043.978  
  19509614.183 8  19509614.32446  19509617.34746 102523714.891    79888612.1134 
      1261.894         983.287  
  21552276.620 8  21552277.22546  21552279.05246 113257974.628    88252968.7954 
       546.119         425.498  
 08  5 22  1 23 50.0000000  0  7G 2G 8G10G15G24G26G29               
  22150142.545 7  22150142.20145  22150144.07045 116399773.427    90701118.9874 
     -1848.605       -1440.480  
  24113047.623 5  24113046.60642  24113052.87442 126714928.083    98738911.3664 
       418.516         326.091  
  21580468.530 8  21580468.21445  21580471.89745 113406121.365    88368405.0074 
      -839.702        -654.338  
  20270045.307 7  20270045.32246  20270047.53846 106519796.604    83002437.3964 
      1822.803        1420.352  
  21032043.556 7  21032042.95645  21032046.71645 110524120.970    86122691.5074 
      2620.687        2042.099  
  19507220.005 8  19507220.05946  19507223.13446 102511133.126    79878808.1394 
      1254.797         977.771  
  21551243.058 7  21551243.36245  21551245.39245 113252542.755    88248736.1574 
       540.503         421.160  
 08  5 22  1 24  0.0000000  0  8G 2G 8G10G15G21G24G26G29            
  22153662.639 7  22153662.58045  22153664.28645 116418273.367    90715534.5194 
     -1851.817       -1442.979  
  24112256.237 5  24112255.68342  24112261.98042 126710769.006    98735670.5304 
       413.178         321.935  
  21582066.854 8  21582066.52345  21582069.83145 113414520.265    88374949.5994 
      -840.066        -654.588  
  20266581.678 8  20266581.82846  20266583.91646 106501595.252    82988254.5224 
      1817.444        1416.182  
  24295366.148 7  24295366.14243  24295368.14143 127673013.378    99485462.6554 
      4122.684        3212.476  
  21027058.395 7  21027058.14145  21027061.98545 110497926.080    86102279.8994 
      2618.307        2040.228  
  19504838.907 8  19504838.79546  19504841.77546 102498619.456    79869057.2274 
      1248.026         972.491  
  21550219.987 7  21550220.00545  21550222.64345 113247167.484    88244547.6254 
       534.325         416.358  
 08  5 22  1 24 10.0000000  0  8G 2G 8G10G15G21G24G26G29            
  22157189.139 7  22157189.03345  22157190.73245 116436803.622    90729973.6724 
     -1854.464       -1445.006  
  24111475.033 6  24111474.05442  24111479.28742 126706661.585    98732469.9244 
       408.052         317.895  
  21583666.019 7  21583665.53445  21583668.76845 113422923.176    88381497.3094 
      -840.581        -654.986  
  20263127.939 8  20263128.06446  20263130.19846 106483445.555    82974111.8994 
      1812.379        1412.278  
  24287519.787 7  24287519.55043  24287521.40643 127631775.977    99453329.6114 
      4124.222        3213.724  
  21022078.230 7  21022077.45545  21022081.40645 110471753.020    86081885.3114 
      2616.138        2038.559  
  19502470.756 8  19502470.47246  19502473.36546 102486173.767    79859359.2854 
      1241.132         967.123  
  21549207.910 7  21549207.59845  21549210.37745 113241848.445    88240402.9134 
       529.137         412.328  
 08  5 22  1 24 20.0000000  0  8G 2G 8G10G15G21G24G26G29            
  22160721.449 7  22160720.74945  22160722.72645 116455364.882    90744436.9634 
     -1857.432       -1447.343  
  24110702.970 5  24110702.31942  24110707.39042 126702606.421    98729310.0774 
       403.023         314.140  
  21585265.775 7  21585265.34045  21585268.79445 113431330.690    88388048.6104 
      -840.985        -655.295  
  20259683.920 8  20259684.28046  20259686.39546 106465348.231    82960010.0914 
      1807.098        1408.129  
  24279670.722 7  24279670.16943  24279672.08743 127590529.688    99421189.6324 
      4125.413        3214.600  
  21017101.798 8  21017101.38745  21017105.35245 110445602.584    86061508.3454 
      2613.818        2036.729  
  19500115.247 8  19500115.23546  19500118.07846 102473796.502    79849714.6644 
      1234.265         961.753  
  21548206.618 7  21548206.59845  21548209.22645 113236586.316    88236302.5524 
       523.454         407.902  
 08  5 22  1 24 30.0000000  0  8G 2G 8G10G15G21G24G26G29            
  22164258.755 7  22164258.56045  22164260.34845 116473955.986    90758923.5324 
     -1860.640       -1449.858  
  24109940.427 5  24109939.48242  24109944.63642 126698602.660    98726190.2494 
       397.705         309.874  
  21586866.475 7  21586865.88645  21586869.26145 113439741.826    88394602.7284 
      -841.472        -655.687  
  20256250.244 8  20256250.25446  20256252.42946 106447302.170    82945948.2214 
      1801.875        1404.043  
  24271820.537 7  24271819.29143  24271822.16143 127549273.484    99389041.9624 
      4126.038        3215.068  
  21012129.645 8  21012129.44345  21012133.25445 110419473.749    86041148.2154 
      2611.628        2034.999  
  19497772.434 8  19497772.77246  19497775.62446 102461486.662    79840122.5854 
      1227.389         956.411  
  21547215.677 8  21547216.16345  21547218.77546 113231379.992    88232245.6804 
       517.695         403.382  
 08  5 22  1 24 40.0000000  0  8G 2G 8G10G15G21G24G26G29            
  22167802.306 7  22167802.44445  22167804.43345 116492578.176    90773434.3194 
     -1863.743       -1452.242  
  24109188.656 5  24109187.42742  24109193.43442 126694651.421    98723111.3624 
       392.375         305.832  
  21588468.126 7  21588467.58645  21588470.76945 113448157.841    88401160.6474 
      -841.755        -655.908  
  20252825.743 8  20252826.19246  20252828.44646 106429308.617    82931927.2724 
      1796.876        1400.183  
  24263968.008 6  24263966.73943  24263969.18543 127508008.775    99356887.6404 
      4127.148        3215.956  
  21007161.879 8  21007161.62345  21007165.27945 110393367.841    86020805.9524 
      2609.608        2033.477  
  19495443.311 8  19495443.40646  19495446.23246 102449245.535    79830584.0414 
      1220.846         951.305  
  21546236.126 8  21546236.32345  21546238.99545 113226230.644    88228233.1924 
       512.319         399.211  
 08  5 22  1 24 50.0000000  0  8G 2G 8G10G15G21G24G26G29            
  22171352.539 7  22171351.72645  22171354.01745 116511230.747    90787968.7704 
     -1866.909       -1454.718  
  24108447.405 5  24108446.52342  24108450.82442 126690752.105    98720072.9544 
       387.017         301.541  
  21590070.505 7  21590069.96445  21590073.25545 113456578.027    88407721.8274 
      -842.536        -656.491  
  20249411.826 8  20249412.02446  20249414.32946 106411367.041    82917946.8284 
      1791.571        1396.008  
  24256113.569 7  24256112.49043  24256115.29743 127466735.018    99324726.2904 
      4127.767        3216.485  
  21002198.171 8  21002198.12745  21002201.83245 110367284.251    86000481.0814 
      2607.089        2031.486  
  19493126.722 8  19493126.81846  19493129.84746 102437072.387    79821098.4694 
      1213.865         945.879  
  21545266.993 7  21545267.06046  21545269.83645 113221137.713    88224264.6744 
       506.491         394.695  
 08  5 22  1 25  0.0000000  0  8G 2G 8G10G15G21G24G26G29            
  22174907.747 7  22174907.37445  22174909.36145 116529915.363    90802528.2064 
     -1870.131       -1457.230  
  24107715.757 6  24107715.69742  24107720.09142 126686906.487    98717076.3594 
       381.328         297.095  
  21591673.438 8  21591673.52345  21591676.44545 113465004.064    88414287.5504 
      -843.120        -656.974  
  20246007.866 7  20246007.94146  20246010.27146 106393479.176    82904008.2324 
      1786.198        1391.826  
  24248258.161 6  24248257.13043  24248259.73843 127425453.917    99292559.1994 
      4128.267        3216.815  
  20997239.200 8  20997239.35245  20997242.93645 110341224.838    85980175.0394 
      2604.631        2029.562  
  19490823.457 8  19490823.50746  19490826.64546 102424968.976    79811667.2434 
      1206.841         940.388  
  21544308.859 8  21544308.53545  21544311.56045 113216102.825    88220341.3774 
       500.741         390.203  
 08  5 22  1 25 10.0000000  0  8G 2G 8G10G15G21G24G26G29            
  22178469.563 6  22178469.19345  22178470.74145 116548631.348    90817112.0854 
     -1873.388       -1459.799  
  24106993.377 5  24106993.78742  24106998.18642 126683113.786    98714121.0104 
       376.197         293.161  
  21593278.304 7  21593277.85945  21593280.92445 113473435.270    88420857.3164 
      -843.720        -657.454  
  20242613.859 8  20242614.24746  20242616.39646 106375644.269    82890110.9004 
      1780.837        1387.655  
  24240401.363 6  24240399.64643  24240402.72343 127384164.857    99260385.9274 
      4129.366        3217.665  
  20992284.889 8  20992284.69045  20992288.09345 110315188.971    85959887.3524 
      2602.268        2027.738  
  19488533.579 8  19488533.53446  19488536.51246 102412934.633    79802289.8304 
      1199.932         935.011  
  21543361.306 6  21543361.23245  21543364.27645 113211125.267    88216462.7624 
       494.978         385.690  
 08  5 22  1 25 20.0000000  0  8G 2G 8G10G15G21G24G26G29            
  22481828.954 7  22481828.72545  22481830.62245 118142797.264    92059319.2794 
     -1876.333       -1462.093  
  24406073.947 5  24406073.99742  24406079.56342 128254794.911    99938807.6084 
       371.598         289.569  
  21894675.637 7  21894675.38545  21894678.74845 115057291.202    89655030.7584 
      -843.737        -657.454  
  20539022.821 8  20539023.34046  20539025.39546 107933284.576    84103856.5954 
      1775.437        1383.466  
  24532334.798 7  24532334.72643  24532337.48443 128918292.433   100455810.0174 
      4130.414        3218.510  
  21287127.894 8  21287127.59145  21287131.21545 111864599.780    87167220.4494 
      2600.126        2026.106  
  19786049.319 8  19786049.43146  19786052.48146 103976390.916    81020567.4564 
      1193.034         929.627  
  21842217.952 7  21842218.05045  21842220.57346 114781626.015    89440229.5704 
       489.116         381.115  
 08  5 22  1 25 30.0000000  0  8G 2G 8G10G15G21G24G26G29            
  22485402.521 7  22485402.48645  22485404.06645 118161576.924    92073952.7644 
     -1879.486       -1464.511  
  24405373.618 6  24405372.71542  24405378.80842 128251109.337    99935935.7024 
       366.060         285.250  
  21896282.202 7  21896281.74845  21896285.50345 115065733.820    89661609.4114 
      -844.272        -657.881  
  20535649.856 8  20535649.78346  20535651.74446 107915556.698    84090042.6694 
      1770.129        1379.316  
  24524475.571 6  24524475.07743  24524477.67143 128876988.697   100423625.2974 
      4130.854        3218.834  
  21282182.842 8  21282182.21245  21282186.02745 111838612.268    87146970.4334 
      2597.594        2024.103  
  19783785.433 8  19783785.79446  19783788.65646 103964495.666    81011298.4294 
      1186.115         924.251  
  21841292.819 8  21841293.12545  21841295.41446 114776764.157    89436441.1074 
       483.190         376.522  
 08  5 22  1 25 40.0000000  0  8G 2G 8G10G15G21G24G26G29            
  22488981.932 7  22488982.15545  22488984.11345 118180388.210    92088610.8954 
     -1882.624       -1466.954  
  24404682.879 6  24404681.07442  24404686.36942 128247477.040    99933105.3514 
       360.807         281.176  
  21897889.901 7  21897889.25945  21897893.51245 115074181.911    89668192.3274 
      -844.890        -658.335  
  20532286.254 8  20532286.42846  20532288.39846 107897882.170    84076270.3054 
      1764.883        1375.240  
  24516614.362 6  24516613.76543  24516616.31443 128835677.543   100391434.7964 
      4131.539        3219.426  
  21277242.191 7  21277241.43045  21277245.46345 111812648.917    87126739.2554 
      2595.250        2022.290  
  19781535.263 8  19781535.30446  19781538.24946 103952669.793    81002083.4554 
      1179.148         918.830  
  21840378.707 8  21840378.94445  21840381.32045 114771959.906    89432697.5304 
       477.521         372.112  
 08  5 22  1 25 50.0000000  0  8G 2G 8G10G15G21G24G26G29            
  22492568.374 7  22492567.88945  22492569.53945 118199231.655    92103294.0844 
     -1886.075       -1469.646  
  24404001.223 6  24404000.33442  24404005.17142 128243898.644    99930316.9784 
       355.253         276.789  
  21899498.615 7  21899497.95045  21899502.10245 115082636.014    89674779.9294 
      -845.597        -658.901  
  20528932.766 8  20528933.43346  20528935.25146 107880261.560    84062539.9614 
      1759.328        1370.898  
  24508751.500 6  24508750.94743  24508754.00643 128794359.609   100359238.9924 
      4132.066        3219.872  
  21272306.015 8  21272305.39345  21272309.79345 111786710.319    87106527.3624 
      2592.694        2020.281  
  19779298.196 8  19779298.29546  19779301.14546 103940913.738    80992922.8934 
      1172.093         913.305  
  21839475.730 8  21839475.56645  21839478.21845 114767213.767    89428999.2334 
       471.660         367.506  
 08  5 22  1 26  0.0000000  0  8G 2G 8G10G15G21G24G26G29            
  22496159.902 7  22496159.37645  22496161.59945 118218106.808    92118001.9834 
     -1889.077       -1472.037  
  24403329.971 6  24403329.52842  24403334.04242 128240373.800    99927570.3454 
       349.231         272.162  
  21901108.675 7  21901107.74345  21901112.05945 115091095.716    89681371.9074 
      -846.623        -659.738  
  20525589.905 8  20525590.58146  20525592.50546 107862694.500    84048851.3484 
      1754.164        1366.855  
  24500888.140 6  24500886.97942  24500889.94742 128753034.578   100327037.6824 
      4132.766        3220.345  
  21267374.476 8  21267374.31445  21267378.19545 111760796.139    87086334.4974 
      2590.050        2018.217  
  19777074.237 7  19777074.31446  19777077.37946 103929227.239    80983816.5334 
      1165.115         907.885  
  21838583.842 7  21838583.37445  21838586.21145 114762525.220    89425345.8114 
       466.232         363.297  
 08  5 22  1 26 10.0000000  0  8G 2G 8G10G15G21G24G26G29            
  22499757.434 7  22499757.31945  22499759.38845 118237013.707    92132734.6264 
     -1892.549       -1474.728  
  24402669.142 5  24402668.49342  24402674.21342 128236902.560    99924865.5164 
       343.791         267.921  
  21902719.436 7  21902718.81345  21902722.92445 115099561.025    89687968.2444 
      -847.300        -660.247  
  20522257.555 8  20522257.91346  20522259.86346 107845181.049    84035204.5034 
      1748.661        1362.597  
  24493022.840 6  24493021.70843  24493024.49743 128711702.746   100294831.0344 
      4133.480        3220.939  
  21262447.718 7  21262447.85545  21262451.49345 111734906.550    87066160.7924 
      2587.615        2016.333  
  19774863.661 8  19774863.62046  19774866.69446 103917610.155    80974764.2604 
      1158.057         902.417  
  21837702.139 7  21837702.10045  21837704.92545 114757894.481    89421737.4454 
       460.274         358.670  
 08  5 22  1 26 20.0000000  0  8G 2G 8G10G15G21G24G26G29            
  22503361.841 7  22503361.42045  22503363.09245 118255951.962    92147491.6914 
     -1895.346       -1476.877  
  24402020.481 6  24402018.52542  24402024.05442 128233484.747    99922202.2904 
       338.421         263.751  
  21904331.268 7  21904330.73145  21904334.79745 115108031.694    89694568.7554 
      -847.568        -660.429  
  20518934.984 8  20518935.32846  20518937.45546 107827720.979    84021599.2494 
      1743.507        1358.612  
  24485155.732 6  24485155.66543  24485158.77843 128670363.623   100262618.7554 
      4133.538        3220.984  
  21257526.170 8  21257525.79645  21257529.37045 111709041.403    87046006.1304 
      2585.104        2014.375  
  19772666.203 8  19772666.40046  19772669.21746 103906062.479    80965766.0664 
      1151.485         897.270  
  21836831.910 8  21836831.81245  21836834.53145 114753321.249    89418173.8844 
       454.300         354.033  
 08  5 22  1 26 30.0000000  0  8G 2G 8G10G15G21G24G26G29            
  22506971.601 7  22506971.08145  22506973.06945 118274921.513    92162273.1484 
     -1898.474       -1479.311  
  24401379.469 6  24401379.88542  24401383.60442 128230120.175    99919580.5604 
       333.665         260.036  
  21905944.504 7  21905943.88745  21905947.71445 115116507.739    89701173.4634 
      -848.089        -660.863  
  20515622.517 8  20515622.94046  20515625.00646 107810314.159    84008035.5004 
      1738.004        1354.293  
  24477287.498 6  24477287.57943  24477290.57643 128629017.256   100230400.8174 
      4134.991        3222.038  
  21252608.978 8  21252608.52045  21252612.12545 111683200.627    87025870.4594 
      2582.779        2012.556  
  19770482.182 8  19770482.08646  19770485.07146 103894583.897    80956821.7114 
      1144.323         891.688  
  21835972.693 8  21835972.76645  21835975.08845 114748805.305    89414654.9604 
       448.725         349.668  
 08  5 22  1 26 40.0000000  0  8G 2G 8G10G15G21G24G26G29            
  22510587.327 7  22510587.25145  22510589.01245 118293923.612    92177079.9694 
     -1901.750       -1481.884  
  24400749.456 6  24400749.09242  24400754.36842 128226810.112    99917001.2704 
       328.311         255.843  
  21907558.791 7  21907558.10845  21907561.75445 115124990.337    89707783.2724 
      -848.560        -661.213  
  20512320.643 8  20512320.88346  20512322.99546 107792961.883    83994514.2444 
      1732.630        1350.103  
  24469418.158 6  24469418.52643  24469421.82643 128587664.881   100198178.1804 
      4136.079        3222.893  
  21247696.358 8  21247696.36845  21247699.80945 111657385.501    87005754.7704 
      2580.337        2010.638  
  19768311.007 8  19768311.20246  19768314.14146 103883175.653    80947932.1724 
      1137.263         886.179  
  21835124.545 8  21835124.75345  21835126.55845 114744347.798    89411181.5754 
       443.140         345.298  
 08  5 22  1 26 50.0000000  0  8G 2G 8G10G15G21G24G26G29            
  22514209.160 7  22514208.79345  22514210.87045 118312956.304    92191910.6324 
     -1904.918       -1484.333  
  24400129.079 6  24400128.93842  24400134.32142 128223552.575    99914462.9414 
       322.644         251.401  
  21909173.682 7  21909173.21645  21909176.79145 115133477.562    89714396.6954 
      -849.135        -661.673  
  20509028.472 8  20509028.74946  20509031.00546 107775662.164    83981033.9514 
      1727.350        1345.974  
  24461548.460 6  24461548.04243  24461550.89443 128546304.746   100165949.5374 
      4136.253        3223.003  
  21242788.452 8  21242788.17145  21242792.05145 111631594.296    86985657.7324 
      2577.774        2008.684  
  19766152.980 8  19766153.42446  19766156.26446 103871836.015    80939096.0904 
      1130.568         880.971  
  21834286.815 8  21834287.13845  21834289.09245 114739946.993    89407752.3744 
       437.254         340.733  
 08  5 22  1 27  0.0000000  0  8G 2G 8G10G15G21G24G26G29            
  22517836.519 7  22517836.58745  22517838.76745 118332019.833    92206765.3094 
     -1907.893       -1486.651  
  24399520.048 6  24399520.02542  24399524.06642 128220347.924    99911965.8174 
       317.681         247.590  
  21910789.653 7  21910789.22945  21910792.88245 115141969.518    89721013.7974 
      -849.417        -661.871  
  20505746.472 8  20505746.74546  20505749.09946 107758415.247    83967594.7994 
      1722.094        1341.883  
  24453675.616 6  24453675.66343  24453678.74543 128504937.179   100133715.1104 
      4136.656        3223.356  
  21237884.836 8  21237884.71745  21237888.77945 111605827.323    86965579.5774 
      2575.509        2006.889  
  19764008.449 8  19764008.56046  19764011.49046 103860564.962    80930313.4484 
      1123.766         875.679  
  21833460.191 8  21833460.06045  21833462.55445 114735603.132    89404367.5404 
       431.360         336.139  
 08  5 22  1 27 10.0000000  0  8G 2G 8G10G15G21G24G26G29            
  22521470.249 7  22521470.21745  22521472.27345 118351115.102    92221644.7314 
     -1911.155       -1489.169  
  24398920.423 6  24398920.72642  24398924.20042 128217197.189    99909510.7004 
       312.411         243.436  
  21912406.439 7  21912406.27345  21912410.02745 115150467.406    89727635.5154 
      -850.163        -662.460  
  20502474.635 7  20502475.10846  20502477.26246 107741222.166    83954197.5864 
      1716.636        1337.647  
  24445802.828 6  24445802.52943  24445805.32243 128463563.163   100101475.6344 
      4137.549        3224.084  
  21232986.333 8  21232986.45845  21232990.11845 111580085.598    86945521.0914 
      2572.836        2004.811  
  19761877.105 8  19761877.03946  19761879.86246 103849363.672    80921585.1704 
      1116.761         870.210  
  21832644.609 7  21832644.31545  21832647.05545 114731317.088    89401027.7654 
       425.661         331.719  
 08  5 22  1 27 20.0000000  0  8G 2G 8G10G15G21G24G26G29            
  22525110.237 7  22525110.09745  22525112.29245 118370242.141    92236548.9144 
     -1914.141       -1491.547  
  24398331.418 6  24398330.71342  24398334.61243 128214100.485    99907097.6944 
       307.218         239.425  
  21914025.063 7  21914024.20745  21914028.18645 115158971.268    89734261.8834 
      -850.705        -662.879  
  20499213.432 8  20499213.57446  20499215.63046 107724083.079    83940842.4604 
      1711.032        1333.293  
  24437928.801 6  24437928.77743  24437930.48143 128422182.948   100069231.3294 
      4138.502        3224.827  
  21228093.014 8  21228092.88045  21228096.53445 111554369.353    86925482.4494 
      2570.243        2002.780  
  19759758.413 8  19759758.65346  19759761.48146 103838232.191    80912911.2914 
      1109.474         864.514  
  21831839.859 7  21831839.86445  21831842.73645 114727088.959    89397733.1154 
       419.937         327.233  
 08  5 22  1 27 30.0000000  0  8G 2G 8G10G15G21G24G26G29            
  22528756.047 7  22528755.90145  22528757.81245 118389400.932    92251477.8104 
     -1917.812       -1494.394  
  24397751.561 6  24397751.22942  24397755.85742 128211057.883    99904726.8364 
       301.412         234.876  
  21915644.081 7  21915643.38845  21915647.25845 115167480.862    89740892.7334 
      -851.268        -663.312  
  20495962.116 8  20495962.33546  20495964.53346 107706997.935    83927529.3644 
      1705.725        1329.152  
  24430053.807 6  24430053.32843  24430055.22543 128380796.611   100036982.2354 
      4138.732        3224.964  
  21223204.105 8  21223203.94745  21223207.80245 111528678.558    86905463.6544 
      2567.846        2000.922  
  19757653.620 8  19757653.53346  19757656.49246 103827170.397    80904291.7114 
      1102.677         859.240  
  21831046.555 7  21831046.36345  21831049.29645 114722918.681    89394483.5414 
       413.948         322.574  
 08  5 22  1 27 40.0000000  0  8G 2G 8G10G15G21G24G26G29            
  22532408.115 7  22532407.80545  22532409.96545 118408592.104    92266431.9614 
     -1920.957       -1496.868  
  24397183.865 6  24397183.25443  24397186.92543 128208069.913    99902398.5634 
       295.549         230.324  
  21917264.816 7  21917263.84645  21917267.83845 115175996.976    89747528.6684 
      -852.345        -664.195  
  20492721.154 8  20492721.47046  20492723.81246 107689967.482    83914258.8774 
      1700.181        1324.809  
  24422177.095 6  24422176.49743  24422177.79843 128339404.763   100004728.8544 
      4139.258        3225.390  
  21218320.649 8  21218319.96045  21218323.73845 111503014.023    86885465.3104 
      2564.967        1998.646  
  19755561.748 8  19755562.13046  19755564.93446 103816179.079    80895727.0484 
      1095.534         853.658  
  21830263.948 7  21830263.84145  21830266.86746 114718806.789    89391279.4664 
       408.271         318.156  
 08  5 22  1 27 50.0000000  0  8G 2G 8G10G15G21G24G26G29            
  22536066.136 7  22536066.07045  22536068.29645 118427815.794    92281411.4414 
     -1924.281       -1499.439  
  24396626.009 6  24396625.63043  24396629.18943 128205136.775    99900113.0074 
       290.533         226.446  
  21918886.776 8  21918885.73045  21918889.65345 115184519.666    89754169.7054 
      -852.492        -664.289  
  20489490.902 8  20489491.20346  20489493.41946 107672991.815    83901031.0914 
      1694.860        1320.666  
  24414299.184 6  24414298.67943  24414300.36243 128298007.836    99972471.5004 
      4140.106        3226.079  
  21213441.736 7  21213441.19645  21213445.27845 111477375.961    86865487.6034 
      2562.636        1996.845  
  19753483.894 8  19753484.03346  19753486.77346 103805258.252    80887217.3104 
      1088.572         848.245  
  21829492.658 7  21829492.55745  21829495.49245 114714753.539    89388121.0894 
       402.438         313.573  
 08  5 22  1 28  0.0000000  0  8G 2G 8G10G15G21G24G26G29            
  22539730.738 7  22539730.08945  22539732.45845 118447071.538    92296415.8924 
     -1927.479       -1501.937  
  24396077.973 6  24396078.02543  24396081.50543 128202258.119    99897869.8874 
       285.205         222.247  
  21920509.994 7  21920508.98145  21920512.89345 115193048.560    89760815.5914 
      -852.968        -664.638  
  20486270.777 8  20486271.16046  20486273.41546 107656070.504    83887845.6564 
      1689.352        1316.371  
  24406421.115 6  24406419.89543  24406421.99743 128256605.319    99940209.8194 
      4140.418        3226.233  
  21208567.692 8  21208567.64745  21208571.45445 111451764.062    86845530.2764 
      2560.177        1994.918  
  19751418.872 8  19751419.14846  19751422.03746 103794407.534    80878762.2064 
      1081.689         842.867  
  21828732.518 8  21828732.34545  21828735.21445 114710758.457    89385008.0384 
       396.476         308.951  
 08  5 22  1 28 10.0000000  0  8G 2G 8G10G15G21G24G26G29            
  22543400.805 7  22543400.17045  22543402.62045 118466359.189    92311445.2324 
     -1930.325       -1504.155  
  24395540.592 6  24395540.03443  24395544.22543 128199433.752    99895669.0614 
       279.625         217.923  
  21922133.882 7  21922133.24145  21922137.15345 115201583.655    89767466.3064 
      -853.767        -665.272  
  20483061.407 8  20483061.36946  20483063.81546 107639203.484    83874702.5234 
      1684.084        1312.261  
  24398540.990 6  24398539.79643  24398542.34643 128215197.194    99907943.7614 
      4141.128        3226.888  
  21203698.781 7  21203698.91145  21203702.40345 111426178.266    86825593.2954 
      2557.358        1992.765  
  19749367.696 8  19749367.68546  19749370.71846 103783626.845    80870361.6674 
      1074.655         837.392  
  21827983.520 8  21827983.42345  21827986.03845 114706821.370    89381940.1714 
       390.990         304.664  
 08  5 22  1 28 20.0000000  0  8G 2G 8G10G15G21G24G26G29            
  22547077.565 7  22547076.66545  22547078.96145 118485678.488    92326499.2134 
     -1933.268       -1506.457  
  24395012.937 6  24395012.81043  24395016.08843 128196663.394    99893510.3434 
       274.269         213.687  
  21923759.310 7  21923758.75345  21923762.63045 115210124.650    89774121.6134 
      -854.330        -665.720  
  20479861.751 8  20479862.02246  20479864.29846 107622390.337    83861601.3694 
      1678.780        1308.136  
  24390660.155 6  24390659.38043  24390661.57943 128173783.260    99875673.1684 
      4141.456        3227.066  
  21198835.246 8  21198834.86045  21198838.69845 111400618.362    86805676.4864 
      2554.769        1990.724  
  19747329.344 8  19747329.46846  19747332.26746 103772915.843    80862015.4344 
      1067.785         832.032  
  21827244.691 8  21827245.09945  21827247.69045 114702941.961    89378917.2524 
       385.082         300.057  
 08  5 22  1 28 30.0000000  0  8G 2G 8G10G15G21G24G26G29            
  22550759.689 7  22550759.07345  22550761.06145 118505028.711    92341577.2974 
     -1936.560       -1509.054  
  24394496.230 6  24394495.38442  24394499.07243 128193946.474    99891393.2834 
       269.148         209.792  
  21925385.579 8  21925385.11645  21925389.05945 115218670.937    89780781.0514 
      -854.792        -666.076  
  20476672.360 8  20476672.87246  20476675.02746 107605630.638    83848541.8684 
      1673.236        1303.810  
  24382777.363 6  24382777.14543  24382779.99943 128132362.992    99843397.6384 
      4142.224        3227.698  
  21193976.287 8  21193975.76345  21193979.72745 111375083.885    86785779.4864 
      2552.228        1988.769  
  19745304.289 8  19745304.27846  19745307.15846 103762273.939    80853723.0404 
      1060.655         826.491  
  21826517.572 7  21826517.29145  21826520.13845 114699119.648    89375938.8194 
       379.147         295.456  
 08  5 22  1 28 40.0000000  0  8G 2G 8G10G15G21G24G26G29            
  22554447.238 7  22554447.45645  22554449.25545 118524410.192    92356679.7294 
     -1939.744       -1511.499  
  24393989.665 6  24393988.73642  24393992.47342 128191283.298    99889318.0744 
       263.595         205.477  
  21927013.292 7  21927012.33145  21927016.49845 115227222.612    89787444.6884 
      -855.309        -666.479  
  20473493.716 8  20473493.78546  20473495.88346 107588924.591    83835524.1724 
      1667.906        1299.656  
  24374894.524 6  24374893.89243  24374896.91143 128090936.750    99811117.4594 
      4142.863        3228.205  
  21189121.630 7  21189121.64345  21189125.59945 111349575.145    86765902.5454 
      2549.715        1986.773  
  19743292.335 8  19743292.39046  19743295.29146 103751701.340    80845484.6524 
      1053.834         821.173  
  21825801.041 8  21825800.81345  21825803.52845 114695354.742    89373005.1234 
       373.487         291.038  
 08  5 22  1 28 50.0000000  0  8G 2G 8G10G15G21G24G26G29            
  22558141.574 7  22558141.18345  22558143.27645 118543821.993    92371805.8014 
     -1942.659       -1513.748  
  24393492.877 6  24393492.61043  24393496.42243 128188673.081    99887284.1314 
       258.703         201.614  
  21928641.088 7  21928640.31845  21928644.66845 115235779.062    89794112.0374 
      -855.675        -666.775  
  20470324.589 8  20470324.80146  20470326.82846 107572271.413    83822547.6694 
      1662.627        1295.549  
  24367010.882 6  24367009.52943  24367011.89243 128049503.858    99778832.0864 
      4143.560        3228.802  
  21184272.377 8  21184272.34945  21184275.90445 111324091.528    86746045.1814 
      2547.155        1984.799  
  19741293.380 8  19741293.65046  19741296.48846 103741197.347    80837299.7234 
      1046.968         815.812  
  21825095.508 8  21825095.74145  21825098.03445 114691646.352    89370115.4674 
       367.927         286.688  
 08  5 22  1 29  0.0000000  0  8G 2G 8G10G15G21G24G26G29            
  22561841.415 7  22561841.30545  22561843.22645 118563264.857    92386956.0774 
     -1945.932       -1516.318  
  24393005.612 6  24393005.39443  24393010.69343 128186116.540    99885292.0144 
       252.900         197.030  
  21930270.514 7  21930269.59245  21930273.90045 115244340.906    89800783.5914 
      -856.630        -667.489  
  20467165.555 8  20467166.04546  20467168.02946 107555671.857    83809612.9544 
      1657.063        1291.224  
  24359126.111 6  24359123.92942  24359126.80142 128008064.968    99746542.0754 
      4144.022        3229.100  
  21179428.065 7  21179428.10745  21179431.58345 111298633.745    86726207.9484 
      2544.279        1982.522  
  19739307.820 8  19739307.99346  19739310.65046 103730762.530    80829168.6974 
      1039.809         810.230  
  21824400.815 8  21824401.46345  21824403.32945 114687995.178    89367270.3874 
       362.098         282.156  
 08  5 22  1 29 10.0000000  0  8G 2G 8G10G15G21G24G26G29            
  22565546.395 6  22565546.71845  22565548.96045 118582738.390    92402130.2364 
     -1949.151       -1518.800  
  24392529.207 5  24392529.25042  24392533.58442 128183613.307    99883341.4494 
       247.488         192.869  
  21931900.540 7  21931899.81845  21931903.91745 115252907.756    89807459.0554 
      -856.891        -667.705  
  20464017.081 8  20464017.35446  20464019.48546 107539125.595    83796719.7684 
      1651.860        1287.175  
  24351237.277 5  24351236.68942  24351240.24642 127966619.808    99714247.1644 
      4144.931        3229.801  
  21174588.965 7  21174588.26045  21174592.02745 111273201.490    86706390.6104 
      2541.929        1980.750  
  19737335.273 8  19737335.44446  19737338.16946 103720396.541    80821091.3024 
      1033.190         805.069  
  21823716.689 8  21823717.37445  21823719.60745 114684400.796    89364469.5764 
       356.507         277.818  
 08  5 22  1 29 20.0000000  0  8G 2G 8G10G15G21G24G26G29            
  22569258.058 7  22569258.28545  22569260.67145 118602242.559    92417328.2794 
     -1951.872       -1520.951  
  24392063.283 6  24392063.33242  24392067.65842 128181163.424    99881432.4424 
       242.205         188.705  
  21933531.504 7  21933530.58045  21933535.04945 115261479.595    89814138.4024 
      -857.664        -668.331  
  20460878.612 8  20460878.89146  20460880.92146 107522632.643    83783868.1224 
      1646.561        1283.038  
  24343348.775 6  24343349.43042  24343352.16242 127925168.528    99681947.4994 
      4145.325        3230.105  
  21169754.165 8  21169753.59945  21169757.48145 111247794.921    86686593.2884 
      2539.179        1978.573  
  19735375.864 8  19735375.95946  19735378.71646 103710099.425    80813067.5774 
      1026.114         799.566  
  21823043.641 7  21823043.63945  21823046.45345 114680863.232    89361713.0224 
       350.846         273.379  
 08  5 22  1 29 30.0000000  0  8G 2G 8G10G15G21G24G26G29            
  22572976.185 7  22572975.34444  22572977.50444 118621777.595    92432550.3604 
     -1954.389       -1522.861  
  24391607.828 6  24391607.55042  24391610.99042 128178767.082    99879565.1554 
       237.223         184.838  
  21935164.115 7  21935162.92845  21935167.00545 115270056.661    89820821.8314 
      -857.818        -668.428  
  20457750.278 8  20457750.58646  20457752.52446 107506193.101    83771058.0904 
      1641.407        1279.034  
  24335459.555 6  24335460.32042  24335463.25742 127883711.414    99649643.2724 
      4145.847        3230.534  
  21164924.106 8  21164923.60745  21164927.57645 111222414.245    86666816.1384 
      2536.661        1976.623  
  19733429.275 8  19733429.55246  19733432.42346 103699871.363    80805097.6624 
      1019.537         794.442  
  21822381.452 7  21822380.91745  21822384.11145 114677382.586    89359000.8274 
       345.221         269.010  
 08  5 22  1 29 40.0000000  0  8G 2G 8G10G15G21G24G26G29            
  22576698.771 7  22576698.98045  22576700.88845 118641342.260    92447795.5504 
     -1957.914       -1525.644  
  24391162.118 6  24391160.94442  24391164.75142 128176423.202    99877738.7584 
       231.809         180.570  
  21936796.961 7  21936796.03845  21936800.00245 115278637.876    89827508.4834 
      -858.268        -668.807  
  20454631.667 8  20454632.21846  20454634.11146 107489805.931    83758288.8694 
      1636.282        1275.018  
  24327569.908 6  24327570.13542  24327572.26242 127842247.343    99617333.6224 
      4147.158        3231.535  
  21160099.263 8  21160098.63645  21160102.24745 111197058.385    86647058.3214 
      2534.627        1975.026  
  19731495.894 8  19731496.03246  19731499.03546 103689711.221    80797180.6724 
      1012.784         789.170  
  21821729.600 7  21821729.35845  21821732.30545 114673957.707    89356332.0864 
       340.079         265.013  
 08  5 22  1 29 50.0000000  0  8G 2G 8G10G15G21G24G26G29            
  22580427.959 7  22580427.06644  22580429.46144 118660936.773    92463063.9804 
     -1961.134       -1528.139  
  24390726.011 6  24390725.88143  24390729.04443 128174132.022    99875953.4174 
       226.568         176.592  
  21938430.866 7  21938430.03245  21938433.76245 115287223.471    89834198.5494 
      -858.756        -669.141  
  20451523.501 8  20451524.01246  20451525.76446 107473471.380    83745560.6534 
      1630.673        1270.652  
  24319679.055 6  24319678.44242  24319681.04742 127800776.680    99585018.8184 
      4147.331        3231.701  
  21155278.971 8  21155278.44145  21155282.01145 111171727.766    86627320.1764 
      2531.795        1972.839  
  19729575.611 8  19729575.62546  19729578.64446 103679619.237    80789316.7874 
      1005.665         783.662  
  21821088.495 7  21821088.58245  21821091.24645 114670588.882    89353707.0214 
       333.909         260.205  
 08  5 22  1 30  0.0000000  0  8G 2G 8G10G15G21G24G26G29            
  22584161.981 7  22584162.02244  22584163.94545 118680560.733    92478355.3664 
     -1964.189       -1530.546  
  24390299.056 6  24390299.57543  24390303.56343 128171893.218    99874208.8804 
       220.995         172.256  
  21940064.802 7  21940064.67145  21940068.54745 115295812.896    89840891.6114 
      -859.253        -669.562  
  20448424.854 8  20448425.53746  20448427.41246 107457189.095    83732873.1604 
      1625.595        1266.678  
  24311785.536 5  24311785.16142  24311788.53142 127759299.099    99552698.6384 
      4148.309        3232.404  
  21150462.988 8  21150462.87845  21150466.61345 111146422.065    86607601.4464 
      2529.476        1971.014  
  19727668.028 8  19727668.09446  19727671.11746 103669594.999    80781505.6914 
       999.011         778.450  
  21820458.171 8  21820458.02845  21820460.68945 114667275.710    89351125.3214 
       328.612         256.064  
 08  5 22  1 30 10.0000000  0  8G 2G 8G10G15G21G24G26G29            
  22587901.357 7  22587901.55244  22587903.67844 118700213.977    92493669.5634 
     -1966.541       -1532.380  
  24389883.810 7  24389882.25643  24389887.89543 128169706.571    99872504.9964 
       215.942         168.327  
  21941699.980 7  21941699.93945  21941703.60345 115304406.055    89847587.5744 
      -859.631        -669.848  
  20445336.726 8  20445336.90246  20445338.90346 107440958.928    83720226.2804 
      1620.429        1262.644  
  24303891.103 6  24303890.76642  24303894.13142 127717814.541    99520373.0254 
      4148.802        3232.843  
  21145652.224 8  21145652.56545  21145656.06245 111121141.235    86587902.1054 
      2526.718        1968.893  
  19725773.271 8  19725773.42046  19725776.33046 103659638.405    80773747.3094 
       992.208         773.153  
  21819837.714 7  21819838.16145  21819840.67645 114664017.962    89348586.8234 
       323.110         251.752  
 08  5 22  1 30 20.0000000  0  8G 2G 8G10G15G21G24G26G29            
  22591646.822 7  22591646.78044  22591649.17044 118719896.078    92509006.2454 
     -1969.333       -1534.557  
  24389477.225 6  24389475.90943  24389481.56843 128167571.691    99870841.4494 
       211.087         164.471  
  21943336.256 7  21943335.59945  21943339.52145 115313002.443    89854286.0564 
      -859.753        -669.942  
  20442257.986 8  20442258.23946  20442260.08246 107424780.371    83707619.6124 
      1615.241        1258.593  
  24295995.002 6  24295995.14542  24295999.03642 127676322.576    99488041.6544 
      4149.488        3233.284  
  21140846.280 8  21140846.54845  21140849.84845 111095884.887    86568221.8244 
      2524.296        1966.973  
  19723891.344 8  19723891.55446  19723894.34646 103649748.863    80766041.1764 
       985.597         768.009  
  21819228.751 8  21819229.02945  21819231.24345 114660815.105    89346091.0814 
       317.486         247.372  
 08  5 22  1 30 30.0000000  0  8G 2G 8G10G15G21G24G26G29            
  22595397.631 7  22595397.76944  22595400.01644 118739606.205    92524364.7684 
     -1972.217       -1536.778  
  24389080.796 7  24389080.12643  24389083.79143 128165487.887    99869217.7054 
       205.891         160.439  
  21944972.633 7  21944972.13645  21944975.92445 115321601.524    89860986.6284 
      -860.255        -670.326  
  20439188.921 8  20439189.34346  20439191.06946 107408652.767    83695052.6484 
      1610.089        1254.610  
  24288098.537 6  24288098.06943  24288101.14143 127634822.660    99455704.0634 
      4150.649        3234.309  
  21136045.214 7  21136044.42545  21136048.39045 111070652.405    86548560.1564 
      2521.849        1965.059  
  19722022.191 8  19722022.28346  19722025.08546 103639925.696    80758386.7634 
       978.750         762.661  
  21818629.495 8  21818629.92545  21818632.19245 114657666.419    89343637.5594 
       312.277         243.323  
 08  5 22  1 30 40.0000000  0  8G 2G 8G10G15G21G24G26G29            
  22599154.645 7  22599154.24744  22599156.09944 118759345.641    92539746.1294 
     -1975.487       -1539.350  
  24388694.222 6  24388694.38243  24388696.41943 128163456.381    99867634.7194 
       200.592         156.279  
  21946609.611 7  21946609.10245  21946613.19345 115330204.516    89867690.2544 
      -860.423        -670.462  
  20436129.992 8  20436130.24246  20436132.00246 107392577.366    83682526.3674 
      1604.843        1250.512  
  24280200.027 5  24280199.35342  24280203.43942 127593316.115    99423361.3424 
      4150.722        3234.300  
  21131248.074 7  21131247.50945  21131251.59745 111045445.157    86528918.1424 
      2519.495        1963.222  
  19720165.612 8  19720165.93546  19720168.75246 103630170.200    80750785.0804 
       972.159         757.518  
  21818040.868 8  21818041.00645  21818043.47445 114654573.255    89341227.2984 
       306.267         238.624  
 08  5 22  1 30 50.0000000  0  8G 2G 8G10G15G21G24G26G29            
  22602915.677 7  22602915.77244  22602917.96144 118779113.007    92555149.2584 
     -1978.128       -1541.356  
  24388318.100 6  24388317.25643  24388319.58843 128161476.017    99866091.5834 
       195.468         152.309  
  21948246.769 7  21948246.37945  21948250.74445 115338810.186    89874395.9784 
      -860.755        -670.727  
  20433080.836 8  20433080.90646  20433082.73846 107376553.003    83670039.8474 
      1599.843        1246.671  
  24272300.421 5  24272299.21842  24272303.28842 127551801.803    99391012.5374 
      4152.004        3235.354  
  21126455.506 8  21126455.83045  21126459.32645 111020261.953    86509294.8714 
      2517.046        1961.357  
  19718321.623 7  19718322.06446  19718325.01546 103620481.077    80743235.1184 
       965.429         752.338  
  21817462.641 7  21817462.76845  21817464.89245 114651534.341    89338859.3064 
       301.219         234.753  
 08  5 22  1 31  0.0000000  0  8G 2G 8G10G15G21G24G26G29            
  22606682.521 6  22606682.67444  22606684.94544 118798908.720    92570574.4734 
     -1981.267       -1543.836  
  24387950.341 6  24387950.25043  24387954.28043 128159547.001    99864588.4514 
       190.058         148.070  
  21949885.241 8  21949884.61045  21949888.86345 115347418.809    89881103.9834 
      -861.195        -671.077  
  20430041.021 8  20430041.34946  20430043.09946 107360579.888    83657593.2684 
      1594.759        1242.651  
  24264399.009 5  24264397.75143  24264401.23342 127510280.074    99358657.9624 
      4152.168        3235.429  
  21121668.098 8  21121668.16945  21121671.73245 110995103.186    86489690.6384 
      2514.615        1959.408  
  19716490.941 8  19716490.89346  19716493.90546 103610858.664    80735737.1374 
       958.906         747.183  
  21816894.666 8  21816894.98945  21816896.84145 114648549.873    89336533.7454 
       295.673         230.385  
 08  5 22  1 31 10.0000000  0  8G 2G 8G10G15G21G24G26G29            
  22610455.380 7  22610455.30144  22610457.04544 118818732.267    92586021.3794 
     -1983.734       -1545.729  
  24387592.742 7  24387592.01843  24387597.61343 128157669.027    99863125.0924 
       185.290         144.434  
  21951523.892 7  21951523.45945  21951527.46245 115356029.981    89887813.9854 
      -861.206        -671.028  
  20427011.076 8  20427011.44246  20427013.23446 107344657.671    83645186.3464 
      1589.698        1238.745  
  24256496.017 6  24256494.91243  24256498.52743 127468750.596    99326297.3644 
      4153.326        3236.396  
  21116885.367 8  21116884.95745  21116888.78545 110969968.596    86470105.2464 
      2512.225        1957.593  
  19714672.456 8  19714672.48746  19714675.34446 103601302.483    80728290.7664 
       952.311         742.086  
  21816336.863 8  21816336.96445  21816339.16945 114645619.434    89334250.2774 
       290.338         226.267  
 08  5 22  1 31 20.0000000  0  8G 2G 8G10G15G21G24G26G29            
  22614232.503 7  22614232.33944  22614234.72044 118838583.227    92601489.6534 
     -1986.309       -1547.793  
  24387244.694 6  24387244.05743  24387249.95443 128155841.749    99861701.2234 
       180.222         140.487  
  21953162.993 7  21953162.50745  21953166.39345 115364643.243    89894525.6034 
      -861.401        -671.234  
  20423990.924 8  20423990.98146  20423993.01146 107328785.991    83632818.8044 
      1584.684        1234.818  
  24248592.442 6  24248591.39543  24248594.18343 127427213.123    99293930.5284 
      4153.874        3236.792  
  21112106.480 8  21112107.02845  21112110.13645 110944857.847    86450538.4254 
      2509.859        1955.720  
  19712866.360 8  19712866.56046  19712869.41246 103591812.148    80720895.7024 
       945.756         736.963  
  21815789.307 8  21815789.37845  21815791.93245 114642742.655    89332008.6224 
       284.940         222.035  
 08  5 22  1 31 30.0000000  0  8G 2G 8G10G15G21G24G26G29            
  22618015.010 7  22618015.27844  22618017.36544 118858461.454    92616979.1554 
     -1988.829       -1549.739  
  24386906.982 6  24386906.00343  24386911.56043 128154064.914    99860316.6744 
       175.408         136.629  
  21954802.445 7  21954801.76545  21954805.93745 115373258.560    89901238.8334 
      -861.531        -671.340  
  20420980.033 8  20420980.23746  20420982.42746 107312964.583    83620490.4394 
      1579.590        1230.870  
  24240685.432 6  24240686.30543  24240688.28443 127385667.421    99261557.2734 
      4155.157        3237.838  
  21107332.614 8  21107333.05745  21107336.31945 110919770.773    86430990.0504 
      2507.408        1953.870  
  19711072.841 8  19711073.04246  19711075.84746 103582387.503    80713551.8224 
       939.042         731.729  
  21815252.303 8  21815252.53845  21815254.86745 114639919.251    89329808.5644 
       279.749         218.002  
 08  5 22  1 31 40.0000000  0  8G 2G 8G10G15G21G24G26G29            
  22621803.660 7  22621802.61344  22621805.65944 118878367.861    92632490.6314 
     -1991.329       -1551.679  
  24386578.967 6  24386577.69943  24386583.19943 128152339.456    99858972.1714 
       170.144         132.609  
  21956442.581 7  21956442.06345  21956446.12645 115381876.926    89907954.4324 
      -862.051        -671.702  
  20417979.450 8  20417979.36746  20417981.54246 107297194.482    83608202.0504 
      1574.628        1226.988  
  24232778.269 7  24232779.17043  24232781.21643 127344114.633    99229178.4874 
      4155.567        3238.099  
  21102563.687 8  21102563.45145  21102567.06845 110894708.472    86411460.9904 
      2504.888        1951.843  
  19709292.122 8  19709292.23946  19709295.20246 103573029.462    80706259.8494 
       932.628         726.728  
  21814724.988 8  21814725.83745  21814728.06345 114637150.270    89327650.9124 
       274.468         213.896  
 08  5 22  1 31 50.0000000  0  8G 2G 8G10G15G21G24G26G29            
  22625596.811 7  22625596.32144  22625599.16244 118898302.391    92648024.0054 
     -1995.035       -1554.558  
  24386260.093 6  24386259.42743  24386264.13043 128150665.449    99857667.7604 
       164.826         128.461  
  21958082.889 7  21958082.41845  21958086.26445 115390498.174    89914672.2754 
      -862.436        -672.026  
  20414987.941 8  20414988.12946  20414990.35246 107281475.696    83595953.6444 
      1569.243        1222.779  
  24224869.708 6  24224870.61343  24224871.68343 127302554.681    99196794.1124 
      4156.778        3239.032  
  21097799.086 8  21097799.07645  21097802.88045 110869671.031    86391951.3014 
      2502.452        1949.936  
  19707524.199 8  19707524.20846  19707527.10446 103563738.031    80699019.7684 
       925.666         721.295  
  21814208.852 7  21814209.25946  21814211.79945 114634435.561    89325535.5524 
       268.925         209.550  
 08  5 22  1 32  0.0000000  0  8G 2G 8G10G15G21G24G26G29            
  22629395.559 6  22629395.09444  22629397.70944 118918264.896    92663579.1914 
     -1997.826       -1556.748  
  24385951.966 6  24385951.86543  24385955.58043 128149042.783    99856403.3274 
       159.655         124.404  
  21959724.115 7  21959723.75045  21959727.54645 115399122.074    89921392.1974 
      -862.415        -672.007  
  20412006.423 8  20412006.67746  20412008.68746 107265807.994    83583745.0464 
      1564.301        1218.948  
  24216960.247 6  24216960.33943  24216961.79943 127260987.667    99164404.2294 
      4157.012        3239.183  
  21093039.665 8  21093039.56745  21093042.93145 110844658.417    86372460.9494 
      2500.108        1948.160  
  19705768.654 8  19705768.67246  19705771.55946 103554512.995    80691831.4364 
       919.364         716.370  
  21813702.474 8  21813702.54745  21813705.53345 114631775.012    89323462.3924 
       263.384         205.221  
 08  5 22  1 32 10.0000000  0  8G 2G 8G10G15G21G24G26G29            
  22633199.814 6  22633199.21244  22633201.52944 118938255.929    92679156.5964 
     -2000.404       -1558.756  
  24385652.279 6  24385651.83243  24385656.63243 128147472.012    99855179.3564 
       154.456         120.343  
  21961365.647 7  21961365.34345  21961369.36645 115407749.389    89928114.7714 
      -862.951        -672.468  
  20409034.638 8  20409035.16746  20409037.14446 107250192.156    83571576.8694 
      1558.896        1214.698  
  24209049.392 6  24209049.45543  24209050.80343 127219414.334    99132009.4324 
      4157.818        3239.859  
  21088284.967 8  21088284.40745  21088288.16245 110819671.337    86352990.4974 
      2497.402        1946.033  
  19704025.930 8  19704026.03046  19704028.86346 103545355.018    80684695.3534 
       912.262         710.859  
  21813206.595 7  21813206.44245  21813209.56745 114629169.265    89321431.9364 
       257.888         200.953  
 08  5 22  1 32 20.0000000  0  8G 2G 8G10G15G21G24G26G29            
  22637009.955 7  22637009.38744  22637011.67544 118958275.257    92694756.0674 
     -2003.585       -1561.221  
  24385362.807 6  24385361.91643  24385367.68843 128145952.975    99853995.6714 
       149.154         116.251  
  21963008.292 7  21963007.56645  21963011.61645 115416379.920    89934839.8454 
      -863.423        -672.755  
  20406072.710 8  20406073.56346  20406075.29146 107234627.914    83559448.8854 
      1553.730        1210.702  
  24201137.091 6  24201136.72743  24201138.80143 127177834.406    99099609.4544 
      4158.229        3240.154  
  21083534.258 8  21083534.20145  21083538.05545 110794709.585    86333539.7814 
      2494.836        1944.025  
  19702295.851 8  19702295.86046  19702298.88846 103536263.843    80677611.3204 
       905.679         705.712  
  21812721.156 7  21812720.94945  21812723.94945 114626617.952    89319443.8894 
       252.342         196.623  
 08  5 22  1 32 30.0000000  0  8G 2G 8G10G15G21G24G26G29            
  22640824.656 7  22640824.32844  22640826.82644 118978323.934    92710378.3974 
     -2006.161       -1563.230  
  24385083.372 6  24385083.17343  24385088.87443 128144486.812    99852853.2034 
       143.954         112.197  
  21964651.014 7  21964650.90645  21964654.69645 115425014.733    89941568.2654 
      -863.667        -673.012  
  20403121.228 8  20403121.76846  20403123.46947 107219116.412    83547362.0064 
      1548.557        1206.665  
  24193224.315 6  24193222.48043  24193225.45143 127136249.030    99067205.2904 
      4158.673        3240.497  
  21078789.609 8  21078789.34945  21078792.90545 110769774.457    86314109.8154 
      2492.189        1941.940  
  19700578.790 8  19700578.80046  19700581.82446 103527240.602    80670580.2284 
       898.998         700.493  
  21812245.909 7  21812246.31345  21812248.75345 114624122.174    89317499.1244 
       246.809         192.325  
 08  5 22  1 32 40.0000000  0  8G 2G 8G10G15G21G24G26G29            
  22644645.331 7  22644645.02444  22644647.09044 118998401.997    92726023.6324 
     -2009.363       -1565.729  
  24384815.841 6  24384815.30743  24384819.44143 128143073.512    99851751.9174 
       138.832         108.168  
  21966294.982 7  21966294.92345  21966298.56345 115433653.906    89948300.0784 
      -863.935        -673.205  
  20400179.366 8  20400179.98446  20400181.77646 107203657.635    83535316.2104 
      1543.256        1202.558  
  24185309.701 6  24185307.67443  24185311.42543 127094658.342    99034796.9944 
      4159.352        3240.957  
  21074049.510 8  21074049.48745  21074052.89845 110744866.067    86294700.6784 
      2489.655        1939.980  
  19698874.830 8  19698874.76146  19698877.56246 103518285.262    80663602.0424 
       892.182         695.222  
  21811781.913 8  21811782.34445  21811784.56345 114621681.960    89315597.6534 
       241.215         187.957  
 08  5 22  1 32 50.0000000  0  8G 2G 8G10G15G21G24G26G29            
  22648471.800 7  22648471.48944  22648473.75944 119018510.015    92741692.2074 
     -2012.583       -1568.234  
  24384556.544 6  24384556.15043  24384560.22943 128141713.677    99850692.3004 
       133.372         103.990  
  21967940.628 7  21967939.92045  21967943.40645 115442297.959    89955035.7004 
      -864.735        -673.815  
  20397248.166 8  20397248.40446  20397250.32346 107188252.168    83523311.9494 
      1537.803        1198.290  
  24177394.214 6  24177391.75643  24177396.00943 127053063.048    99002385.0944 
      4159.995        3241.549  
  21069314.832 8  21069315.04145  21069318.35245 110719985.077    86275312.8894 
      2486.778        1937.755  
  19697183.674 8  19697183.54746  19697186.57846 103509398.361    80656677.1874 
       885.170         689.736  
  21811328.148 8  21811328.77245  21811330.82645 114619297.872    89313739.9194 
       235.681         183.627  
 08  5 22  1 33  0.0000000  0  8G 2G 8G10G15G21G24G26G29            
  22652303.459 7  22652303.35944  22652305.33344 119038647.152    92757383.4784 
     -2014.772       -1569.956  
  24384307.771 6  24384307.29943  24384312.36043 128140406.556    99849673.7584 
       128.164          99.845  
  21969585.982 6  21969585.52644  21969589.21344 115450946.225    89961774.6074 
      -865.092        -674.080  
  20394326.492 8  20394326.81946  20394328.92146 107172899.313    83511348.6974 
      1532.722        1194.333  
  24169478.133 6  24169475.99043  24169479.77543 127011462.547    98969969.1594 
      4160.233        3241.753  
  21064585.665 8  21064585.38945  21064589.07045 110695130.833    86255945.9424 
      2483.934        1935.508  
  19695505.248 8  19695505.25146  19695508.28646 103500579.197    80649805.1184 
       878.568         684.595  
  21810885.039 7  21810885.45745  21810887.62345 114616969.113    89311925.2954 
       230.186         179.380  
 08  5 22  1 33 10.0000000  0  8G 2G 8G10G15G21G24G26G29            
  22656141.129 6  22656140.89544  22656143.18444 119058813.782    92773097.7054 
     -2018.394       -1572.724  
  24384069.445 7  24384069.50042  24384073.15643 128139152.681    99848696.6754 
       122.620          95.588  
  21971232.794 7  21971232.21444  21971235.76244 115459599.093    89968517.0814 
      -865.633        -674.524  
  20391414.880 8  20391415.34246  20391417.48946 107157599.431    83499426.7034 
      1527.090        1189.957  
  24161559.764 5  24161558.69643  24161562.55143 126969857.239    98937549.4524 
      4160.862        3242.188  
  21059861.299 7  21059860.93845  21059864.63146 110670303.745    86236600.1534 
      2481.201        1933.405  
  19693840.304 8  19693840.13746  19693843.15846 103491828.079    80642986.0584 
       871.430         679.037  
  21810452.870 7  21810452.65445  21810455.08545 114614696.081    89310154.0984 
       224.358         174.843  
 08  5 22  1 33 20.0000000  0  8G 2G 8G10G15G21G24G26G29            
  22659984.697 7  22659984.14744  22659986.56944 119079010.518    92788835.3934 
     -2020.959       -1574.781  
  24383841.080 6  24383840.80944  24383844.98844 128137952.556    99847761.5034 
       117.349          91.468  
  21972880.277 7  21972879.62545  21972883.44745 115468257.110    89975263.5884 
      -866.104        -674.898  
  20388513.752 8  20388514.22246  20388516.31146 107142353.193    83487546.5244 
      1521.870        1185.863  
  24153640.886 6  24153642.12543  24153644.82543 126928247.963    98905126.6914 
      4160.961        3242.311  
  21055142.204 8  21055141.88745  21055145.40246 110645504.577    86217276.1334 
      2478.366        1931.199  
  19692187.683 8  19692188.17246  19692190.89146 103483145.718    80636220.5854 
       864.821         673.873  
  21810030.657 8  21810030.39245  21810033.19745 114612479.403    89308426.8204 
       218.807         170.486  
 08  5 22  1 33 30.0000000  0  8G 2G 8G10G15G21G24G26G29            
  22663833.772 7  22663833.25244  22663835.06644 119099236.740    92804596.0844 
     -2024.215       -1577.355  
  24383622.736 7  24383622.36644  24383626.91544 128136805.604    99846867.7724 
       112.195          87.380  
  21974528.570 7  21974527.96645  21974531.69545 115476919.731    89982013.6774 
      -866.451        -675.156  
  20385622.503 8  20385623.07746  20385625.04946 107127160.001    83475707.6774 
      1516.529        1181.710  
  24145722.925 6  24145722.75543  24145726.20143 126886634.067    98872700.2814 
      4162.009        3243.047  
  21050427.901 8  21050428.02045  21050431.39745 110620732.773    86197973.4294 
      2475.832        1929.220  
  19690548.807 8  19690548.96546  19690551.55846 103474531.383    80629508.1204 
       857.922         668.508  
  21809619.689 8  21809618.93945  21809622.28345 114610318.397    89306742.9144 
       213.342         166.227  
 08  5 22  1 33 40.0000000  0  8G 2G 8G10G15G21G24G26G29            
  22667688.340 7  22667688.39044  22667690.06244 119119492.261    92820379.5824 
     -2026.996       -1579.483  
  24383414.587 6  24383414.19243  24383419.54143 128135711.597    99846015.3214 
       106.646          83.113  
  21976177.948 7  21976177.13945  21976180.97145 115485586.748    89988767.1914 
      -867.085        -675.665  
  20382741.418 8  20382741.99247  20382743.79846 107112019.588    83463909.9514 
      1511.210        1177.563  
  24137803.370 6  24137803.10643  24137806.41443 126845015.475    98840270.1944 
      4161.965        3243.085  
  21045719.338 8  21045719.02945  21045722.69245 110595988.236    86178691.9794 
      2472.859        1926.883  
  19688922.134 8  19688922.54746  19688925.29046 103465984.993    80622848.5964 
       851.059         663.164  
  21809218.864 8  21809218.46245  21809221.71945 114608212.819    89305102.1944 
       207.616         161.743  
