     2.00           OBSERVATION DATA    G (GPS)             RINEX VERSION / TYPE
teqc  1999Jul19     autorun             20080926 04:10:40UTCPGM / RUN BY / DATE
MSWinNT 4.0|PentPro|wcl386 10.6|MSWin95/98/NT|486/DX+       COMMENT
BIT 2 OF LLI FLAGS DATA COLLECTED UNDER A/S CONDITION       COMMENT
BJFS                                                        MARKER NAME
21601M001                                                   MARKER NUMBER
QUFENG              CASM                                    OBSERVER / AGENCY
3332                ASHTECH Z-XII3      CD00-1D02           REC # / TYPE / VERS
1126                ASH700936B_M    SNOW                    ANT # / TYPE
        0.0000        0.0000        0.0000                  APPROX POSITION XYZ
        0.0460        0.0000        0.0000                  ANTENNA: DELTA H/E/N
     1     1                                                WAVELENGTH FACT L1/2
     5    L1    L2    C1    P1    P2                        # / TYPES OF OBSERV
    30.0000                                                 INTERVAL
 SNR is mapped to RINEX snr flag value [1-9]                COMMENT
  L1: 1 -> 1;  90 -> 5; 210 -> 9                            COMMENT
  L2: 1 -> 1; 150 -> 5; 250 -> 9                            COMMENT
  2008     9    25     0     0   30.0000000     GPS         TIME OF FIRST OBS
                                                            END OF HEADER
 08  9 25  0  0 30.0000000  0  8G14G12G22G31G30G16G32G29
 -21009913.42949 -15911536.79647  20608174.910    20608174.678    20608176.662
  -7015139.24649  -5440334.02545  24737504.001    24737503.493    24737506.400
  -8340978.44549  -6475913.74745  23161214.536    23161214.805    23161215.478
 -25394918.59549 -19757915.29647  20988669.925    20988670.186    20988671.555
 -26270020.17549 -20442316.68047  20929497.958    20929498.170    20929500.859
  -3249420.14849  -2477891.82045  23816310.826    23816309.742    23816312.811
 -10055845.55649  -7805160.51746  22760031.388    22760031.188    22760034.449
  -2791038.78149  -2155474.58245  23867139.862    23867140.542    23867143.089
 08  9 25  0  1  0.0000000  0  9G14G12G22G31G30G16G32G29G20
 -20988053.87249 -15894503.38647  20612334.663    20612334.448    20612336.555
  -6912413.75349  -5360288.17345  24757052.046    24757052.809    24757055.237
  -8236255.59149  -6394311.56245  23181142.687    23181143.059    23181143.905
 -25422743.23849 -19779596.83147  20983375.077    20983375.431    20983376.775
 -26219114.19249 -20402649.68947  20939184.994    20939185.573    20939187.666
  -3361994.86249  -2565612.36345  23794888.514    23794888.222    23794891.095
 -10111652.00149  -7848646.06646  22749411.757    22749411.340    22749414.703
  -2854737.44849  -2205109.91745  23855018.439    23855018.884    23855021.605
  -1071839.06149   -805399.55644                                  24143978.610
 08  9 25  0  1 30.0000000  0  9G14G12G22G31G30G16G32G29G20
 -20965798.14249 -15877161.27047  20616569.741    20616569.376    20616571.728
  -6809539.84749  -5280126.77945  24776628.057    24776629.466    24776631.394
  -8131378.03449  -6312588.82645  23201100.300    23201100.752    23201101.626
 -25450307.52449 -19801075.48947  20978129.716    20978130.053    20978131.229
 -26167674.67749 -20362566.96147  20948973.642    20948974.157    20948976.530
  -3474424.74449  -2653220.04945  23773493.864    23773494.762    23773496.159
 -10167021.16449  -7891790.86846  22738875.338    22738874.984    22738879.100
  -2918141.57049  -2254515.69945  23842952.982    23842952.897    23842955.546
  -1151860.84449   -867754.18045  24128749.900    24128747.716    24128752.003
 08  9 25  0  2  0.0000000  0  9G14G12G22G31G30G16G32G29G20
 -20943146.16049 -15859510.38547  20620880.278    20620879.972    20620882.226
  -6706519.92349  -5199851.53845  24796231.853    24796232.565    24796236.914
  -8026348.95849  -6230748.03145  23221086.826    23221086.776    23221087.526
 -25477612.02749 -19822351.71447  20972933.777    20972934.020    20972935.566
 -26115703.94449 -20322070.29447  20958863.404    20958864.250    20958865.844
  -3586707.62449  -2740713.16645  23752127.181    23752127.804    23752128.893
 -10221951.50749  -7934593.74946  22728422.446    22728421.012    22728425.800
  -2981248.79749  -2303690.14945  23830943.946    23830944.051    23830946.984
  -1231501.89049   -929812.14745  24113595.039    24113593.836    24113596.409
 08  9 25  0  2 30.0000000  0  9G14G12G22G31G30G16G32G29G20
 -20920097.88949 -15841550.69847  20625266.257    20625265.965    20625268.094
  -6603357.29749  -5119465.12545  24815862.822    24815863.305    24815865.569
  -7921171.29649  -6148791.44545  23241101.482    23241101.790    23241101.485
 -25504657.95749 -19843426.45347  20967787.039    20967787.513    20967788.766
 -26063204.52349 -20281161.65647  20968853.779    20968854.174    20968856.313
  -3698841.67149  -2828090.34145  23730788.791    23730788.127    23730791.191
 -10276441.70649  -7977053.65046  22718053.269    22718053.709    22718055.912
  -3044056.72549  -2352631.38945  23818992.163    23818992.405    23818994.210
  -1310760.41749   -991572.03445  24098512.256    24098511.668    24098514.772
 08  9 25  0  3  0.0000000  0  9G14G12G22G31G30G16G32G29G20
 -20896651.07249 -15823280.45947  20629728.049    20629727.927    20629729.750
  -6500052.71649  -5038968.10845  24835520.772    24835521.476    24835524.093
  -7815846.35049  -6066720.10845  23261144.257    23261144.265    23261144.339
 -25531443.89049 -19864298.60347  20962689.856    20962690.112    20962691.526
 -26010176.96849 -20239841.48947  20978944.571    20978945.158    20978947.200
  -3810822.74249  -2915348.28545  23709479.362    23709478.939    23709481.751
 -10330488.25349  -8019167.83846  22707768.637    22707767.650    22707771.356
  -3106560.82549  -2401335.87445  23807098.127    23807098.049    23807101.319
  -1389631.97649  -1053030.38345  24083503.401    24083501.689    24083506.850
 08  9 25  0  3 30.0000000  0  9G14G12G22G31G30G16G32G29G20
 -20872805.18349 -15804699.26147  20634265.774    20634265.675    20634267.635
  -6396608.93849  -4958362.63545  24855205.439    24855205.429    24855209.611
  -7710377.06749  -5984536.28845  23281214.538    23281214.591    23281214.443
 -25557970.50949 -19884968.68947  20957641.969    20957642.296    20957643.782
 -25956623.79249 -20198111.74747  20989135.381    20989135.494    20989137.646
  -3922648.74949  -3002485.41245  23688199.514    23688198.981    23688202.706
 -10384089.59449  -8060935.12446  22697568.416    22697568.021    22697570.959
  -3168758.36149  -2449801.47345  23795262.332    23795262.183    23795265.593
  -1468114.60849  -1114185.69345  24068568.542    24068567.977    24068570.598
 08  9 25  0  4  0.0000000  0  9G14G12G22G31G30G16G32G29G20
 -20848559.30149 -15785806.37347  20638879.586    20638879.421    20638881.277
  -6293028.12549  -4877650.37545  24874916.332    24874917.263    24874921.574
  -7604765.93449  -5902241.94545  23301311.877    23301312.917    23301312.161
 -25584237.82349 -19905436.71847  20952643.424    20952644.066    20952645.312
 -25902547.08849 -20155974.05347  20999425.797    20999426.050    20999428.442
  -4034317.19649  -3089499.77845  23666949.837    23666949.422    23666951.430
 -10437243.67849  -8102353.88946  22687453.541    22687453.653    22687456.393
  -3230646.16049  -2498025.71845  23783485.376    23783485.616    23783488.071
  -1546205.42449  -1175035.66745  24053708.418    24053708.074    24053711.945
 08  9 25  0  4 30.0000000  0  9G14G12G22G31G30G16G32G29G20
 -20823911.74349 -15766600.49747  20643569.831    20643569.824    20643571.785
  -6189311.42049  -4796832.20845  24894653.161    24894653.560    24894657.483
  -7499014.73549  -5819838.47145  23321435.854    23321436.246    23321436.220
 -25610245.35849 -19925702.32247  20947694.421    20947694.733    20947696.221
 -25847947.73349 -20113429.10447  21009815.791    21009816.137    21009818.412
  -4145824.50749  -3176388.57745  23645730.875    23645730.771    23645732.665
 -10489947.53349  -8143421.83046  22677424.499    22677424.096    22677427.471
  -3292220.32349  -2546005.57245  23771768.071    23771767.868    23771771.859
  -1623901.02549  -1235577.69245  24038923.399    24038922.700    24038926.955
 08  9 25  0  5  0.0000000  0  9G14G12G22G31G30G16G32G29G20
 -20798864.72049 -15747083.35147  20648336.196    20648336.134    20648337.993
  -6085463.58849  -4715911.85145  24914414.829    24914415.549    24914418.226
  -7393128.02149  -5737329.37645  23341585.432    23341585.177    23341586.518
 -25635995.74849 -19945767.55547  20942794.288    20942794.745    20942795.899
 -25792830.28349 -20070480.44447  21020304.315    21020304.676    21020306.811
  -4257170.70849  -3263151.85345  23624542.387    23624542.070    23624544.120
 -10542201.82049  -8184139.45946  22667480.799    22667480.939    22667484.009
  -3353480.40949  -2593740.70145  23760110.622    23760110.708    23760113.469
  -1701201.32849  -1295811.67445  24024213.733    24024213.983    24024216.637
 08  9 25  0  5 30.0000000  0  9G14G12G22G31G30G16G32G29G20
 -20773416.35549 -15727253.47347  20653178.921    20653178.742    20653180.648
  -5981486.10449  -4634890.49145  24934201.300    24934201.042    24934204.357
  -7287107.77149  -5654716.24745  23361760.303    23361760.730    23361761.769
 -25661488.29349 -19965631.86547  20937943.192    20937943.533    20937944.821
 -25737196.21949 -20027129.22147  21030891.128    21030891.457    21030893.950
  -4368352.24049  -3349786.78645  23603385.289    23603385.087    23603387.076
 -10594003.72949  -8224504.58546  22657623.243    22657623.224    22657625.997
  -3414422.62849  -2641228.11545  23748513.611    23748514.076    23748517.154
  -1778102.98549  -1355735.04045  24009579.783    24009578.355    24009582.754
 08  9 25  0  6  0.0000000  0  9G14G12G22G31G30G16G32G29G20
 -20747566.59249 -15707110.81047  20658097.915    20658097.707    20658099.846
  -5877381.74549  -4553770.29245  24954011.797    24954012.377    24954015.708
  -7180956.88449  -5572001.31045  23381960.428    23381960.955    23381961.161
 -25686723.56949 -19985295.71147  20933141.107    20933141.578    20933142.767
 -25681047.63349 -19983377.07847  21041575.856    21041576.420    21041578.489
  -4479366.81149  -3436291.62645  23582260.118    23582260.811    23582261.803
 -10645351.69349  -8264515.98646  22647852.090    22647852.058    22647855.574
  -3475044.35149  -2688465.80445  23736977.619    23736977.582    23736980.590
  -1854603.49849  -1415345.81345  23995022.029    23995020.823    23995024.866
 08  9 25  0  6 30.0000000  0  9G14G12G22G31G30G16G32G29G20
 -20721314.07949 -15686654.32647  20663093.610    20663093.688    20663095.930
  -5773152.49849  -4472552.76245  24973846.222    24973845.147    24973849.338
  -7074677.67349  -5489186.38045  23402184.759    23402183.905    23402185.222
 -25711701.78849 -20004759.24747  20928387.859    20928388.278    20928389.493
 -25624386.66149 -19939225.67347  21052358.118    21052358.126    21052360.371
  -4590211.92949  -3522664.42145  23561167.125    23561166.604    23561169.723
 -10696243.77549  -8304172.16646  22638167.644    22638166.783    22638170.508
  -3535342.12649  -2735451.06245  23725503.267    23725503.206    23725506.481
  -1930700.61249  -1474642.26545  23980540.946    23980540.277    23980543.777
 08  9 25  0  7  0.0000000  0  9G14G12G22G31G30G16G32G29G20
 -20694659.21649 -15665884.31547  20668165.882    20668165.936    20668167.993
  -5668801.66449  -4391240.47745  24993703.545    24993703.129    24993707.323
  -6968273.73549  -5406274.27845  23422432.727    23422432.367    23422432.601
 -25736423.88649 -20024023.20847  20923683.406    20923683.725    20923685.026
 -25567216.24249 -19894677.29747  21063237.215    21063237.444    21063239.794
  -4700886.13149  -3608904.05145  23540106.445    23540106.843    23540108.693
 -10746679.00349  -8343472.33946  22628569.984    22628569.048    22628573.529
  -3595314.11949  -2782182.45745  23714090.975    23714091.156    23714093.709
  -2006392.58349  -1533623.01445  23966137.330    23966136.959    23966140.059
 08  9 25  0  7 30.0000000  0  9G14G12G22G31G30G16G32G29G20
 -20667601.43049 -15644800.33147  20673314.820    20673314.482    20673316.565
  -5564331.15049  -4309834.94345  25013583.581    25013583.656    25013586.556
  -6861747.63949  -5323266.97245  23442703.783    23442703.284    23442704.684
 -25760889.90949 -20043087.63347  20919027.694    20919028.158    20919029.376
 -25509538.50349 -19849733.60347  21074212.943    21074213.116    21074215.496
  -4811386.56849  -3695008.26345  23519078.798    23519078.351    23519081.018
 -10796655.29649  -8382414.90746  22619059.815    22619060.141    22619062.876
  -3654957.30249  -2828657.62945  23702741.240    23702741.733    23702744.528
  -2081676.30349  -1592285.65245  23951811.309    23951810.117    23951814.505
 08  9 25  0  8  0.0000000  0  9G14G12G22G31G30G16G32G29G20
 -20640139.16449 -15623401.17447  20678540.725    20678540.614    20678542.767
  -5459742.55049  -4228337.39545  25033486.219    25033486.518    25033489.955
  -6755100.79649  -5240165.58045  23462997.860    23462997.405    23462998.581
 -25785099.68049 -20061952.38147  20914420.769    20914421.128    20914422.492
 -25451354.74649 -19804395.61747  21085284.846    21085285.081    21085287.566
  -4921710.00549  -3780974.56845  23498084.908    23498083.915    23498087.853
 -10846170.01349  -8420997.81146  22609637.559    22609637.783    22609640.542
  -3714267.82649  -2874873.59046  23691454.811    23691455.087    23691458.403
  -2156548.97249  -1650627.98645  23937563.343    23937562.480    23937566.349
 08  9 25  0  9 30.0000000  0  9G14G12G22G31G30G16G32G29G20
 -20555348.37949 -15557330.46047  20694675.844    20694675.324    20694677.801
  -5145318.34449  -3983331.72245  25093319.265    25093320.146    25093323.560
  -6434490.99549  -4990339.89645  23524007.641    23524007.059    23524009.120
 -25856221.31249 -20117371.81547  20900886.789    20900887.297    20900888.232
 -25273817.31549 -19666054.77047  21119069.043    21119069.382    21119071.475
  -5251621.91949  -4038048.75245  23435304.840    23435304.796    23435307.293
 -10991955.79849  -8534597.13346  22581895.537    22581895.019    22581898.453
  -3890203.29849  -3011966.07146  23657975.407    23657975.584    23657979.244
  -2378703.66949  -1823735.51645  23895288.802    23895287.846    23895291.791
 08  9 25  0 10  0.0000000  0  9G14G12G22G31G30G16G32G29G20
 -20526259.55449 -15534663.85647  20700211.228    20700210.992    20700213.153
  -5040276.83749  -3901481.24745  25113307.980    25113307.669    25113311.966
  -6327384.93849  -4906880.69445  23544389.232    23544390.248    23544390.376
 -25879405.07349 -20135437.08048  20896475.068    20896475.611    20896476.628
 -25213628.52349 -19619154.42247  21130522.637    21130522.983    21130525.205
  -5361209.70949  -4123441.82245  23414451.087    23414451.023    23414454.185
 -11039603.72149  -8571725.39046  22572828.465    22572828.456    22572830.727
  -3948151.51149  -3057120.48646  23646948.224    23646948.678    23646951.231
  -2451904.37549  -1880775.03345  23881359.067    23881358.080    23881362.591
 08  9 25  0 10 30.0000000  0  9G14G12G22G31G30G16G32G29G20
 -20496769.21049 -15511684.38447  20705823.121    20705822.837    20705824.951
  -4935134.14649  -3819551.95245  25133315.990    25133315.638    25133319.492
  -6220176.84649  -4823341.96545  23564790.553    23564790.975    23564792.280
 -25902339.54949 -20153308.09448  20892110.802    20892110.993    20892112.507
 -25152950.38649 -19571872.76147  21142069.360    21142070.089    21142071.942
  -5470613.70349  -4208691.68045  23393632.301    23393632.355    23393635.152
 -11086786.99749  -8608491.58946  22563849.884    22563850.511    22563852.480
  -4005758.41649  -3102008.97046  23635986.013    23635986.257    23635989.216
  -2524687.36949  -1937489.06445  23867508.869    23867508.148    23867511.832
 08  9 25  0 11  0.0000000  0  9G14G12G22G31G30G16G32G29G20
 -20466875.20549 -15488390.37047  20711511.758    20711511.879    20711513.588
  -4829890.99049  -3737544.35345  25153343.148    25153344.562    25153347.187
  -6112867.92349  -4739724.66145  23585210.987    23585211.938    23585212.676
 -25925023.26049 -20170983.71147  20887794.145    20887794.401    20887796.059
 -25091783.56449 -19524210.30747  21153709.058    21153709.202    21153711.676
  -5579830.09449  -4293795.33945  23372849.205    23372848.314    23372851.926
 -11133502.44849  -8644893.24646  22554960.281    22554960.106    22554962.999
  -4063019.60549  -3146628.06746  23625089.412    23625089.521    23625091.878
  -2597048.31549  -1993874.23245  23853739.236    23853738.920    23853741.911
 08  9 25  0 11 30.0000000  0  9G14G12G22G31G30G16G32G29G20
 -20436576.52349 -15464781.02147  20717277.415    20717277.517    20717279.181
  -4724549.10549  -3655459.82345  25173388.916    25173390.125    25173393.860
  -6005460.25649  -4656030.42645  23605650.153    23605650.198    23605651.196
 -25947456.20149 -20188463.92147  20883525.258    20883525.596    20883526.955
 -25030130.10949 -19476168.64847  21165441.280    21165441.670    21165443.899
  -5688855.71449  -4378750.36145  23352102.345    23352101.177    23352104.920
 -11179747.81149  -8680928.59346  22546160.094    22546159.848    22546163.320
  -4119931.77449  -3190975.21646  23614259.407    23614259.968    23614263.029
  -2668984.78749  -2049928.62245  23840050.213    23840049.797    23840052.837
 08  9 25  0 12  0.0000000  0  9G14G12G22G31G30G16G32G29G20
 -20405870.89649 -15440854.57547  20723120.571    20723120.412    20723122.488
  -4619109.04549  -3573298.80445  25193453.694    25193454.964    25193456.556
  -5897954.64549  -4572259.86145  23626107.845    23626107.526    23626109.682
 -25969636.91649 -20205747.59647  20879304.418    20879304.848    20879305.929
 -24967990.58949 -19427748.24847  21177266.053    21177266.324    21177268.528
  -5797686.86649  -4463553.83845  23331392.378    23331391.993    23331393.942
 -11225519.75249  -8716595.04146  22537450.025    22537449.828    22537453.027
  -4176490.39049  -3235046.84745  23603496.843    23603498.018    23603499.902
  -2740492.88949  -2105649.20945  23826442.758    23826442.187    23826445.592
 08  9 25  0 12 30.0000000  0  9G14G12G22G31G30G16G32G29G20
 -20374758.82749 -15416611.41547  20729041.047    20729040.894    20729043.006
  -4513573.78849  -3491063.58845  25213536.686    25213537.101    25213540.358
  -5790354.60449  -4488415.72245  23646583.383    23646583.051    23646584.302
 -25991566.56849 -20222835.63347  20875131.351    20875131.767    20875132.874
 -24905368.24949 -19378951.62147  21189182.724    21189183.344    21189185.264
  -5906321.72649  -4548204.36145  23310719.718    23310718.965    23310721.552
 -11270817.52849  -8751892.01346  22528830.136    22528829.986    22528832.512
  -4232693.42149  -3278841.39845  23592801.838    23592801.034    23592804.555
  -2811571.05749  -2161034.79745  23812917.129    23812916.211    23812919.893
 08  9 25  0 13  0.0000000  0  9G14G12G22G31G30G16G32G29G20
 -20343239.73349 -15392051.09747  20735038.991    20735038.781    20735040.792
  -4407945.60349  -3408755.97145  25233637.391    25233637.526    25233640.665
  -5682663.06249  -4404500.28745  23667076.284    23667076.504    23667077.522
 -26013245.51449 -20239728.31547  20871005.967    20871006.353    20871007.508
 -24842265.29849 -19329780.49447  21201190.858    21201191.051    21201193.168
  -6014758.08449  -4632700.20845  23290084.819    23290084.070    23290086.403
 -11315639.61549  -8786818.32546  22520300.794    22520300.380    22520303.655
  -4288538.44249  -3322357.00945  23582174.786    23582174.740    23582176.594
  -2882216.82749  -2216083.46245  23799473.647    23799472.048    23799476.480
 08  9 25  0 13 30.0000000  0  9G14G12G22G31G30G16G32G29G20
 -20311312.30449 -15367172.59247  20741114.583    20741114.555    20741116.374
  -4302225.83849  -3326376.97245  25253755.388    25253755.669    25253758.929
  -5574880.95449  -4320514.27945  23687586.441    23687586.565    23687588.115
 -26034673.37249 -20256425.34348  20866928.421    20866928.906    20866929.981
 -24778682.97749 -19280235.82947  21213290.121    21213290.734    21213292.855
  -6122992.35949  -4717038.60045  23269488.308    23269487.909    23269491.114
 -11359983.19849  -8821371.77146  22511862.492    22511862.092    22511865.365
  -4344021.27549  -3365590.40545  23571616.672    23571616.559    23571619.512
  -2952426.79149  -2270792.52145  23786113.085    23786112.967    23786116.186
 08  9 25  0 14  0.0000000  0  9G14G12G22G31G30G16G32G29G20
 -20278975.51449 -15341975.10247  20747268.108    20747268.125    20747269.922
  -4196416.37549  -3243928.07745  25273890.328    25273890.600    25273893.498
  -5467010.78349  -4236459.64945  23708113.336    23708113.235    23708114.565
 -26055849.19649 -20272925.98448  20862898.788    20862899.036    20862900.479
 -24714623.45149 -19230319.31647  21225480.311    21225480.596    21225482.536
  -6231021.73549  -4801217.33245  23248930.890    23248930.360    23248932.517
 -11403846.30549  -8855550.81846  22503515.637    22503515.091    22503518.459
  -4399138.53249  -3408538.93645  23561127.801    23561128.140    23561130.872
  -3022198.23049  -2325159.85945  23772836.081    23772835.428    23772839.094
 08  9 25  0 14 30.0000000  0  9G14G12G22G31G30G16G32G29G20
 -20246230.20149 -15316459.28847  20753499.319    20753499.161    20753501.281
  -4090520.47649  -3161411.86445  25294041.837    25294042.948    25294043.228
  -5359056.63449  -4152339.57745  23728656.293    23728656.903    23728657.690
 -26076775.03449 -20289231.83248  20858916.661    20858917.102    20858918.138
 -24650089.97149 -19180033.48647  21237760.562    21237761.234    21237762.892
  -6338844.68649  -4885235.20945  23228412.726    23228412.205    23228415.415
 -11447228.41049  -8889355.06146  22495260.250    22495260.395    22495263.591
  -4453889.00749  -3451201.66145  23550709.216    23550710.023    23550713.219
  -3091530.11849  -2379184.71345  23759642.545    23759642.402    23759646.366
 08  9 25  0 15  0.0000000  0  9G14G12G22G31G30G16G32G29G20
 -20213076.23649 -15290625.04147  20759808.313    20759808.234    20759810.550
  -3984540.63749  -3078830.22245  25314209.323    25314209.447    25314212.280
  -5251021.09949  -4068156.08645  23749215.020    23749215.560    23749217.004
 -26097451.56749 -20305343.41448  20854982.054    20854982.476    20854983.964
 -24585085.48749 -19129380.63647  21250130.520    21250130.881    21250132.976
  -6446459.53249  -4969090.91745  23207934.268    23207933.982    23207938.057
 -11490128.37649  -8922783.61446  22487096.570    22487095.788    22487099.936
  -4508270.38549  -3493576.77646  23540361.148    23540361.847    23540364.102
  -3160420.20249  -2432865.30345  23746533.149    23746533.047    23746536.646
 08  9 25  0 15 30.0000000  0  9G14G12G22G31G30G16G32G29G20
 -20179513.22149 -15264472.04747  20766195.140    20766194.862    20766197.102
  -3878479.31949  -2996185.07245  25334392.197    25334393.634    25334394.541
  -5142907.02749  -3983911.40245  23769788.577    23769788.008    23769790.556
 -26117879.31249 -20321261.13448  20851094.769    20851095.127    20851096.447
 -24519612.70049 -19078362.88147  21262589.576    21262590.045    21262592.444
  -6553864.06649  -5052782.77045  23187495.881    23187495.871    23187497.250
 -11532545.01349  -8955835.54446  22479025.003    22479024.175    22479028.092
  -4562280.03449  -3535662.23146  23530083.572    23530084.302    23530086.586
  -3228866.82649  -2486200.33745  23733508.131    23733507.365    23733509.712
 08  9 25  0 16  0.0000000  0  9G14G12G22G31G30G16G32G29G20
 -20145540.38649 -15237999.72647  20772659.932    20772659.647    20772661.804
  -3772337.83849  -2913477.50945  25354590.422    25354590.442    25354593.019
  -5034716.58349  -3899607.20245  23790376.631    23790377.155    23790377.967
 -26138057.69249 -20336984.55048  20847254.972    20847255.295    20847256.656
 -24453673.04449 -19026981.33147  21275137.549    21275138.038    21275140.194
  -6661055.23749  -5136308.34945  23167098.020    23167097.002    23167101.199
 -11574476.02149  -8988509.05546  22471045.855    22471045.439    22471049.334
  -4615914.66349  -3577455.45546  23519877.218    23519877.148    23519879.754
  -3296867.10249  -2539187.54845  23720568.281    23720568.562    23720571.250
 08  9 25  0 16 30.0000000  0  9G14G12G22G31G30G16G32G29G20
 -20111157.55049 -15211207.91647  20779202.787    20779202.557    20779204.673
  -3666118.83649  -2830709.47945  25374803.318    25374804.608    25374806.016
  -4926452.42449  -3815245.58145  23810978.729    23810979.252    23810979.770
 -26157987.55749 -20352514.31248  20843462.422    20843462.981    20843463.994
 -24387269.31249 -18975238.16947  21287773.778    21287773.691    21287776.153
  -6768030.85649  -5219665.97845  23146741.094    23146740.375    23146743.949
 -11615920.17449  -9020803.19746  22463159.214    22463159.069    22463162.973
  -4669171.50749  -3618954.32046  23509742.646    23509742.394    23509745.894
  -3364418.50649  -2591825.01045  23707713.575    23707712.202    23707715.917
 08  9 25  0 17  0.0000000  0  9G14G12G22G31G30G16G32G29G20
 -20076364.51149 -15184096.46647  20785823.628    20785823.324    20785825.699
  -3559824.64249  -2747882.92745  25395030.515    25395031.126    25395032.438
  -4818117.32649  -3730828.67645  23831594.400    23831594.840    23831595.450
 -26177668.77649 -20367850.32648  20839717.241    20839717.614    20839719.041
 -24320404.14549 -18923135.45047  21300497.764    21300497.962    21300500.706
  -6874788.56049  -5302853.78645  23126425.658    23126425.479    23126429.289
 -11656876.04049  -9052716.87046  22455365.562    22455365.274    22455368.871
  -4722048.29449  -3660157.01446  23499680.434    23499681.089    23499683.238
  -3431519.51449  -2644111.50245  23694944.357    23694942.722    23694946.725
 08  9 25  0 17 30.0000000  0  9G14G12G22G31G30G16G32G29G20
 -20041160.70949 -15156664.94547  20792522.631    20792522.306    20792524.605
  -3453457.19149  -2664999.24145  25415271.608    25415272.213    25415275.415
  -4709713.74649  -3646358.39545  23852223.111    23852222.720    23852223.595
 -26197101.71249 -20382992.87348  20836019.247    20836019.614    20836020.785
 -24253079.44449 -18870674.65947  21313309.228    21313309.623    21313311.731
  -6981325.69049  -5385869.72745  23106152.188    23106152.044    23106154.918
 -11697341.99849  -9084248.79546  22447665.139    22447664.715    22447668.628
  -4774542.17449  -3701061.32345  23489691.268    23489691.015    23489694.296
  -3498167.48349  -2696044.98645  23682261.412    23682261.651    23682264.264
 08  9 25  0 18  0.0000000  0  8G14G22G31G30G16G32G29G20
 -20005546.40549 -15128913.54947  20799299.787    20799299.505    20799301.917
  -4601245.38849  -3561837.64745  23872864.109    23872864.090    23872864.800
 -26216287.84549 -20397943.10448  20832368.235    20832368.531    20832369.798
 -24185298.52349 -18817858.37147  21326207.453    21326207.804    21326209.768
  -7087640.66849  -5468712.55745  23085921.182    23085921.449    23085924.645
 -11737317.31749  -9115398.39046  22440058.050    22440057.871    22440061.894
  -4826651.12949  -3741665.67445  23479775.217    23479775.440    23479778.449
  -3564361.02149  -2747624.33945  23669665.217    23669664.522    23669668.347
 08  9 25  0 18 30.0000000  0  8G14G22G31G30G16G32G29G20
 -19969520.87349 -15100841.71447  20806155.208    20806155.368    20806157.316
  -4492713.41049  -3477267.32045  23893517.224    23893516.313    23893518.160
 -26235226.64449 -20412700.60448  20828764.278    20828764.816    20828765.878
 -24117063.39049 -18764688.14647  21339192.131    21339192.624    21339194.263
  -7193730.94349  -5551380.28645  23065732.899    23065732.616    23065735.144
 -11776799.94849  -9146164.09346  22432544.792    22432544.023    22432548.664
  -4878371.65549  -3781967.38146  23469933.180    23469934.003    23469936.419
  -3630097.06449  -2798847.23845  23657156.109    23657156.341    23657158.908
 08  9 25  0 19  0.0000000  0  8G14G22G31G30G16G32G29G20
 -19933085.58149 -15072450.58947  20813088.606    20813088.579    20813090.865
  -4384122.86049  -3392651.34945  23914181.257    23914180.317    23914183.008
 -26253920.20149 -20427267.00948  20825207.104    20825207.629    20825208.750
 -24048378.28649 -18711167.29447  21352262.491    21352263.306    21352265.082
  -7299596.32549  -5633872.76945  23045587.424    23045587.612    23045590.898
 -11815790.46949  -9176546.31946  22425125.166    22425125.269    22425128.290
  -4929703.36149  -3821966.08046  23460165.216    23460165.355    23460168.449
  -3695375.44149  -2849713.49845  23644734.389    23644734.231    23644736.086
 08  9 25  0 19 30.0000000  0  8G14G22G31G30G16G32G29G20
 -19896238.02449 -15043738.22047  20820100.491    20820100.394    20820102.218
  -4275473.99649  -3307989.95145  23934856.326    23934855.954    23934857.941
 -26272366.88249 -20441641.04248  20821696.850    20821697.209    20821698.560
 -23979243.47849 -18657296.02447  21365418.450    21365418.978    21365421.129
  -7405231.56849  -5716185.91745  23025485.775    23025485.298    23025488.737
 -11854285.11349  -9206542.14946  22417799.862    22417799.510    22417803.373
  -4980641.36249  -3861658.01046  23450471.948    23450471.746    23450475.079
  -3760192.02149  -2900219.91345  23632400.325    23632400.230    23632402.800
 08  9 25  0 20  0.0000000  0  8G14G22G31G30G16G32G29G20
 -19858978.97849 -15014705.20947  20827190.617    20827190.516    20827192.707
  -4166770.24749  -3223285.79045  23955541.688    23955540.914    23955544.594
 -26290567.72749 -20455823.52448  20818233.311    20818233.737    20818234.702
 -23909662.36549 -18603076.99247  21378659.273    21378659.672    21378661.754
  -7510635.22749  -5798318.61545  23005428.196    23005428.403    23005430.468
 -11892283.44849  -9236151.24746  22410569.049    22410568.906    22410572.912
  -5031183.80749  -3901041.71646  23440853.924    23440854.734    23440856.746
  -3824545.43149  -2950365.43545  23620154.393    23620153.318    23620156.559
 08  9 25  0 20 30.0000000  0  8G14G22G31G30G16G32G29G20
 -19821308.56049 -14985351.63947  20834359.074    20834359.303    20834361.263
  -4058014.86949  -3138541.38945  23976236.990    23976236.667    23976239.676
 -26308523.49349 -20469815.03048  20814816.425    20814816.882    20814817.911
 -23839637.97349 -18548512.54547  21391984.466    21391985.177    21391987.053
  -7615805.71849  -5880269.62645  22985414.942    22985414.978    22985417.173
 -11929784.62049  -9265372.95046  22403432.800    22403433.126    22403436.507
  -5081328.65049  -3940115.58846  23431311.770    23431312.310    23431315.080
  -3888433.88849  -3000148.65645  23607996.796    23607996.854    23607998.812
 08  9 25  0 21  0.0000000  0  8G14G22G31G30G16G32G29G20
 -19783227.69849 -14955678.24247  20841605.696    20841605.527    20841607.863
  -3949211.46749  -3053759.57845  23996941.457    23996941.143    23996943.951
 -26326235.73549 -20483616.77148  20811445.944    20811446.196    20811447.437
 -23769174.15649 -18493605.69447  21405393.275    21405393.724    21405395.897
  -7720741.91849  -5962038.07545  22965446.235    22965446.432    22965448.131
 -11966788.48649  -9294207.13846  22396391.226    22396390.881    22396394.695
  -5131074.57049  -3978878.60746  23421845.553    23421845.614    23421848.798
  -3951856.76249  -3049569.07445  23595927.892    23595926.910    23595930.258
 08  9 25  0 21 30.0000000  0  8G14G22G31G30G16G32G29G20
 -19744733.72049 -14925682.94447  20848930.928    20848930.895    20848932.936
  -3840360.36649  -2968940.59545  24017655.238    24017656.173    24017656.300
 -26343702.28849 -20497227.07348  20808122.183    20808122.487    20808123.900
 -23698270.62249 -18438356.20347  21418885.763    21418885.944    21418888.616
  -7825438.91949  -6043620.12845  22945523.005    22945522.825    22945523.477
 -12003291.27549  -9322650.87046  22389445.082    22389445.320    22389448.468
  -5180416.58649  -4017326.90646  23412455.974    23412456.234    23412459.013
  -4014809.47549  -3098623.13945  23583948.394    23583948.102    23583950.293
 08  9 25  0 22  0.0000000  0  8G14G22G31G30G16G32G29G20
 -19705827.23449 -14895366.20847  20856334.607    20856334.510    20856336.513
  -3731464.86749  -2884086.99645  24038377.650    24038378.427    24038378.875
 -26360924.64249 -20510647.08848  20804844.871    20804845.245    20804846.437
 -23626930.59849 -18382766.59447  21432461.337    21432462.075    21432464.054
  -7929895.50649  -6125014.84446  22925645.646    22925645.986    22925647.860
 -12039292.65249  -9350703.89546  22382594.211    22382593.863    22382597.366
  -5229352.89549  -4055459.06946  23403143.678    23403144.051    23403146.742
  -4077290.55849  -3147309.70245  23572058.677    23572059.023    23572061.106
 08  9 25  0 22 30.0000000  0  8G14G22G31G30G16G32G29G20
 -19666508.83149 -14864728.49747  20863816.646    20863816.341    20863818.548
  -3622528.78749  -2799201.77345  24059107.768    24059108.476    24059109.416
 -26377903.59449 -20523877.44048  20801613.853    20801613.962    20801615.419
 -23555157.75749 -18326839.71947  21446119.356    21446119.930    21446121.671
  -8034109.81949  -6206220.78146  22905814.421    22905814.295    22905817.015
 -12074792.05249  -9378365.78046  22375838.863    22375838.339    22375842.313
  -5277881.83449  -4093273.79946  23393909.056    23393908.284    23393912.304
  -4139298.85749  -3195627.85745  23560259.001    23560257.753    23560261.232
 08  9 25  0 23  0.0000000  0  8G14G22G31G30G16G32G29G20
 -19626777.97549 -14833769.39947  20871377.199    20871377.196    20871379.310
  -3513554.22949  -2714286.57645  24079845.079    24079846.319    24079847.077
 -26394639.11749 -20536918.10948  20798429.104    20798429.687    20798430.723
 -23482954.19649 -18270577.21647  21459859.295    21459859.508    21459861.855
  -8138079.78849  -6287236.30746  22886029.788    22886030.331    22886032.062
 -12109787.80749  -9405635.20646  22369179.369    22369178.810    22369182.344
  -5326000.72649  -4130769.00546  23384752.342    23384752.353    23384755.235
  -4200832.50149  -3243576.13645  23548549.346    23548548.939    23548551.780
 08  9 25  0 23 30.0000000  0  8G14G22G31G30G16G32G29G20
 -19586633.72549 -14802488.17447  20879016.425    20879016.208    20879018.428
  -3404542.11149  -2629342.10345  24100589.514    24100589.289    24100590.394
 -26411130.74249 -20549768.72448  20795290.932    20795291.309    20795292.377
 -23410321.59149 -18213980.39347  21473680.761    21473681.320    21473683.443
  -8241801.74049  -6368058.57446  22866292.271    22866292.565    22866294.304
 -12144277.82549  -9432510.55446  22362616.043    22362615.394    22362619.088
  -5373706.25249  -4167942.10046  23375674.265    23375674.038    23375676.733
  -4261887.72149  -3291151.63545  23536930.864    23536930.482    23536933.378
 08  9 25  0 24  0.0000000  0  8G14G22G31G30G16G32G29G20
 -19546077.54649 -14770885.96647  20886734.081    20886733.825    20886735.735
  -3295497.38849  -2544372.23345  24121340.147    24121339.784    24121342.626
 -26427380.34649 -20562430.74748  20792198.721    20792199.160    20792200.249
 -23337264.13849 -18157052.51747  21487583.110    21487583.685    21487585.776
  -8345275.60649  -6448687.54246  22846601.830    22846601.597    22846603.152
 -12178262.76749  -9458992.33446  22356148.888    22356149.230    22356152.031
  -5420997.39249  -4204792.29246  23366675.015    23366675.557    23366677.870
  -4322464.69349  -3338354.46745  23525403.573    23525403.042    23525406.604
 08  9 25  0 24 30.0000000  0  8G14G22G31G30G16G32G29G20
 -19505107.33049 -14738961.13747  20894530.445    20894530.258    20894532.435
  -3186420.62149  -2459377.40945  24142096.861    24142097.024    24142096.935
 -26443386.65949 -20574903.19948  20789152.819    20789153.269    20789154.599
 -23263782.31249 -18099793.96547  21501566.233    21501566.755    21501569.026
  -8448496.66649  -6529119.51346  22826959.393    22826959.135    22826961.873
 -12211739.28149  -9485077.93146  22349778.498    22349777.981    22349781.851
  -5467869.56849  -4241316.02246  23357755.474    23357755.292    23357757.880
  -4382559.20949  -3385181.37345  23513967.987    23513968.029    23513970.014
 08  9 25  0 25  0.0000000  0  8G14G22G31G30G16G32G29G20
 -19463725.64949 -14706715.68147  20902405.196    20902405.116    20902406.951
  -3077317.00149  -2374361.66545  24162858.665    24162859.391    24162859.964
 -26459152.17149 -20587188.01448  20786152.667    20786153.066    20786154.634
 -23189881.47549 -18042208.90847  21515629.097    21515629.630    21515631.780
  -8551465.13649  -6609354.64846  22807365.099    22807364.790    22807368.349
 -12244708.68849  -9510768.38846  22343504.600    22343504.374    22343508.432
  -5514322.97649  -4277513.44246  23348915.587    23348915.402    23348918.428
  -4442171.82349  -3431632.75245  23502624.278    23502624.182    23502627.329
 08  9 25  0 25 30.0000000  0  8G14G22G31G30G16G32G29G20
 -19421930.99249 -14674148.42547  20910358.504    20910357.830    20910360.191
  -2968187.75749  -2289325.94345  24183625.504    24183626.254    24183626.494
 -26474676.16549 -20599284.63148  20783198.589    20783199.241    20783200.308
 -23115562.77049 -17984298.24447  21529771.586    21529772.069    21529774.132
  -8654177.96849  -6689390.60746  22787819.471    22787818.442    22787820.476
 -12277168.61549  -9536061.85046  22337327.635    22337326.970    22337330.672
  -5560354.02349  -4313381.75446  23340156.019    23340156.126    23340158.821
  -4501299.64349  -3477706.37645  23491372.754    23491372.311    23491375.537
 08  9 25  0 26  0.0000000  0  8G14G22G31G30G16G32G29G20
 -19379722.94149 -14641259.05147  20918390.452    20918390.110    20918392.118
  -2859035.31349  -2204272.13845  24204396.582    24204394.346    24204396.233
 -26489959.01449 -20611193.34348  20780290.408    20780290.954    20780292.046
 -23040828.85949 -17926064.03647  21543992.984    21543993.054    21543995.534
  -8756632.61949  -6769225.38746  22768322.902    22768321.949    22768324.649
 -12309118.01349  -9560957.48946  22331247.863    22331247.359    22331251.540
  -5605960.30249  -4348919.08246  23331477.369    23331477.524    23331480.334
  -4559940.69549  -3523400.70445  23480213.770    23480213.017    23480216.002
 08  9 25  0 26 30.0000000  0  8G14G22G31G30G16G32G29G20
 -19337101.90149 -14608047.86747  20926500.867    20926500.695    20926502.684
  -2749862.68749  -2119202.61945  24225171.609    24225171.373    24225171.760
 -26505001.13749 -20622914.47348  20777428.019    20777428.386    20777429.710
 -22965682.95049 -17867508.79447  21558292.808    21558293.064    21558295.514
  -8858827.38649  -6848857.64146  22748875.681    22748874.772    22748878.414
 -12340556.01549  -9585454.64046  22325265.405    22325265.151    22325268.717
  -5651139.86449  -4384123.89746  23322879.816    23322879.357    23322883.048
  -4618093.01749  -3568714.20145  23469147.744    23469147.138    23469150.472
 08  9 25  0 27  0.0000000  0  8G14G22G31G30G16G32G29G20
 -19294067.05249 -14574514.23047  20934690.171    20934690.006    20934691.862
  -2640671.86649  -2034118.90145  24245949.715    24245948.969    24245949.002
 -26519801.98249 -20634447.60348  20774611.484    20774611.835    20774613.131
 -22890126.39949 -17808633.57447  21572670.917    21572671.410    21572673.235
  -8960759.14449  -6928284.96146  22729478.535    22729478.499    22729481.128
 -12371480.75149  -9609551.84846  22319380.547    22319380.225    22319384.236
  -5695889.47749  -4418993.70146  23314364.150    23314364.441    23314367.556
  -4675754.19149  -3613644.99445  23458174.937    23458174.254    23458176.942
 08  9 25  0 27 30.0000000  0  8G14G22G31G30G16G32G29G20
 -19250619.40549 -14540658.93647  20942957.899    20942957.502    20942959.748
  -2531466.12049  -1949023.56745  24266731.038    24266731.991    24266731.380
 -26534363.11049 -20645793.93648  20771840.575    20771841.094    20771842.310
 -22814162.93649 -17749441.26747  21587126.321    21587126.263    21587129.118
  -9062426.49449  -7007506.25346  22710131.835    22710131.483    22710133.972
 -12401892.07749  -9633248.99746  22313593.523    22313593.780    22313597.635
  -5740207.52249  -4453527.22546  23305930.709    23305930.980    23305934.199
  -4732923.32949  -3658192.37045  23447295.838    23447295.385    23447298.752
 08  9 25  0 28  0.0000000  0  8G14G22G31G30G16G32G29G20
 -19206759.15249 -14506482.12547  20951304.228    20951303.544    20951306.391
  -2422248.21049  -1863918.74945  24287514.601    24287515.013    24287514.668
 -26548685.11349 -20656953.93448  20769115.218    20769115.351    20769116.684
 -22737795.21849 -17689933.96447  21601658.495    21601658.553    21601661.113
  -9163827.58249  -7086520.06746  22690835.801    22690834.742    22690838.452
 -12431789.18149  -9656545.45946  22307904.367    22307904.049    22307908.017
  -5784091.93949  -4487722.84546  23297579.685    23297580.141    23297583.159
  -4789598.64849  -3702354.96745  23436510.783    23436510.322    23436513.573
 08  9 25  0 28 30.0000000  0  8G14G22G31G30G16G32G29G20
 -19162487.30149 -14471984.59547  20959728.826    20959728.852    20959731.044
  -2313022.05249  -1778807.49045  24308299.590    24308298.995    24308298.053
 -26562769.31849 -20667928.64248  20766434.990    20766435.356    20766436.595
 -22661027.04649 -17630114.62347  21616267.013    21616267.080    21616269.407
  -9264961.53249  -7165325.70846  22671590.586    22671590.734    22671592.812
 -12461172.17349  -9679441.30546  22302313.009    22302312.680    22302316.550
  -5827541.54549  -4521579.65846  23289311.655    23289312.195    23289314.470
  -4845779.62249  -3746132.33845  23425819.957    23425819.423    23425822.201
 08  9 25  0 29  0.0000000  0  8G14G22G31G30G16G32G29G20
 -19117802.03149 -14437164.92147  20968232.145    20968231.925    20968234.193
  -2203788.29649  -1693690.32545  24329085.815    24329085.135    24329087.129
 -26576614.52749 -20678717.11948  20763800.308    20763800.870    20763802.161
 -22583859.26149 -17569983.90547  21630951.564    21630952.024    21630954.142
  -9365823.95549  -7243919.78546  22652397.102    22652397.571    22652399.663
 -12490038.21149  -9701934.33546  22296819.977    22296820.003    22296823.127
  -5870552.06149  -4555094.33846  23281127.117    23281126.871    23281129.711
  -4901462.44049  -3789521.54745  23415223.691    23415223.408    23415227.133
 08  9 25  0 29 30.0000000  0  8G14G22G31G30G16G32G29G20
 -19072703.40449 -14402023.14547  20976814.169    20976814.054    20976816.148
  -2094549.72549  -1608569.41545  24349872.819    24349871.725    24349873.221
 -26590220.90249 -20689319.48748  20761211.180    20761211.802    20761212.812
 -22506294.70449 -17509544.00347  21645711.572    21645711.826    21645714.110
  -9466413.01949  -7322300.84046  22633255.638    22633257.082    22633258.708
 -12518386.41849  -9724023.86046  22291425.546    22291425.657    22291428.541
  -5913121.70849  -4588265.49346  23273026.392    23273026.689    23273028.715
  -4956645.22049  -3832521.11045  23404722.824    23404722.758    23404725.678
 08  9 25  0 30  0.0000000  0  8G14G22G31G30G16G32G29G20
 -19027192.00049 -14366559.72247  20985474.779    20985474.548    20985476.799
  -1985309.43249  -1523447.17145  24370660.400    24370660.293    24370662.101
 -26603589.21349 -20699736.35548  20758667.318    20758667.703    20758669.101
 -22428336.55349 -17448797.41847  21660546.571    21660546.965    21660548.869
  -9566727.05149  -7400467.59746  22614166.697    22614166.988    22614169.214
 -12546216.30249  -9745709.49046  22286129.840    22286129.524    22286133.178
  -5955248.72549  -4621091.72946  23265009.948    23265010.328    23265013.275
  -5011326.97049  -3875130.26045  23394317.193    23394315.492    23394319.331
 08  9 25  0 30 30.0000000  0  8G14G22G31G30G16G32G29G20
 -18981267.46849 -14330774.38247  20994213.948    20994213.558    20994215.972
  -1876069.23049  -1438324.98845  24391448.280    24391448.292    24391451.358
 -26616719.41949 -20709967.69148  20756168.722    20756169.023    20756170.294
 -22349986.88049 -17387745.75146  21675456.006    21675456.184    21675458.310
  -9666763.40249  -7478417.97946  22595130.632    22595130.796    22595131.892
 -12573526.55349  -9766990.21846  22280932.972    22280932.711    22280935.847
  -5996930.40949  -4653570.94746  23257078.158    23257078.600    23257080.696
  -5065505.59849  -3917347.36245  23384007.323    23384007.219    23384010.088
 08  9 25  0 31  0.0000000  0  8G14G22G31G30G16G32G29G20
 -18934930.68049 -14294667.80847  21003031.544    21003031.474    21003033.228
  -1766832.62449  -1353205.62345  24412235.417    24412234.851    24412238.034
 -26629612.53649 -20720014.27548  20753715.192    20753715.612    20753716.899
 -22271248.98449 -17326391.56646  21690439.296    21690439.391    21690442.029
  -9766520.83949  -7556151.03046  22576147.540    22576146.979    22576149.643
 -12600316.96049  -9787865.87346  22275834.928    22275834.141    22275837.324
  -6038164.86549  -4685701.68546  23249231.297    23249232.102    23249234.669
  -5119179.95049  -3959171.51845  23373793.499    23373792.600    23373796.657
 08  9 25  0 31 30.0000000  0  8G14G22G31G30G16G32G29G20
 -18888180.27749 -14258238.93947  21011927.851    21011927.845    21011930.076
  -1657601.14249  -1268090.25145  24433021.561    24433022.221    24433023.418
 -26642267.87549 -20729875.58448  20751306.977    20751307.349    20751308.554
 -22192124.46449 -17264736.12946  21705496.136    21705496.288    21705498.766
  -9865995.86349  -7633664.02646  22557217.952    22557217.603    22557219.037
 -12626585.34749  -9808334.76346  22270836.058    22270835.521    22270838.494
  -6078948.75249  -4717481.34346  23241470.241    23241471.284    23241473.096
  -5172347.11149  -4000600.48945  23363675.909    23363676.973    23363679.085
 08  9 25  0 32  0.0000000  0  8G14G22G31G30G16G32G29G20
 -18841018.36349 -14221489.40647  21020902.476    21020901.922    21020904.372
  -1548378.66049  -1182981.88245  24453806.085    24453805.333    24453807.181
 -26654687.19849 -20739552.97948  20748943.676    20748944.145    20748945.232
 -22112617.36249 -17202782.57046  21720625.790    21720625.974    21720628.259
  -9965187.67349  -7710956.33246  22538342.503    22538342.400    22538343.578
 -12652332.41149  -9828397.41746  22265936.653    22265936.523    22265939.974
  -6119281.59949  -4748909.52346  23233795.144    23233795.818    23233798.043
  -5225006.78749  -4041633.98945  23353655.269    23353654.431    23353658.497
 08  9 25  0 32 30.0000000  0  8G14G22G31G30G16G32G29G20
 -18793444.04049 -14184418.51247  21029955.520    21029954.905    21029957.696
  -1439167.64049  -1097882.44644  24474587.967    24474587.366    24474589.118
 -26666870.83049 -20749046.71948  20746625.253    20746625.670    20746626.883
 -22032730.34849 -17140532.96846  21735827.804    21735828.239    21735830.523
 -10064094.18449  -7788026.31846  22519521.293    22519520.980    22519522.679
 -12677557.09949  -9848053.04146  22261136.629    22261136.486    22261139.951
  -6159160.72349  -4779984.15846  23226206.496    23226206.662    23226209.318
  -5277157.06549  -4082270.57045  23343731.144    23343730.192    23343734.976
 08  9 25  0 33  0.0000000  0  8G14G22G31G30G16G32G29G20
 -18745457.08149 -14147026.08747  21039087.156    21039086.943    21039088.957
  -1329969.95749  -1012793.38144  24495367.457    24495368.409    24495369.886
 -26678818.08149 -20758356.26448  20744351.774    20744352.134    20744353.373
 -21952465.46949 -17077988.92846  21751101.727    21751101.796    21751104.593
 -10162712.54149  -7864871.78446  22500754.887    22500754.212    22500756.774
 -12702257.98449  -9867300.49946  22256436.235    22256435.890    22256438.667
  -6198583.85249  -4810703.46946  23218704.614    23218705.165    23218707.069
  -5328795.79149  -4122508.53545  23333904.641    23333904.434    23333907.734
 08  9 25  0 33 30.0000000  0  8G14G22G31G30G16G32G29G20
 -18697058.17349 -14109312.66547  21048297.118    21048296.717    21048298.942
  -1220788.96149   -927717.31244  24516143.852    24516142.618    24516145.413
 -26690530.19749 -20767482.58648  20742123.012    20742123.477    20742124.554
 -21871825.85749 -17015152.89746  21766446.925    21766447.452    21766449.618
 -10261041.28049  -7941491.56146  22482043.422    22482042.636    22482045.109
 -12726434.89649  -9886139.66146  22251835.525    22251835.515    22251837.984
  -6237549.41549  -4841066.23446  23211289.833    23211289.619    23211292.869
  -5379921.85249  -4162347.01545  23324175.803    23324174.910    23324179.190
 08  9 25  0 34  0.0000000  0  8G14G22G31G30G16G32G29G20
 -18648246.76749 -14071277.81647  21057585.558    21057585.157    21057587.659
  -1111626.03749   -842655.32944  24536916.967    24536917.785    24536919.574
 -26702006.48249 -20776425.14848  20739939.183    20739939.429    20739940.756
 -21790812.91349 -16952025.94946  21781863.209    21781863.440    21781865.983
 -10359077.50749  -8017883.41846  22463387.532    22463386.821    22463389.782
 -12750086.09249  -9904569.18046  22247334.899    22247334.431    22247338.043
  -6276054.13349  -4871069.90046  23203962.647    23203962.871    23203965.247
  -5430532.64849  -4201784.02245  23314544.791    23314544.467    23314547.452
 08  9 25  0 34 30.0000000  0  8G14G22G31G30G16G32G29G20
 -18599020.09349 -14032919.37947  21066953.045    21066952.652    21066955.391
  -1002480.78449   -757607.12545  24557686.751    24557687.557    24557689.317
 -26713244.09849 -20785181.73148  20737800.692    20737801.039    20737802.191
 -21709426.71949 -16888608.15546  21797350.559    21797350.988    21797352.846
 -10456816.02349  -8094043.29146  22444788.509    22444788.296    22444789.643
 -12773207.59049  -9922585.94246  22242935.078    22242934.737    22242938.038
  -6314092.70049  -4900710.31846  23196724.038    23196724.022    23196726.620
  -5480623.45649  -4240815.81845  23305013.092    23305013.735    23305015.156
 08  9 25  0 35  0.0000000  0  8G14G22G31G30G16G32G29G20
 -18549384.38149 -13994242.21447  21076398.404    21076398.213    21076400.826
   -893362.02549   -672579.58445  24578451.598    24578451.602    24578453.365
 -26724250.03449 -20793757.78448  20735706.333    20735706.689    20735707.988
 -21627676.50049 -16824906.70446  21812907.207    21812907.728    21812909.447
 -10554261.08149  -8169974.47946  22426245.277    22426245.293    22426246.533
 -12795805.15649  -9940194.44646  22238634.900    22238634.334    22238637.938
  -6351669.61549  -4929991.00346  23189573.326    23189574.392    23189576.434
  -5530199.25349  -4279446.32145  23295579.418    23295578.696    23295581.664
 08  9 25  0 35 30.0000000  0  8G14G22G31G30G16G32G29G20
 -18499337.97949 -13955245.03047  21085921.922    21085921.540    21085924.191
   -784270.36949   -587573.15045  24599210.967    24599210.431    24599213.321
 -26735022.35949 -20802151.80348  20733656.436    20733656.768    20733658.002
 -21545562.53049 -16760921.81546  21828532.941    21828533.631    21828535.519
 -10651408.60249  -8245673.83346  22407758.615    22407758.382    22407760.429
 -12817876.16049  -9957392.64646  22234434.983    22234435.081    22234437.909
  -6388780.66049  -4958908.67646  23182511.439    23182511.401    23182513.829
  -5579256.66449  -4317672.87945  23286244.109    23286244.149    23286246.075
 08  9 25  0 36  0.0000000  0  8G14G22G31G30G16G32G29G20
 -18448880.98049 -13915927.90347  21095523.543    21095523.293    21095526.122
   -675208.36349   -502589.85145  24619964.591    24619965.543    24619966.604
 -26745561.49949 -20810364.12348  20731650.870    20731651.097    20731652.387
 -21463087.58149 -16696655.64146  21844227.384    21844227.316    21844230.048
 -10748256.46549  -8321139.69246  22389328.974    22389328.400    22389330.861
 -12839419.64449  -9974179.79646  22230335.453    22230335.149    22230338.046
  -6425423.87249  -4987461.82346  23175538.478    23175538.499    23175540.727
  -5627793.61849  -4355493.87845  23277007.896    23277007.243    23277010.672
 08  9 25  0 36 30.0000000  0  8G14G22G31G30G16G32G29G20
 -18398014.59949 -13876291.77947  21105203.032    21105202.782    21105205.558
   -566179.34549   -417632.25245  24640712.280    24640711.630    24640714.232
 -26755868.65749 -20818395.67648  20729689.492    20729689.884    20729691.334
 -21380255.39649 -16632111.10046  21859989.789    21859989.984    21859992.382
 -10844803.68849  -8396371.28046  22370956.566    22370955.200    22370958.318
 -12860436.03249  -9990556.21446  22226336.185    22226335.948    22226339.624
  -6461598.21549  -5015649.59946  23168654.657    23168654.694    23168657.217
  -5675809.78449  -4392909.08745  23267870.765    23267870.438    23267873.912
 08  9 25  0 37  0.0000000  0  8G14G22G31G30G16G32G29G20
 -18346736.64249 -13836334.94047  21114961.026    21114961.566    21114963.584
   -457183.41749   -332700.43645  24661453.668    24661452.472    24661455.065
 -26765942.07549 -20826245.09348  20727772.566    20727772.981    20727774.225
 -21297066.44649 -16567288.55346  21875820.060    21875820.315    21875823.043
 -10941045.78649  -8471365.09646  22352642.304    22352641.748    22352644.582
 -12880922.31349 -10006519.56946  22222437.785    22222437.776    22222441.090
  -6497299.15049  -5043468.49646  23161860.910    23161861.307    23161863.936
  -5723301.24949  -4429915.44145  23258833.313    23258832.775    23258836.244
 08  9 25  0 37 30.0000000  0  8G14G22G31G30G16G32G29G20
 -18295048.41849 -13796058.42047  21124797.020    21124797.007    21124799.464
   -348223.81349   -247796.93945  24682187.765    24682188.576    24682189.777
 -26775782.47349 -20833912.94248  20725899.996    20725900.508    20725901.718
 -21213524.16649 -16502190.69946  21891717.618    21891718.369    21891720.644
 -11036981.40849  -8546120.12046  22334386.441    22334386.216    22334388.906
 -12900878.57849 -10022069.92146  22218640.302    22218639.676    22218643.013
  -6532525.63449  -5070917.68646  23155157.566    23155157.348    23155161.146
  -5770267.34449  -4466512.38545  23249895.990    23249895.362    23249899.004
 08  9 25  0 38  0.0000000  0  8G14G22G31G30G16G32G29G20
 -18242949.98749 -13755462.25147  21134711.025    21134710.784    21134713.492
   -239303.68049   -162924.19845  24702914.665    24702916.377    24702917.378
 -26785390.57749 -20841399.77648  20724071.640    20724072.133    20724073.187
 -21129631.45049 -16436819.77746  21907681.967    21907682.797    21907684.266
 -11132609.33649  -8620635.37946  22316189.092    22316189.354    22316191.424
 -12920304.57349 -10037207.07546  22214943.432    22214943.355    22214946.716
  -6567276.04649  -5097995.91446  23148544.829    23148545.156    23148547.114
  -5816707.06149  -4502699.19545  23241058.779    23241058.470    23241061.297
 08  9 25  0 38 30.0000000  0  8G14G22G31G30G16G32G29G20
 -18190441.13549 -13714546.28347  21144703.118    21144703.197    21144705.091
   -130424.75349    -78083.52645  24723634.029    24723634.494    24723636.357
 -26794766.34449 -20848705.57248  20722287.495    20722287.889    20722289.177
 -21045390.14949 -16371177.21846  21923712.640    21923713.239    21923715.333
 -11227926.22049  -8694908.25646  22298050.900    22298050.831    22298053.184
 -12939199.13449 -10051930.12746  22211347.929    22211348.124    22211351.417
  -6601547.61749  -5124701.01746  23142023.152    23142023.560    23142026.128
  -5862618.05949  -4538474.00445  23232322.310    23232322.938    23232324.317
 08  9 25  0 39  0.0000000  0  8G14G22G31G30G16G32G29G20
 -18137523.30549 -13673311.62047  21154773.125    21154772.955    21154775.531
    -21590.61649      6722.19645  24744344.554    24744344.996    24744347.505
 -26803910.68249 -20855831.03448  20720547.395    20720547.893    20720549.101
 -20960803.89649 -16305265.87946  21939809.020    21939809.366    21939811.413
 -11322931.42149  -8768938.26446  22279972.015    22279971.816    22279974.366
 -12957562.40749 -10066239.18546  22207853.582    22207853.443    22207856.823
  -6635339.70549  -5151032.49846  23135592.760    23135593.042    23135595.799
  -5907999.96549  -4573836.53245  23223686.680    23223686.396    23223688.663
 08  9 25  0 39 30.0000000  0  8G14G22G31G30G16G32G29G20
 -18084196.91949 -13631758.60547  21164920.793    21164920.930    21164923.270
     87196.16949     91491.07845  24765046.084    24765045.816    24765047.949
 -26812824.15349 -20862776.59948  20718851.226    20718851.787    20718852.916
 -20875875.32649 -16239087.78846  21955970.333    21955970.758    21955972.710
 -11417623.02449  -8842723.92446  22261952.697    22261952.311    22261954.775
 -12975393.94749 -10080133.90746  22204460.332    22204459.672    22204463.528
  -6668650.18449  -5176988.69746  23129253.950    23129253.751    23129257.529
  -5952851.29049  -4608785.62945  23215151.824    23215151.035    23215153.860
 08  9 25  0 40  0.0000000  0  8G14G22G31G30G16G32G29G20
 -18030460.71249 -13589886.25947  21175146.567    21175146.401    21175148.417
    195934.76249    176222.39245  24785738.262    24785738.390    24785741.192
 -26821505.62449 -20869541.38448  20717199.240    20717199.481    20717200.933
 -20790606.09449 -16172644.26546  21972196.516    21972196.275    21972198.962
 -11511997.37449  -8916262.36346  22243993.829    22243993.873    22243995.747
 -12992692.05449 -10093612.96046  22201168.622    22201167.951    22201172.053
  -6701475.82649  -5202567.10446  23123007.355    23123007.845    23123010.401
  -5997169.39249  -4643319.22745  23206718.293    23206717.604    23206720.648
 08  9 25  0 40 30.0000000  0  8G14G22G31G30G16G32G29G20
 -17976315.16549 -13547694.94447  21185450.160    21185449.938    21185451.749
    304622.34049    260913.95745  24806420.985    24806421.342    24806424.700
 -26829955.73749 -20876125.89148  20715591.191    20715591.724    20715592.790
 -20704998.99049 -16105937.45946  21988487.088    21988487.717    21988489.937
 -11606053.25049  -8989552.64446  22226095.655    22226095.694    22226097.931
 -13009456.25749 -10106675.99046  22197978.382    22197977.830    22197981.692
  -6733814.92649  -5227766.40246  23116853.432    23116854.005    23116856.216
  -6040953.19149  -4677436.48345  23198386.494    23198386.072    23198388.611
 08  9 25  0 41  0.0000000  0  8G14G22G31G30G16G32G29G20
 -17921762.03249 -13505186.02247  21195831.192    21195830.792    21195833.441
    413255.07549    345562.78745  24827093.262    24827093.291    24827093.390
 -26838176.25549 -20882531.49348  20714026.892    20714027.347    20714028.683
 -20619058.18149 -16038970.61746  22004841.100    22004841.455    22004843.337
 -11699789.60049  -9062593.93746  22208258.321    22208258.642    22208260.772
 -13025687.59049 -10119323.79246  22194889.654    22194889.458    22194893.289
  -6765666.97949  -5252586.17046  23110792.160    23110792.591    23110794.878
  -6084202.84949  -4711137.52445  23190156.250    23190155.240    23190158.452
 08  9 25  0 41 30.0000000  0  8G14G22G31G30G16G32G29G20
 -17866801.08949 -13462359.33047  21206289.909    21206289.831    21206292.021
    521830.88749    430167.26045  24847754.763    24847755.527    24847753.363
 -26846166.77249 -20888757.87448  20712506.380    20712506.590    20712507.888
 -20532785.82649 -15971745.44146  22021258.285    22021258.690    22021261.023
 -11793204.03549  -9135384.39146  22190482.156    22190481.969    22190484.353
 -13041384.85949 -10131555.44846  22191902.576    22191902.266    22191905.903
  -6797029.57449  -5277024.54846  23104824.120    23104824.623    23104826.737
  -6126915.99449  -4744420.49245  23182028.204    23182026.937    23182031.005
 08  9 25  0 42  0.0000000  0  8G14G22G31G30G16G32G29G20
 -17811432.90249 -13419215.30647  21216826.195    21216825.917    21216828.322
    630347.41549    514725.56145  24868404.870    24868404.662    24868405.761
 -26853927.16149 -20894804.93248  20711029.578    20711029.932    20711031.132
 -20446184.27049 -15904263.74546  22037738.014    22037738.131    22037740.624
 -11886294.41149  -9207922.33946  22172767.633    22172767.203    22172769.809
 -13056547.47849 -10143370.49246  22189017.167    22189017.183    22189020.780
  -6827900.84649  -5301080.08146  23098949.457    23098949.680    23098951.787
  -6169091.21949  -4777284.32145  23174002.330    23174001.013    23174004.459
 08  9 25  0 42 30.0000000  0  8G14G22G31G30G16G32G29G20
 -17755657.41849 -13375753.90447  21227439.990    21227439.799    21227442.233
    738802.52249    599235.98644  24889043.227    24889042.644    24889044.220
 -26861457.80249 -20900672.96748  20709596.572    20709596.894    20709598.358
 -20359256.14449 -15836527.56746  22054279.863    22054280.319    22054282.439
 -11979058.65949  -9280206.16346  22155115.131    22155114.134    22155117.486
 -13071174.86149 -10154768.46146  22186233.652    22186233.340    22186237.472
  -6858278.87649  -5324751.28046  23093168.703    23093169.082    23093171.767
  -6210727.23849  -4809727.96545  23166079.078    23166078.518    23166081.093
 08  9 25  0 43  0.0000000  0  8G14G22G31G30G16G32G29G20
 -17699475.00549 -13331975.41147  21238131.185    21238131.058    21238133.007
    847193.36249    683696.32444  24909669.378    24909668.485    24909672.105
 -26868759.11749 -20906362.30548  20708207.191    20708207.476    20708208.916
 -20272004.38849 -15768539.22246  22070883.276    22070884.325    22070885.861
 -12071494.89249  -9352234.38646  22137525.031    22137524.381    22137527.561
 -13085266.87849 -10165749.27246  22183551.983    22183551.847    22183555.873
  -6888162.00449  -5348036.82146  23087482.225    23087482.558    23087484.843
  -6251823.10949  -4841750.72645  23158258.685    23158257.622    23158260.910
 08  9 25  0 43 30.0000000  0  8G14G22G31G30G16G32G29G20
 -17642886.20949 -13287880.25347  21248899.682    21248899.633    21248901.753
    955517.71049    768104.86944  24930283.050    24930282.784    24930283.114
 -26875831.57949 -20911873.31448  20706861.337    20706861.738    20706862.991
 -20184432.00649 -15700301.02846  22087547.767    22087547.929    22087551.366
 -12163601.27549  -9424005.57646  22119997.754    22119997.524    22119998.797
 -13098823.15549 -10176312.60546  22180972.322    22180972.432    22180976.162
  -6917548.47849  -5370935.35346  23081890.310    23081890.020    23081892.710
  -6292377.59749  -4873351.64145  23150541.298    23150540.454    23150543.922
 08  9 25  0 44  0.0000000  0  8G14G22G31G30G16G32G29G20
 -17585891.69949 -13243468.96547  21259745.339    21259744.925    21259747.496
   1063773.17849    852459.73044  24950883.251    24950882.963    24950886.153
 -26882675.66149 -20917206.36548  20705558.948    20705559.409    20705560.523
 -20096541.37349 -15631814.85646  22104272.768    22104272.840    22104275.847
 -12255376.33349  -9495518.60346  22102533.573    22102532.905    22102535.302
 -13111843.43449 -10186458.29046  22178494.666    22178494.378    22178498.538
  -6946436.64649  -5393445.63046  23076393.073    23076392.846    23076395.078
  -6332389.39049  -4904529.67845  23142927.323    23142926.865    23142930.119
 08  9 25  0 44 30.0000000  0  8G14G22G31G30G16G32G29G20
 -17528493.76449 -13198743.31047  21270667.846    21270667.983    21270670.259
   1171954.96648    936757.18144  24971469.559    24971470.940    24971470.505
 -26889293.21349 -20922362.90048  20704299.765    20704300.041    20704301.304
 -20008337.26149 -15563084.40346  22121057.581    22121058.190    22121059.929
 -12346819.62749  -9566773.10846  22085132.394    22085131.691    22085134.383
 -13124329.29449 -10196187.54146  22176118.689    22176119.062    22176122.042
  -6974826.89349  -5415567.88446  23070990.516    23070990.915    23070993.221
  -6371859.65049  -4935285.72845  23135416.439    23135416.524    23135419.516
 08  9 25  0 45  0.0000000  0  8G14G22G31G30G16G32G29G20
 -17470689.57749 -13153701.10047  21281667.701    21281667.518    21281669.711
   1280064.27649   1020998.14745  24992042.096    24992040.960    24992044.859
 -26895681.19949 -20927340.55248  20703084.172    20703084.473    20703085.789
 -19919818.84249 -15494109.05046  22137902.116    22137902.329    22137905.020
 -12437926.27749  -9637765.30146  22067795.211    22067794.124    22067796.428
 -13136277.05249 -10205497.48946  22173845.153    22173844.867    22173848.933
  -7002714.13949  -5437298.20746  23065683.773    23065683.600    23065685.823
  -6410783.40349  -4965615.94045  23128009.550    23128009.072    23128013.105
 08  9 25  0 45 30.0000000  0  8G14G22G31G30G16G32G29G20
 -17412481.07649 -13108343.83947  21292744.423    21292744.220    21292746.597
   1388097.38049   1105179.74444  25012600.019    25012600.127    25012603.323
 -26901841.74249 -20932140.97548  20701911.786    20701912.104    20701913.428
 -19830990.48349 -15424892.17046  22154805.556    22154805.767    22154808.277
 -12528695.71349  -9708494.73146  22050522.365    22050521.701    22050524.486
 -13147687.99149 -10214389.15146  22171673.774    22171673.620    22171677.381
  -7030097.97549  -5458636.25646  23060472.703    23060472.727    23060474.980
  -6449161.26049  -4995520.78445  23120706.517    23120706.968    23120709.770
 08  9 25  0 46  0.0000000  0  8G14G22G31G30G16G32G29G20
 -17353868.41149 -13062671.64347  21303898.100    21303897.788    21303900.027
   1496051.94649   1189300.11145  25033143.116    25033144.395    25033144.607
 -26907774.69849 -20936764.05448  20700782.803    20700783.236    20700784.372
 -19741854.74049 -15355435.77846  22171767.588    22171767.455    22171770.485
 -12619125.88549  -9778959.78546  22033314.174    22033314.454    22033315.805
 -13158561.55149 -10222862.07146  22169604.779    22169604.632    22169608.094
  -7056976.63749  -5479580.66446  23055357.741    23055358.537    23055360.139
  -6486991.51449  -5024998.90845  23113507.716    23113506.762    23113511.339
 08  9 25  0 46 30.0000000  0  8G14G22G31G30G16G32G29G20
 -17294852.04349 -13016684.86747  21315128.578    21315128.134    21315130.523
   1603925.08449   1273357.06545  25053670.770    25053670.555    25053672.554
 -26913480.52749 -20941210.15748  20699697.007    20699697.358    20699698.604
 -19652414.45549 -15285742.08346  22188787.449    22188787.932    22188790.755
 -12709215.03549  -9849159.12246  22016170.915    22016171.272    22016173.387
 -13168897.45849 -10230916.04646  22167637.880    22167637.514    22167640.946
  -7083348.57549  -5500130.22546  23050339.306    23050339.982    23050342.058
  -6524273.02349  -5054049.42945  23106413.274    23106412.743    23106416.470
 08  9 25  0 47  0.0000000  0  7G14G31G30G16G32G29G20
 -17235432.60949 -12970384.03047  21326435.667    21326435.646    21326437.483
 -26918959.39749 -20945479.40948  20698654.423    20698654.889    20698656.056
 -19562671.98749 -15215812.92246  22205864.844    22205864.950    22205867.762
 -12798961.20849  -9919091.19846  21999092.719    21999092.185    21999094.836
 -13178695.41549 -10238550.83346  22165773.455    22165774.064    22165776.816
  -7109211.93049  -5520283.48046  23045417.734    23045417.689    23045420.601
  -6561005.06149  -5082671.81045  23099423.458    23099424.101    23099426.440
 08  9 25  0 47 30.0000000  0  7G14G31G30G16G32G29G20
 -17175611.17049 -12923769.92947  21337819.318    21337818.705    21337821.297
 -26924211.95849 -20949572.31548  20697654.927    20697655.231    20697656.244
 -19472630.41149 -15145650.68746  22222999.291    22222999.378    22223001.849
 -12888362.67949  -9988754.67446  21982080.073    21982079.743    21982082.408
 -13187955.92949 -10245766.82846  22164011.382    22164010.955    22164014.443
  -7134565.94349  -5540039.85546  23040593.002    23040592.889    23040595.968
  -6597186.83849  -5110865.40345  23092538.410    23092537.719    23092541.007
 08  9 25  0 48  0.0000000  0  7G14G31G30G16G32G29G20
 -17115388.06449 -12876842.84947  21349279.318    21349279.232    21349281.350
 -26929238.31149 -20953488.95548  20696698.423    20696698.774    20696699.859
 -19382292.07349 -15075257.20246  22240190.161    22240190.377    22240192.742
 -12977417.87649 -10058148.32946  21965133.525    21965133.644    21965135.964
 -13196678.43949 -10252563.61246  22162351.508    22162351.064    22162354.884
  -7159408.68849  -5559397.84246  23035865.712    23035866.092    23035868.392
  -6632817.17249  -5138629.31045  23085758.167    23085757.822    23085761.584
 08  9 25  0 48 30.0000000  0  7G14G31G30G16G32G29G20
 -17054763.61149 -12829603.03347  21360815.716    21360815.875    21360817.931
 -26934038.79649 -20957229.59748  20695784.869    20695785.036    20695786.505
 -19291660.23449 -15004635.02546  22257436.898    22257437.527    22257439.515
 -13066125.10749 -10127270.84046  21948253.232    21948252.991    21948255.563
 -13204863.04849 -10258941.24046  22160794.114    22160794.211    22160797.319
  -7183738.82149  -5578356.38646  23031235.847    23031235.737    23031238.526
  -6667895.40749  -5165963.00745  23079082.925    23079081.684    23079085.714
 08  9 25  0 49  0.0000000  0  7G14G31G30G16G32G29G20
 -16993738.31349 -12782050.87247  21372428.487    21372428.426    21372430.579
 -26938613.37249 -20960794.20548  20694914.352    20694914.739    20694916.088
 -19200736.96649 -14933785.75046  22274739.025    22274739.479    22274741.719
 -13154482.06449 -10196120.40946  21931439.509    21931439.041    21931441.713
 -13212509.16249 -10264899.26246  22159339.178    22159339.409    22159342.571
  -7207554.36049  -5596913.94946  23026703.839    23026704.374    23026706.187
  -6702419.68849  -5192865.05645  23072512.938    23072512.272    23072515.747
 08  9 25  0 49 30.0000000  0  7G14G31G30G16G32G29G20
 -16932312.23849 -12734186.42247  21384117.493    21384117.513    21384119.655
 -26942961.81049 -20964182.59948  20694086.879    20694087.341    20694088.327
 -19109524.53549 -14862711.15646  22292096.177    22292096.173    22292099.019
 -13242486.36449 -10264695.18146  21914692.862    21914692.874    21914695.025
 -13219616.26849 -10270437.28446  22157986.775    22157986.415    22157989.615
  -7230853.15049  -5615068.86046  23022270.226    23022270.594    23022273.078
  -6736389.09749  -5219334.74145  23066048.963    23066049.136    23066051.087
 08  9 25  0 50  0.0000000  0  7G14G31G30G16G32G29G20
 -16870488.07449 -12686011.77047  21395882.269    21395882.149    21395884.672
 -26947086.44449 -20967396.60148  20693301.963    20693302.305    20693303.590
 -19018027.86749 -14791415.08346  22309507.476    22309507.729    22309510.833
 -13330138.55449 -10332995.58146  21898013.191    21898012.811    21898015.345
 -13226186.28749 -10275556.80246  22156736.480    22156736.341    22156739.306
  -7253636.09549  -5632821.80746  23017934.879    23017935.055    23017937.252
  -6769804.20549  -5245372.49645  23059690.517    23059689.729    23059692.127
 08  9 25  0 50 30.0000000  0  7G14G31G30G16G32G29G20
 -16808263.95149 -12637525.46247  21407723.092    21407723.172    21407725.638
 -26950985.28749 -20970434.66448  20692560.027    20692560.438    20692561.766
 -18926246.97349 -14719897.53246  22326972.884    22326973.548    22326975.576
 -13417434.57449 -10401018.44646  21881401.227    21881400.652    21881403.817
 -13232216.94349 -10280256.03146  22155588.886    22155588.795    22155591.478
  -7275899.31449  -5650169.77046  23013698.261    23013697.968    23013701.188
  -6802661.98849  -5270975.96445  23053437.931    23053437.108    23053440.151
 08  9 25  0 51  0.0000000  0  7G14G31G30G16G32G29G20
 -16745641.10849 -12588728.46247  21419639.872    21419639.832    21419642.249
 -26954659.05249 -20973297.34048  20691860.947    20691861.293    20691862.623
 -18834184.94349 -14648160.92246  22344491.771    22344492.190    22344495.068
 -13504372.88249 -10468762.57646  21864857.339    21864856.545    21864858.581
 -13237708.51949 -10284535.19146  22154543.896    22154543.449    22154547.178
  -7297641.83449  -5667112.00546  23009560.698    23009560.473    23009563.208
  -6834961.94249  -5296144.76945  23047291.386    23047290.853    23047293.945
 08  9 25  0 51 30.0000000  0  7G14G31G30G16G32G29G20
 -16682620.77349 -12539621.73147  21431632.316    21431631.980    21431634.473
 -26958108.71649 -20975985.39048  20691204.472    20691204.747    20691206.024
 -18741845.38849 -14576208.05746  22362063.452    22362063.835    22362066.602
 -13590952.50549 -10536227.20946  21848381.795    21848381.780    21848383.876
 -13242661.87449 -10288394.97246  22153601.258    22153601.531    22153604.175
  -7318863.05049  -5683648.01846  23005522.379    23005522.778    23005525.971
  -6866703.99149  -5320878.83045  23041251.063    23041249.615    23041253.622
 08  9 25  0 52  0.0000000  0  7G14G31G30G16G32G29G20
 -16619202.91549 -12490205.23347  21443700.292    21443700.125    21443702.573
 -26961333.83649 -20978498.47448  20690590.738    20690591.222    20690592.396
 -18649230.67349 -14504040.77346  22379687.494    22379687.944    22379690.032
 -13677171.25449 -10603410.63846  21831974.953    21831974.319    21831977.265
 -13247076.15249 -10291834.68246  22152761.328    22152761.392    22152763.986
  -7339560.59249  -5699775.96446  23001583.836    23001584.015    23001586.339
  -6897886.67049  -5345177.03045  23035317.136    23035316.782    23035320.653
 08  9 25  0 52 30.0000000  0  7G14G31G30G16G32G29G20
 -16555391.15549 -12440481.79547  21455843.276    21455843.099    21455845.483
 -26964337.55249 -20980839.03248  20690019.175    20690019.667    20690020.845
 -18556345.70249 -14431662.90146  22397363.018    22397363.708    22397365.394
 -13763029.98749 -10670313.54146  21815636.604    21815636.379    21815637.755
 -13250954.21649 -10294856.56146  22152023.366    22152022.824    22152025.924
  -7359736.04749  -5715497.09246  22997744.569    22997745.322    22997746.902
  -6928511.62149  -5369040.63145  23029489.584    23029490.046    23029492.320
 08  9 25  0 53  0.0000000  0  7G14G31G30G16G32G29G20
 -16491183.08349 -12390449.55147  21468061.722    21468061.440    21468064.067
 -26967116.67249 -20983004.58448  20689490.348    20689490.654    20689491.898
 -18463190.16749 -14359074.19946  22415089.911    22415090.196    22415093.152
 -13848524.02249 -10736932.25346  21799367.666    21799367.392    21799369.918
 -13254293.23649 -10297458.40846  22151387.939    22151387.893    22151391.037
  -7379385.17049  -5730808.10146  22994005.517    22994006.131    22994007.963
  -6958575.37149  -5392466.94845  23023768.796    23023768.956    23023772.144
 08  9 25  0 53 30.0000000  0  7G14G31G30G16G32G29G20
 -16426580.26749 -12340109.70847  21480355.198    21480355.060    21480357.354
 -26969672.57649 -20984996.20348  20689003.932    20689004.510    20689005.402
 -18369767.43749 -14286277.29246  22432867.709    22432868.099    22432870.324
 -13933652.32549 -10803265.98246  21783168.320    21783167.897    21783170.070
 -13257093.95349 -10299640.79146  22150854.908    22150853.993    22150857.913
  -7398507.35349  -5745708.50246  22990366.690    22990366.650    22990369.174
  -6988077.85049  -5415455.89745  23018154.818    23018153.754    23018156.901
 08  9 25  0 54  0.0000000  0  7G14G31G30G16G32G29G20
 -16361581.50649 -12289461.34047  21492724.058    21492724.017    21492726.347
 -26972003.53949 -20986812.54148  20688560.355    20688560.877    20688561.968
 -18276078.93849 -14213273.29146  22450696.042    22450695.857    22450698.446
 -14018411.77549 -10869312.29146  21767039.173    21767038.343    21767040.724
 -13259354.83249 -10301402.53546  22150424.726    22150424.450    22150427.600
  -7417099.68049  -5760196.03446  22986828.611    22986828.830    22986832.046
  -7017016.53749  -5438005.53945  23012647.850    23012648.035    23012650.316
 08  9 25  0 54 30.0000000  0  7G14G31G30G16G32G29G20
 -16296188.63849 -12238505.86447  21505167.878    21505167.442    21505170.270
 -26974111.15949 -20988454.84348  20688159.366    20688159.725    20688160.965
 -18182127.98549 -14140064.78746  22468574.319    22468574.759    22468577.681
 -14102801.68349 -10935070.64546  21750980.246    21750979.900    21750982.378
 -13261077.05649 -10302744.53846  22150096.905    22150096.537    22150100.165
  -7435161.80149  -5774270.42746  22983391.546    22983391.979    22983394.023
  -7045391.72949  -5460116.07945  23007248.209    23007247.874    23007250.915
 08  9 25  0 55  0.0000000  0  7G14G31G30G16G32G29G20
 -16230403.14249 -12187244.45347  21517686.394    21517686.236    21517688.825
 -26975996.47749 -20989923.92648  20687800.597    20687800.993    20687802.309
 -18087918.14849 -14066654.56946  22486501.773    22486502.348    22486504.663
 -14186821.05749 -11000540.27946  21734991.853    21734991.429    21734993.716
 -13262261.49749 -10303667.49146  22149871.393    22149870.674    22149875.384
  -7452693.37249  -5787931.39246  22980055.366    22980055.678    22980057.955
  -7073203.55849  -5481787.64645  23001955.756    23001955.068    23001958.823
 08  9 25  0 55 30.0000000  0  7G14G31G30G16G32G29G20
 -16164225.21549 -12135677.25347  21530279.682    21530279.258    21530281.865
 -26977658.82949 -20991219.27148  20687484.249    20687484.592    20687485.993
 -17993451.38749 -13993044.13946  22504478.261    22504478.354    22504480.886
 -14270467.64049 -11065719.43146  21719074.372    21719074.248    21719076.464
 -13262907.70449 -10304171.04846  22149748.358    22149747.519    22149751.927
  -7469692.28649  -5801177.30646  22976820.543    22976821.038    22976823.612
  -7100450.64649  -5503019.14145  22996770.833    22996770.157    22996773.486
 08  9 25  0 56  0.0000000  0  7G14G31G30G16G32G29G20
 -16097656.29649 -12083805.38047  21542947.289    21542947.048    21542949.892
 -26979099.12249 -20992341.57648  20687210.168    20687210.582    20687211.747
 -17898730.99649 -13919236.07146  22522503.000    22522503.705    22522505.598
 -14353740.32549 -11130607.22246  21703228.097    21703227.668    21703230.478
 -13263016.50649 -10304255.84646  22149727.565    22149727.763    22149731.415
  -7486158.10849  -5814007.81346  22973687.191    22973686.558    22973689.801
  -7127132.86849  -5523810.49645  22991693.303    22991692.423    22991694.802
 08  9 25  0 56 30.0000000  0  7G14G31G30G16G32G29G20
 -16030696.26749 -12031628.75047  21555689.330    21555689.457    21555691.523
 -26980316.73049 -20993290.36148  20686978.431    20686978.783    20686980.005
 -17803758.86449 -13845231.83146  22540575.547    22540574.835    22540578.697
 -14436636.73249 -11195201.81546  21687453.385    21687453.458    21687455.247
 -13262587.34149 -10303921.43646  22149809.364    22149808.886    22149812.957
  -7502088.78049  -5826421.32746  22970655.625    22970654.966    22970658.301
  -7153248.72449  -5544160.51645  22986723.651    22986723.722    22986725.746
 08  9 25  0 57  0.0000000  0  7G14G31G30G16G32G29G20
 -15963346.96849 -11979148.79447  21568505.519    21568505.314    21568507.999
 -26981313.23949 -20994066.86748  20686788.857    20686789.284    20686790.737
 -17708538.44649 -13771034.12746  22558695.352    22558695.610    22558697.153
 -14519156.49349 -11259502.92646  21671750.425    21671750.329    21671753.191
 -13261621.45749 -10303168.81546  22149993.145    22149992.599    22149996.195
  -7517484.54649  -5838418.04246  22967725.875    22967726.654    22967728.598
  -7178798.78949  -5564069.67445  22981861.642    22981861.478    22981863.608
 08  9 25  0 57 30.0000000  0  7G14G31G30G16G32G29G20
 -15895608.76149 -11926365.79547  21581395.687    21581395.671    21581398.270
 -26982088.35349 -20994670.85448  20686641.353    20686641.846    20686643.059
 -17613072.24249 -13696644.92246  22576862.001    22576862.164    22576865.087
 -14601297.57049 -11323508.96046  21656119.453    21656118.911    21656121.248
 -13260118.68849 -10301997.84246  22150279.068    22150279.231    22150282.353
  -7532343.49649  -5849996.45146  22964898.434    22964898.472    22964901.422
  -7203781.98649  -5583537.11245  22977107.553    22977106.320    22977109.994
 08  9 25  0 58  0.0000000  0  7G14G31G30G16G32G29G20
 -15827482.20449 -11873280.18447  21594359.898    21594359.716    21594362.326
 -26982641.92449 -20995102.20848  20686536.007    20686536.529    20686537.778
 -17517362.51149 -13622065.93946  22595074.964    22595075.305    22595077.518
 -14683057.89949 -11387218.30146  21640560.886    21640559.862    21640562.907
 -13258079.20849 -10300408.64146  22150667.246    22150667.192    22150670.889
  -7546664.43749  -5861155.62846  22962173.364    22962174.108    22962176.349
  -7228197.67349  -5602562.34445  22972461.410    22972461.546    22972463.428
 08  9 25  0 58 30.0000000  0  7G14G31G30G16G32G29G20
 -15758968.78449 -11819893.13447  21607397.676    21607397.570    21607399.915
 -26982974.65549 -20995361.48348  20686472.679    20686473.063    20686474.284
 -17421412.43349 -13547299.67646  22613333.702    22613333.595    22613336.343
 -14764436.61949 -11450630.28546  21625075.025    21625074.532    21625077.844
 -13255503.78249 -10298401.83646  22151157.377    22151157.203    22151161.348
  -7560446.83449  -5871895.15946  22959550.691    22959551.193    22959553.521
  -7252045.74849  -5621145.26545  22967923.307    22967922.388    22967926.362
 08  9 25  0 59  0.0000000  0  7G14G31G30G16G32G29G20
 -15690068.22749 -11766204.41447  21620509.073    21620508.783    21620511.107
 -26983085.48549 -20995447.84348  20686451.602    20686452.167    20686453.302
 -17325223.49649 -13472347.29146  22631637.717    22631638.083    22631641.394
 -14845431.13949 -11513742.89346  21609662.282    21609662.112    21609664.201
 -13252391.54949 -10295976.72846  22151749.581    22151749.023    22151753.091
  -7573688.14149  -5882213.06246  22957030.805    22957030.958    22957033.117
  -7275324.54149  -5639284.59045  22963493.310    22963491.995    22963495.612
 08  9 25  0 59 30.0000000  0  7G14G31G30G16G32G29G20
 -15620781.07549 -11712214.45047  21633694.010    21633693.955    21633696.478
 -26982974.63749 -20995361.47048  20686472.709    20686473.033    20686474.419
 -17228798.09849 -13397210.65146  22649986.867    22649987.810    22649990.723
 -14926039.50249 -11576554.60346  21594322.934    21594322.512    21594325.250
 -13248742.70149 -10293133.48846  22152443.910    22152444.062    22152447.866
  -7586387.34449  -5892108.55346  22954614.227    22954614.421    22954616.974
  -7298033.21449  -5656979.67345  22959171.776    22959170.907    22959175.444
 08  9 25  1  0  0.0000000  0  7G14G31G30G16G32G29G20
 -15551109.53849 -11657924.95947  21646951.996    21646951.767    21646954.933
 -26982643.69949 -20995103.59548  20686535.742    20686536.139    20686537.389
 -17132140.29549 -13321892.91246  22668380.422    22668380.317    22668383.457
 -15006261.44149 -11639065.19747  21579057.275    21579056.690    21579059.625
 -13244558.89049 -10289873.38946  22153240.154    22153239.951    22153244.139
  -7598545.19849  -5901582.19946  22952300.750    22952301.342    22952303.079
  -7320172.72649  -5674231.24745  22954958.741    22954958.343    22954961.617
 08  9 25  1  0 30.0000000  0  7G14G31G30G16G32G29G20
 -15481055.82549 -11603337.67047  21660282.768    21660282.518    21660285.111
 -26982094.30249 -20994675.49548  20686640.256    20686640.617    20686641.856
 -17035254.08049 -13246397.19446  22686817.313    22686817.253    22686820.551
 -15086097.04049 -11701274.74447  21563865.038    21563864.947    21563867.313
 -13239842.09149 -10286197.97846  22154137.800    22154137.590    22154141.621
  -7610161.52149  -5910633.87946  22950090.213    22950090.523    22950092.448
  -7341744.10949  -5691040.12645  22950853.864    22950854.004    22950856.288
 08  9 25  1  1  0.0000000  0  7G14G31G30G16G32G29G20
 -15410618.82549 -11548451.71646  21673686.475    21673685.939    21673688.919
 -26981324.55349 -20994075.68848  20686786.686    20686787.095    20686788.382
 -16938139.92349 -13170723.84946  22705297.487    22705297.600    22705300.531
 -15165542.63149 -11763180.39047  21548747.130    21548747.283    21548749.174
 -13234590.59149 -10282105.91146  22155137.234    22155137.577    22155140.427
  -7621233.66349  -5919261.52646  22947983.190    22947983.492    22947985.759
  -7362744.88849  -5707404.38645  22946857.699    22946856.932    22946860.336
 08  9 25  1  1 30.0000000  0  7G14G31G30G16G32G29G20
 -15339798.99349 -11493267.44946  21687163.041    21687162.840    21687165.609
 -26980333.92049 -20993303.76948  20686975.244    20686975.545    20686976.800
 -16840799.79149 -13094874.42946  22723820.659    22723820.636    22723824.147
 -15244596.06349 -11824780.45147  21533703.825    21533703.367    21533705.935
 -13228803.98749 -10277596.88546  22156238.429    22156238.775    22156241.767
  -7631759.66749  -5927463.62346  22945980.194    22945980.728    22945982.290
  -7383173.56749  -5723322.85345  22942970.295    22942970.362    22942972.206
 08  9 25  1  2  0.0000000  0  7G14G31G30G16G32G29G20
 -15268597.93149 -11437786.12146  21700712.150    21700711.840    21700714.594
 -26979123.44149 -20992360.53448  20687205.578    20687205.905    20687207.231
 -16743237.04549 -13018851.53746  22742386.273    22742386.543    22742389.981
 -15323256.40449 -11886074.21747  21518735.265    21518734.910    21518737.368
 -13222483.92749 -10272672.18146  22157441.120    22157440.763    22157444.800
  -7641739.74349  -5935240.31146  22944081.018    22944080.703    22944083.816
  -7403031.55649  -5738796.61545  22939191.501    22939190.969    22939194.820
 08  9 25  1  2 30.0000000  0  7G14G31G30G16G32G29G20
 -15197016.52949 -11382008.41546  21714333.622    21714333.240    21714336.079
 -26977693.14149 -20991246.01648  20687477.726    20687478.117    20687479.474
 -16645453.92449 -12942656.93446  22760993.810    22760994.122    22760996.874
 -15401523.02349 -11947061.18347  21503841.587    21503841.191    21503843.233
 -13215630.72449 -10267332.03746  22158745.255    22158744.530    22158748.829
  -7651172.90949  -5942590.84246  22942285.859    22942286.296    22942289.025
  -7422317.89249  -5753824.94146  22935521.367    22935521.389    22935524.491
 08  9 25  1  3  0.0000000  0  7G14G31G30G16G32G29G20
 -15125055.31049 -11325934.75646  21728027.401    21728026.950    21728029.895
 -26976042.89049 -20989960.10848  20687791.765    20687792.209    20687793.654
 -16547452.97549 -12866292.58646  22779642.747    22779642.682    22779646.000
 -15479393.32449 -12007739.34047  21489023.316    21489022.779    21489025.045
 -13208244.34149 -10261576.42546  22160150.898    22160150.587    22160153.412
  -7660057.77249  -5949514.12046  22940595.178    22940595.586    22940597.890
  -7441031.52349  -5768406.99746  22931960.422    22931959.885    22931962.750
 08  9 25  1  3 30.0000000  0  7G14G31G30G16G32G29G20
 -15052716.15849 -11269566.60546  21741793.075    21741792.550    21741795.318
 -26974173.65449 -20988503.55948  20688147.498    20688147.883    20688149.324
 -16449237.69749 -12789761.23946  22798332.493    22798332.673    22798335.519
 -15556866.77149 -12068108.24647  21474280.503    21474280.515    21474283.029
 -13200326.27849 -10255406.51346  22161657.621    22161657.134    22161660.843
  -7668394.34249  -5956010.14946  22939008.842    22939009.474    22939011.613
  -7459173.17549  -5782543.37746  22928508.231    22928508.074    22928510.145
 08  9 25  1  4  0.0000000  0  7G14G31G30G16G32G29G20
 -14979999.33749 -11212904.16746  21755630.669    21755630.550    21755632.996
 -26972085.07449 -20986876.09648  20688544.933    20688545.168    20688546.556
 -16350809.91249 -12713064.29746  22817062.739    22817062.596    22817065.840
 -15633941.39349 -12128166.38947  21459613.640    21459613.139    21459615.758
 -13191876.48149 -10248822.27546  22163265.566    22163265.640    22163268.264
  -7676181.05749  -5962077.71246  22937527.100    22937527.450    22937529.545
  -7476742.34149  -5796233.63146  22925165.063    22925164.339    22925168.098
 08  9 25  1  4 30.0000000  0  7G14G31G30G16G32G29G20
 -14906905.75749 -11155948.15646  21769539.924    21769539.511    21769542.473
 -26969777.11949 -20985077.68648  20688984.082    20688984.514    20688985.843
 -16252172.12449 -12636203.71246  22835832.914    22835832.602    22835835.547
 -15710615.76649 -12187912.64947  21445022.967    21445022.390    21445025.181
 -13182895.43849 -10241824.07546  22164974.651    22164974.248    22164977.770
  -7683417.31249  -5967716.35446  22936150.193    22936150.234    22936152.329
  -7493738.34649  -5809477.29846  22921930.680    22921930.688    22921933.269
 08  9 25  1  5  0.0000000  0  7G14G31G30G16G32G29G20
 -14833436.45949 -11098699.37546  21783520.692    21783520.602    21783523.212
 -26967249.97349 -20983108.48648  20689465.018    20689465.501    20689466.847
 -16153326.70049 -12559181.33246  22854642.590    22854643.170    22854645.498
 -15786888.26349 -12247345.75547  21430508.780    21430508.568    21430511.576
 -13173383.61249 -10234412.26846  22166784.723    22166784.574    22166788.308
  -7690102.02249  -5972925.22046  22934878.284    22934878.244    22934881.504
  -7510161.07449  -5822274.22446  22918805.576    22918804.991    22918809.504
 08  9 25  1  5 30.0000000  0  7G14G31G30G16G32G29G20
 -14759592.66449 -11041158.78646  21797572.771    21797572.834    21797575.127
 -26964504.41149 -20980969.08948  20689987.505    20689987.949    20689989.179
 -16054276.65849 -12481999.52646  22873491.255    22873491.451    22873494.311
 -15862758.05949 -12306465.07547  21416071.173    21416071.013    21416073.532
 -13163342.00149 -10226587.65646  22168695.449    22168694.762    22168698.376
  -7696234.89149  -5977704.07846  22933711.201    22933711.242    22933714.048
  -7526010.60549  -5834624.51846  22915789.467    22915788.480    22915792.818
 08  9 25  1  6  0.0000000  0  7G14G31G30G16G32G29G20
 -14685374.92349 -10983326.80146  21811695.936    21811695.667    21811698.489
 -26961539.57249 -20978658.82248  20690551.705    20690551.889    20690553.329
 -15955023.96249 -12404659.78246  22892378.400    22892378.616    22892381.773
 -15938222.99749 -12365268.91447  21401710.750    21401710.684    21401712.546
 -13152770.82749 -10218350.38946  22170706.911    22170705.980    22170710.250
  -7701814.53149  -5982051.85046  22932649.209    22932649.257    22932651.994
  -7541285.98249  -5846527.40746  22912882.579    22912882.891    22912885.346
 08  9 25  1  6 30.0000000  0  7G14G31G30G16G32G29G20
 -14610785.29849 -10925205.03946  21825889.837    21825889.551    21825892.403
 -26958356.76949 -20976178.71948  20691157.327    20691157.830    20691159.145
 -15855571.81749 -12327164.64046  22911303.550    22911304.964    22911307.056
 -16013282.72249 -12423756.99347  21387427.392    21387427.312    21387429.282
 -13141671.59649 -10209701.64746  22172819.019    22172817.928    22172822.302
  -7706841.31949  -5985968.83546  22931692.671    22931692.889    22931695.068
  -7555988.29849  -5857983.76946  22910084.833    22910084.389    22910088.095
 08  9 25  1  7  0.0000000  0  7G14G31G30G16G32G29G20
 -14535824.12649 -10866793.76646  21840154.580    21840154.696    21840156.803
 -26954955.36549 -20973528.27848  20691804.626    20691805.111    20691806.330
 -15755922.54849 -12249515.88946  22930266.235    22930267.916    22930269.194
 -16087935.17949 -12481927.73447  21373221.579    21373221.557    21373223.798
 -13130044.37049 -10200641.48946  22175031.699    22175031.445    22175035.109
  -7711314.24149  -5989454.22546  22930841.517    22930841.988    22930844.454
  -7570116.69249  -5868992.90346  22907396.269    22907396.120    22907399.253
 08  9 25  1  7 30.0000000  0  7G14G31G30G16G32G29G20
 -14460492.47649 -10808093.80346  21854489.763    21854489.871    21854491.630
 -26951336.18249 -20970708.13948  20692493.354    20692493.945    20692495.112
 -15656078.72949 -12171715.56046  22949266.002    22949266.214    22949268.572
 -16162179.41249 -12539780.36547  21359093.414    21359092.878    21359095.734
 -13117890.06349 -10191170.62146  22177344.630    22177344.434    22177347.685
  -7715232.32649  -5992507.27846  22930095.833    22930096.435    22930098.165
  -7583671.18249  -5879554.85546  22904816.929    22904817.005    22904819.475
 08  9 25  1  8  0.0000000  0  7G14G31G30G16G32G29G20
 -14384791.84649 -10749106.32346  21868895.181    21868895.139    21868897.295
 -26947499.00949 -20967718.13348  20693223.574    20693223.909    20693225.214
 -15556042.99649 -12093765.65146  22968302.215    22968303.125    22968305.959
 -16236014.02449 -12597313.81747  21345043.151    21345042.714    21345045.152
 -13105209.34449 -10181289.55546  22179757.661    22179757.373    22179760.463
  -7718594.96449  -5995127.51446  22929455.906    22929456.258    22929458.903
  -7596651.85149  -5889669.67646  22902346.890    22902346.356    22902349.831
 08  9 25  1  8 30.0000000  0  7G14G31G30G16G32G29G20
 -14308724.18149 -10689832.85246  21883370.307    21883370.288    21883372.484
 -26943445.05649 -20964559.21048  20693994.982    20693995.395    20693996.712
 -15455818.90649 -12015669.00046  22987374.306    22987374.752    22987377.732
 -16309438.95949 -12654528.03947  21331070.841    21331070.257    21331072.943
 -13092004.34749 -10170999.96046  22182270.514    22182269.934    22182273.739
  -7721402.99849  -5997315.58946  22928921.611    22928921.758    22928924.770
  -7609059.83649  -5899338.24146  22899985.874    22899985.160    22899988.840
 08  9 25  1  9  0.0000000  0  7G14G31G30G16G32G29G20
 -14232289.15049 -10630273.11046  21897915.422    21897915.469    21897917.382
 -26939173.11449 -20961230.42248  20694807.907    20694808.282    20694809.569
 -15355407.30649 -11937426.22446  23006482.004    23006482.234    23006484.907
 -16382451.40149 -12711420.83547  21317176.967    21317176.736    21317179.093
 -13078274.32849 -10160301.26146  22184883.183    22184883.465    22184886.274
  -7723654.10749  -5999069.71146  22928493.304    22928493.504    22928496.150
  -7620893.56449  -5908559.34346  22897733.987    22897733.179    22897736.150
 08  9 25  1  9 30.0000000  0  7G14G31G30G16G32G29G20
 -14155487.45149 -10570427.65246  21912530.406    21912529.841    21912531.802
 -26934682.74349 -20957731.43748  20695662.403    20695662.961    20695663.934
 -15254810.23349 -11859038.92846  23025624.900    23025624.912    23025627.905
 -16455049.38749 -12767990.68347  21303362.019    21303361.580    21303363.990
 -13064019.29249 -10149193.45346  22187595.895    22187596.227    22187599.609
  -7725347.22349  -6000389.02646  22928171.159    22928171.167    22928174.112
  -7632152.42649  -5917332.49345  22895591.336    22895590.982    22895594.156
 08  9 25  1 10  0.0000000  0  7G14G31G30G16G32G29G20
 -14078320.58949 -10510297.65246  21927214.749    21927214.515    21927217.271
 -26929974.73449 -20954062.85348  20696558.320    20696558.621    20696559.978
 -15154030.71249 -11780509.47046  23044802.505    23044802.605    23044805.176
 -16527232.25449 -12824237.06047  21289626.017    21289625.809    21289628.219
 -13049240.79849 -10137677.75446  22190408.218    22190408.190    22190412.136
  -7726482.30449  -6001273.50746  22927955.203    22927955.737    22927958.129
  -7642836.99349  -5925658.12345  22893558.077    22893558.419    22893561.887
 08  9 25  1 10 30.0000000  0  7G14G31G30G16G32G29G20
 -14000789.92549 -10449884.17046  21941968.379    21941967.902    21941970.676
 -26925049.03449 -20950224.64748  20697495.625    20697496.192    20697497.411
 -15053071.48149 -11701839.97645  23064014.361    23064015.225    23064017.876
 -16598999.02949 -12880159.21247  21275969.179    21275968.583    21275971.742
 -13033939.85749 -10125754.96146  22193319.993    22193319.714    22193323.259
  -7727059.35049  -6001723.15146  22927845.511    22927845.773    22927848.074
  -7652947.57649  -5933536.51646  22891634.116    22891633.722    22891638.002
 08  9 25  1 11  0.0000000  0  7G14G31G30G16G32G29G20
 -13922896.63149 -10389188.12346  21956790.944    21956790.960    21956793.110
 -26919906.30049 -20946217.32248  20698474.250    20698474.534    20698475.972
 -14951935.02749 -11623032.38245  23083260.063    23083260.521    23083262.354
 -16670348.33849 -12935756.06547  21262391.877    21262391.852    21262394.188
 -13018117.44349 -10113425.82646  22196331.006    22196330.620    22196334.140
  -7727077.83649  -6001737.56046  22927841.923    22927842.145    22927844.403
  -7662484.39549  -5940967.81546  22889819.404    22889818.119    22889823.224
 08  9 25  1 11 30.0000000  0  7G14G31G30G16G32G29G20
 -13844641.75349 -10328210.31546  21971682.420    21971682.611    21971684.537
 -26914546.19349 -20942040.61548  20699494.211    20699494.788    20699495.797
 -14850623.73349 -11544088.54645  23102539.032    23102539.785    23102541.654
 -16741278.84949 -12991026.57947  21248894.252    21248894.147    21248896.704
 -13001774.18749 -10100690.82846  22199441.053    22199441.147    22199444.541
  -7726537.02349  -6001316.14546  22927944.789    22927944.944    22927947.309
  -7671447.19749  -5947951.82345  22888113.909    22888112.989    22888116.613
 08  9 25  1 12  0.0000000  0  7G14G31G30G16G32G29G20
 -13766027.01049 -10266952.10446  21986642.355    21986642.644    21986644.918
 -26908969.20149 -20937694.90148  20700555.513    20700555.933    20700557.119
 -14749140.72249 -11465010.91045  23121850.616    23121850.556    23121854.391
 -16811790.12849 -13045970.41747  21235476.416    21235476.126    21235478.546
 -12984911.59749 -10087551.15546  22202649.997    22202650.095    22202653.687
  -7725436.93049  -6000458.94346  22928154.113    22928154.949    22928157.052
  -7679836.60449  -5954489.02846  22886517.426    22886516.654    22886519.911
 08  9 25  1 12 30.0000000  0  7G14G31G30G16G32G29G20
 -13687052.26849 -10205413.36746  22001670.731    22001670.401    22001673.061
 -26903174.14449 -20933179.26748  20701658.253    20701658.480    20701659.820
 -14647486.79849 -11385800.10145  23141194.891    23141195.863    23141197.323
 -16881879.33449 -13100585.37247  21222138.857    21222138.509    21222140.933
 -12967529.15749 -10074006.41946  22205957.853    22205958.125    22205961.323
  -7723775.69949  -5999164.47846  22928470.227    22928470.810    22928473.105
  -7687651.39849  -5960578.50846  22885030.335    22885030.913    22885032.603
 08  9 25  1 13  0.0000000  0  7G14G31G30G16G32G29G20
 -13607719.92149 -10143595.98246  22016767.180    22016766.959    22016769.423
 -26897162.65049 -20928494.98548  20702802.186    20702802.728    20702803.741
 -14545665.66649 -11306458.98345  23160570.785    23160570.431    23160573.994
 -16951546.73549 -13154871.64547  21208881.543    21208881.087    21208883.879
 -12949629.07149 -10060058.31146  22209364.161    22209363.767    22209367.315
  -7721554.46649  -5997433.65246  22928892.863    22928893.577    22928895.706
  -7694893.15949  -5966221.45145  22883652.347    22883651.268    22883654.358
 08  9 25  1 13 30.0000000  0  7G14G31G30G16G32G29G20
 -13528030.26849 -10081500.17646  22031931.704    22031931.391    22031934.189
 -26890934.22349 -20923641.67048  20703987.479    20703987.837    20703989.172
 -14443679.19149 -11226989.03145  23179977.916    23179978.485    23179981.090
 -17020790.31049 -13208827.67147  21195704.934    21195705.149    21195707.287
 -12931211.75849 -10045707.17546  22212868.771    22212867.682    22212872.302
  -7718772.09749  -5995265.58246  22929422.260    22929421.991    22929425.073
  -7701561.28849  -5971417.40446  22882383.402    22882382.546    22882385.907
 08  9 25  1 14  0.0000000  0  7G14G31G30G16G32G29G20
 -13447985.01249 -10019127.26946  22047163.814    22047163.396    22047165.836
 -26884488.93349 -20918619.36848  20705213.987    20705214.648    20705215.458
 -14341529.79649 -11147392.13445  23199416.366    23199416.188    23199419.769
 -17089609.13049 -13262452.70947  21182609.180    21182608.925    21182610.903
 -12912278.32049 -10030953.85346  22216471.655    22216471.307    22216474.856
  -7715428.37949  -5992660.09146  22930058.447    22930058.961    22930061.259
  -7707656.07749  -5976166.60446  22881223.539    22881222.349    22881225.691
 08  9 25  1 14 30.0000000  0  7G14G31G30G16G32G29G20
 -13367585.33549  -9956478.19746  22062463.317    22062463.065    22062465.645
 -26877826.69649 -20913428.01048  20706481.802    20706482.231    20706483.309
 -14239219.86049 -11067670.15145  23218885.391    23218886.030    23218888.807
 -17158001.70949 -13315745.61947  21169594.458    21169594.365    21169596.986
 -12892829.64349 -10015799.05446  22220172.561    22220171.585    22220176.001
  -7711522.65449  -5989616.66346  22930801.750    22930801.786    22930804.455
  -7713177.78649  -5980469.24945  22880172.870    22880172.686    22880175.664
 08  9 25  1 15  0.0000000  0  7G14G31G30G16G32G29G20
 -13286833.58249  -9893554.76946  22077829.868    22077830.126    22077831.815
 -26870948.84349 -20908068.64848  20707790.567    20707790.765    20707792.108
 -14136753.20949 -10987826.04145  23238384.172    23238384.531    23238387.905
 -17225968.64649 -13368706.85647  21156660.766    21156660.479    21156662.641
 -12872868.18649 -10000244.68846  22223971.028    22223970.945    22223975.065
  -7707056.35849  -5986136.42746  22931651.708    22931651.878    22931655.454
  -7718128.10949  -5984326.65146  22879230.847    22879231.308    22879233.869
 08  9 25  1 15 30.0000000  0  7G14G31G30G16G32G29G20
 -13205729.49849  -9830356.81546  22093263.522    22093263.082    22093266.122
 -26863854.07349 -20902540.26648  20709140.654    20709140.940    20709142.325
 -14034130.74349 -10907860.51745  23257912.606    23257912.892    23257916.114
 -17293507.29349 -13421334.36147  21143808.569    21143808.376    21143810.715
 -12852393.22949  -9984290.18446  22227867.228    22227866.358    22227870.853
  -7702027.35349  -5982217.72346  22932608.616    22932609.265    22932611.698
  -7722505.63249  -5987737.72646  22878397.841    22878397.225    22878400.702
 08  9 25  1 16  0.0000000  0  7G14G31G30G16G32G29G20
 -13124274.75549  -9766885.61346  22108763.848    22108763.851    22108765.885
 -26856542.76449 -20896843.14948  20710531.917    20710532.217    20710533.714
 -13931355.18349 -10827775.71645  23277470.254    23277470.962    23277472.971
 -17360616.54549 -13473627.28047  21131038.033    21131037.877    21131040.184
 -12831406.62549  -9967937.00246  22231860.712    22231860.733    22231863.732
  -7696435.97549  -5977860.80946  22933672.606    22933672.989    22933676.324
  -7726311.05449  -5990703.00346  22877673.793    22877673.017    22877676.042
 08  9 25  1 16 30.0000000  0  7G14G31G30G16G32G29G20
 -13042472.63449  -9703143.70746  22124330.318    22124329.855    22124332.447
 -26849016.83349 -20890978.79348  20711964.063    20711964.355    20711965.745
 -13828430.73949 -10747574.90345  23297056.024    23297056.403    23297059.048
 -17427297.61549 -13525586.55047  21118349.082    21118348.801    21118351.459
 -12809911.05649  -9951187.21846  22235951.165    22235950.712    22235954.923
  -7690283.84749  -5973066.93546  22934843.386    22934843.648    22934846.528
  -7729546.89149  -5993224.45045  22877058.049    22877057.663    22877059.838
 08  9 25  1 17  0.0000000  0  7G14G31G30G16G32G29G20
 -12960321.51549  -9639129.86946  22139962.997    22139962.713    22139964.399
 -26841273.57149 -20884945.08548  20713437.557    20713438.015    20713439.252
 -13725357.11549 -10667257.83345  23316670.241    23316670.655    23316673.595
 -17493546.66549 -13577209.17347  21105742.308    21105742.199    21105744.561
 -12787905.03349  -9934039.68346  22240138.786    22240138.572    22240142.408
  -7683568.20149  -5967833.96046  22936121.338    22936121.364    22936124.525
  -7732210.41849  -5995299.93346  22876551.238    22876551.493    22876553.794
 08  9 25  1 17 30.0000000  0  7G14G31G30G16G32G29G20
 -12877822.92149  -9574845.26846  22155661.933    22155661.645    22155664.109
 -26833313.29149 -20878742.27748  20714952.313    20714952.717    20714954.141
 -13622136.67549 -10586826.35745  23336312.624    23336313.266    23336316.286
 -17559362.36149 -13628494.12947  21093218.032    21093217.979    21093220.013
 -12765389.74849  -9916495.31146  22244423.294    22244423.116    22244427.155
  -7676288.84749  -5962161.73046  22937506.562    22937506.884    22937509.577
  -7734302.18549  -5996929.89546  22876153.288    22876153.009    22876156.633
 08  9 25  1 18  0.0000000  0  7G14G31G30G16G32G29G20
 -12794979.59849  -9510292.05246  22171426.598    22171426.261    22171428.947
 -26825137.48349 -20872371.52648  20716508.127    20716508.610    20716509.916
 -13518773.21049 -10506283.43445  23355982.138    23355982.470    23355985.925
 -17624745.25649 -13679441.83047  21080776.087    21080775.992    21080778.240
 -12742367.72649  -9898556.09846  22248804.314    22248804.103    22248808.035
  -7668446.80949  -5956051.04146  22938998.922    22938999.551    22939001.723
  -7735824.14049  -5998115.84646  22875863.628    22875862.690    22875866.494
 08  9 25  1 18 30.0000000  0  7G14G31G30G16G32G29G20
 -12711791.82249  -9445470.43546  22187256.713    22187257.191    22187258.544
 -26816745.46149 -20865832.29248  20718105.097    20718105.424    20718106.681
 -13415268.40849 -10425630.38145  23375678.422    23375678.924    23375682.333
 -17689693.50149 -13730050.84547  21068416.832    21068416.629    21068418.777
 -12718839.31949  -9880222.29546  22253281.702    22253281.204    22253284.889
  -7660041.20949  -5949501.23446  22940598.502    22940598.434    22940601.338
  -7736775.94649  -5998857.53146  22875682.604    22875681.945    22875685.498
 08  9 25  1 19  0.0000000  0  8G14G23G31G30G16G32G29G20
 -12628261.47249  -9380381.86346  22203152.061    22203151.588    22203154.889
  -1611032.59449  -1204464.09744                                  24419529.270
 -26808137.40549 -20859124.71148  20719743.193    20719743.550    20719744.900
 -13311624.83049 -10344869.19145  23395401.130    23395401.790    23395405.010
 -17754206.59049 -13780320.76847  21056140.388    21056139.828    21056142.881
 -12694806.20249  -9861495.20246  22257855.147    22257854.778    22257858.555
  -7651072.50949  -5942512.62746  22942305.289    22942305.842    22942308.019
  -7737158.51149  -5999155.63746  22875609.741    22875609.155    22875612.026
 08  9 25  1 19 30.0000000  0  8G14G23G31G30G16G32G29G20
 -12544390.03949  -9315027.52446  22219112.240    22219111.939    22219115.045
  -1718323.16249  -1288067.08445  24399114.090    24399112.696    24399113.148
 -26799313.65549 -20852249.06248  20721422.315    20721422.568    20721424.045
 -13207844.92849 -10264001.77645  23415149.730    23415151.218    23415152.943
 -17818283.56649 -13830250.87347  21043946.928    21043946.549    21043949.116
 -12670269.88949  -9842376.01546  22262524.381    22262524.405    22262527.642
  -7641540.89249  -5935085.38746  22944119.168    22944118.897    22944121.769
  -7736972.42749  -5999010.64046  22875645.219    22875644.081    22875647.869
 08  9 25  1 20  0.0000000  0  8G14G23G31G30G16G32G29G20
 -12460180.50549  -9249409.73346  22235136.821    22235137.105    22235139.235
  -1825561.83849  -1371629.63845  24378707.141    24378706.932    24378709.033
 -26790275.85549 -20845206.62748  20723142.129    20723142.507    20723143.711
 -13103932.64649 -10183031.20245  23434923.613    23434924.030    23434927.465
 -17881925.12949 -13879841.69647  21031836.401    21031836.193    21031838.727
 -12645232.99249  -9822866.76546  22267288.951    22267288.227    22267292.142
  -7631447.53449  -5927220.43846  22946039.711    22946040.087    22946042.325
  -7736219.52949  -5998423.99446  22875788.393    22875787.322    22875791.081
 08  9 25  1 20 30.0000000  0  8G14G23G31G30G16G32G29G20
 -12375632.49549  -9183528.18146  22251225.817    22251225.467    22251227.912
  -1932744.73649  -1455148.76445  24358310.785    24358309.773    24358311.828
 -26781022.16049 -20837995.95348  20724903.065    20724903.608    20724904.596
 -12999888.84649 -10101958.15745  23454722.525    23454723.223    23454726.840
 -17945128.56349 -13929091.11147  21019809.155    21019808.699    21019811.389
 -12619695.13849  -9802967.16146  22272148.731    22272148.043    22272151.853
  -7620790.94749  -5918916.60346  22948067.469    22948067.733    22948070.604
  -7734898.75349  -5997394.82146  22876039.646    22876039.118    22876043.172
 08  9 25  1 21  0.0000000  0  8G14G23G31G30G16G32G29G20
 -12290745.15849  -9117382.23646  22267379.378    22267379.694    22267381.476
  -2039867.68549  -1538621.15145  24337925.844    24337924.515    24337926.124
 -26771550.54049 -20830615.46848  20726705.532    20726705.900    20726706.994
 -12895713.53749 -10020782.62745  23474546.294    23474545.680    23474549.747
 -18007890.51349 -13977996.51947  21007865.884    21007865.507    21007868.298
 -12593655.29549  -9782676.39846  22277103.996    22277103.342    22277107.762
  -7609568.80149  -5910172.07246  22950203.025    22950203.455    22950205.673
  -7733008.58749  -5995921.97346  22876399.170    22876398.299    22876403.229
 08  9 25  1 21 30.0000000  0  8G14G23G31G30G16G32G29G20
 -12205521.43649  -9050974.16046  22283596.913    22283596.847    22283599.446
  -2146930.23949  -1622046.48245  24317552.185    24317549.391    24317552.943
 -26761862.77049 -20823066.55748  20728549.043    20728549.534    20728550.461
 -12791410.44249  -9939507.53245  23494394.502    23494394.609    23494397.983
 -18070212.16849 -14026558.83947  20996006.542    20996006.677    20996008.714
 -12567116.58449  -9761996.89846  22282154.101    22282153.766    22282157.068
  -7597782.91249  -5900988.27046  22952445.809    22952445.633    22952448.454
  -7730551.36349  -5994007.26646  22876866.557    22876865.915    22876870.263
 08  9 25  1 22  0.0000000  0  8G14G23G31G30G16G32G29G20
 -12119962.10449  -8984304.57046  22299878.296    22299878.455    22299881.264
  -2253929.34849  -1705422.37645  24297190.472    24297188.177    24297190.789
 -26751957.98549 -20815348.54748  20730433.832    20730433.999    20730435.343
 -12686981.17249  -9858134.12545  23514266.758    23514267.281    23514270.708
 -18132091.54749 -14074776.52947  20984231.292    20984230.829    20984233.184
 -12540079.59949  -9740929.13446  22287299.090    22287298.444    22287302.607
  -7585432.33049  -5891364.44846  22954795.906    22954796.245    22954798.531
  -7727526.80949  -5991650.46846  22877442.283    22877441.637    22877446.306
 08  9 25  1 22 30.0000000  0  8G14G23G31G30G16G32G29G20
 -12034069.84949  -8917375.56846  22316223.014    22316223.410    22316225.582
  -2360864.02749  -1788748.04945  24276841.075    24276839.674    24276841.913
 -26741837.49049 -20807462.45248  20732359.585    20732360.166    20732361.312
 -12582429.30349  -9776665.17945  23534162.440    23534162.348    23534166.813
 -18193528.80649 -14122649.71247  20972540.083    20972539.973    20972542.476
 -12512546.76049  -9719474.98746  22292538.373    22292537.917    22292541.568
  -7572518.78749  -5881301.96346  22957253.295    22957253.014    22957255.961
  -7723936.72349  -5988853.02846  22878125.611    22878125.913    22878129.177
 08  9 25  1 23  0.0000000  0  8G14G23G31G30G16G32G29G20
 -11947845.67449  -8850187.91546  22332630.969    22332631.231    22332633.606
  -2467731.83449  -1872021.61245  24256504.713    24256504.841    24256506.685
 -26731500.98949 -20799408.03648  20734326.607    20734327.104    20734328.178
 -12477756.74949  -9695102.19545  23554081.075    23554081.219    23554084.737
 -18254523.03749 -14170177.67547  20960933.277    20960933.268    20960935.321
 -12484519.15849  -9697635.31546  22297871.891    22297871.974    22297874.726
  -7559041.64849  -5870800.30946  22959817.927    22959818.368    22959821.279
  -7719781.67149  -5985615.33446  22878916.524    22878916.316    22878919.310
 08  9 25  1 23 30.0000000  0  8G14G23G31G30G16G32G29G20
 -11861291.56849  -8782743.18246  22349101.744    22349102.069    22349104.235
  -2574531.16149  -1955241.81945  24236181.600    24236181.521    24236181.905
 -26720949.14849 -20791185.82048  20736334.572    20736334.904    20736336.053
 -12372966.43849  -9613447.45945  23574022.121    23574022.424    23574025.035
 -18315073.93349 -14217360.17847  20949410.848    20949410.865    20949412.986
 -12455998.91449  -9675411.76246  22303299.181    22303298.638    22303302.457
  -7545001.75949  -5859860.13646  22962489.613    22962489.939    22962492.184
  -7715062.90649  -5981938.37746  22879814.517    22879812.965    22879817.357
 08  9 25  1 24  0.0000000  0  8G14G23G31G30G16G32G29G20
 -11774407.98449  -8715041.71046  22365635.210    22365635.023    22365637.626
  -2681258.51549  -2038405.95345  24215872.197    24215872.590    24215872.425
 -26710180.80149 -20782794.90448  20738383.661    20738384.195    20738385.304
 -12268059.59049  -9531701.91145  23593985.190    23593985.424    23593988.136
 -18375179.55049 -14264195.71247  20937973.152    20937973.123    20937974.930
 -12426986.30949  -9652804.55346  22308820.076    22308820.245    22308823.191
  -7530398.26049  -5848480.79146  22965268.657    22965269.045    22965271.509
  -7709779.93249  -5977821.78646  22880819.676    22880819.458    22880822.492
 08  9 25  1 24 30.0000000  0  8G14G23G31G30G16G32G29G20
 -11687199.36949  -8647086.96046  22382230.488    22382229.885    22382232.211
  -2787915.12249  -2121514.96945  24195576.260    24195578.050    24195576.251
 -26699198.91549 -20774237.59248  20740473.454    20740474.019    20740475.091
 -12163041.45049  -9449869.62345  23613969.344    23613969.409    23613973.930
 -18434841.84049 -14310685.79747  20926619.764    20926619.473    20926622.068
 -12397485.62349  -9629817.01846  22314433.829    22314432.720    22314436.526
  -7515233.87849  -5836664.40246  22968154.475    22968154.727    22968156.928
  -7703936.27049  -5973268.28946  22881931.798    22881931.928    22881934.258
 08  9 25  1 25  0.0000000  0  8G14G23G31G30G16G32G29G20
 -11599663.99249  -8578877.60146  22398887.863    22398887.493    22398890.837
  -2894495.57549  -2204564.64245  24175294.670    24175294.332    24175294.357
 -26688000.66149 -20765511.68348  20742604.438    20742604.794    20742606.271
 -12057911.06749  -9367949.89745  23633975.044    23633975.849    23633978.651
 -18494057.08549 -14356827.53147  20915351.392    20915351.204    20915353.486
 -12367495.27449  -9606447.91046  22320140.665    22320139.809    22320144.817
  -7499506.21949  -5824409.08946  22971147.384    22971147.765    22971150.340
  -7697529.95449  -5968276.37346  22883150.864    22883151.154    22883153.597
 08  9 25  1 25 30.0000000  0  8G14G23G31G30G16G32G29G20
 -11511803.34949  -8510414.78346  22415607.199    22415606.918    22415609.356
  -3000997.44249  -2287553.07245  24155027.937    24155027.373    24155028.262
 -26676585.59549 -20756616.82948  20744776.623    20744777.000    20744778.377
 -11952670.56949  -9285944.36045  23654002.000    23654002.585    23654004.747
 -18552824.22049 -14402620.09247  20904168.369    20904168.076    20904170.465
 -12337016.72049  -9582698.40046  22325940.418    22325939.204    22325944.414
  -7483215.21149  -5811714.80046  22974247.431    22974247.200    22974250.076
  -7690561.48849  -5962846.42346  22884476.960    22884476.986    22884479.138
 08  9 25  1 26  0.0000000  0  8G14G23G31G30G16G32G29G20
 -11423619.74849  -8441700.32446  22432388.062    22432387.741    22432390.836
  -3107419.45749  -2370479.28045  24134776.445    24134776.092    24134776.513
 -26664954.85449 -20747553.91548  20746989.889    20746990.278    20746991.639
 -11847322.91249  -9203855.32845  23674049.241    23674049.317    23674052.139
 -18611143.50949 -14448063.68247  20893070.554    20893070.388    20893072.294
 -12306052.27149  -9558570.28046  22331832.717    22331832.764    22331836.343
  -7466362.12849  -5798582.53546  22977454.471    22977454.229    22977457.646
  -7683032.86949  -5956979.99346  22885909.585    22885909.035    22885911.749
 08  9 25  1 26 30.0000000  0  8G14G23G31G30G16G32G29G20
 -11335114.54349  -8372735.24646  22449230.079    22449229.422    22449231.907
  -3213758.53449  -2453340.85345  24114540.835    24114540.311    24114541.526
 -26653107.75949 -20738322.41548  20749244.357    20749244.807    20749245.895
 -11741869.88249  -9121684.17945  23694116.353    23694116.405    23694120.009
 -18669013.59749 -14493157.24547  20882058.264    20882058.022    20882060.509
 -12274602.92349  -9534064.30646  22337817.473    22337816.861    22337821.494
  -7448946.51149  -5785011.93046  22980768.596    22980768.495    22980770.945
  -7674944.26249  -5950677.19346  22887448.746    22887447.870    22887450.922
 08  9 25  1 27  0.0000000  0  8G14G23G31G30G16G32G29G20
 -11246289.69049  -8303521.10446  22466132.945    22466132.560    22466134.948
  -3320013.50949  -2536136.90645  24094321.136    24094321.348    24094320.484
 -26641045.40649 -20728923.17748  20751539.705    20751540.048    20751541.384
 -11636314.79049  -9039433.51145  23714202.677    23714202.679    23714205.996
 -18726434.25849 -14537900.59747  20871131.429    20871130.917    20871133.792
 -12242671.01249  -9509182.31546  22343893.928    22343893.594    22343897.520
  -7430969.71549  -5771004.05146  22984189.525    22984189.247    22984192.270
  -7666297.24049  -5943939.25746  22889094.335    22889093.850    22889096.467
 08  9 25  1 27 30.0000000  0  8G14G23G31G30G16G32G29G20
 -11157145.20249  -8234057.88846  22483096.617    22483096.826    22483098.778
  -3426180.89749  -2618864.70345  24074118.073    24074116.866    24074117.368
 -26628766.08949 -20719354.88348  20753876.394    20753876.960    20753878.102
 -11530658.33949  -8957103.85245  23734308.235    23734308.350    23734311.594
 -18783403.94149 -14582292.55047  20860290.447    20860290.002    20860292.596
 -12210256.82449  -9483924.51746  22350062.187    22350061.614    22350065.559
  -7412430.71249  -5756558.08346  22987717.275    22987717.954    22987720.079
  -7657091.69149  -5936766.13446  22890846.288    22890845.597    22890848.877
 08  9 25  1 28  0.0000000  0  8G14G23G31G30G16G32G29G20
 -11067683.82649  -8164347.76246  22500120.507    22500120.211    22500122.332
  -3532259.85349  -2701523.59245  24053931.838    24053931.690    24053931.775
 -26616271.00849 -20709618.46348  20756254.124    20756254.584    20756255.938
 -11424903.78149  -8874697.75245  23754432.550    23754433.058    23754436.441
 -18839922.80449 -14626333.20747  20849535.260    20849535.007    20849537.445
 -12177362.99449  -9458292.97746  22356321.692    22356320.981    22356324.775
  -7393330.95649  -5741675.16646  22991351.768    22991351.858    22991355.073
  -7647329.30049  -5929159.10246  22892703.948    22892703.921    22892705.804
 08  9 25  1 28 30.0000000  0  8G14G23G31G30G16G32G29G20
 -10977907.05149  -8094391.85146  22517204.443    22517205.023    22517206.691
  -3638247.04749  -2784110.99445  24033763.095    24033763.572    24033762.792
 -26603559.67349 -20699713.53548  20758673.053    20758673.519    20758674.693
 -11319053.03349  -8792216.70445  23774575.181    23774575.814    23774579.730
 -18895989.76249 -14670021.73647  20838866.081    20838866.053    20838868.098
 -12143990.76649  -9432288.66146  22362672.221    22362672.264    22362675.145
  -7373670.12449  -5726355.03046  22995093.237    22995092.998    22995096.468
  -7637010.51949  -5921118.51046  22894667.346    22894666.392    22894670.460
 08  9 25  1 29  0.0000000  0  8G14G23G31G30G16G32G29G20
 -10887815.88849  -8024190.97946  22534348.223    22534348.205    22534350.626
  -3744139.68549  -2866624.69045  24013612.368    24013612.272    24013612.271
 -26590632.13949 -20689640.13548  20761133.123    20761133.496    20761134.670
 -11213107.86549  -8709662.07645  23794735.970    23794736.137    23794738.994
 -18951603.56249 -14713357.15747  20828283.094    20828282.750    20828285.217
 -12110141.37749  -9405912.53346  22369113.590    22369113.935    22369116.894
  -7353448.53849  -5710597.95346  22998941.336    22998941.524    22998943.345
  -7626136.29149  -5912645.08945  22896736.525    22896735.770    22896738.994
 08  9 25  1 29 30.0000000  0  8G14G23G31G30G16G32G29G20
 -10797412.79749  -7953747.04646  22551551.313    22551552.125    22551553.260
  -3849937.00149  -2949064.13045  23993479.857    23993479.440    23993480.786
 -26577489.14649 -20679398.84548  20763634.145    20763634.545    20763635.719
 -11107071.17449  -8627036.12845  23814914.140    23814913.548    23814917.313
 -19006764.47349 -14756339.67547  20817786.273    20817786.236    20817788.535
 -12075817.24049  -9379166.46746  22375645.390    22375644.704    22375647.889
  -7332667.20749  -5694404.70446  23002895.792    23002895.877    23002898.739
  -7614708.31649  -5903740.18945  22898911.227    22898910.074    22898913.447
 08  9 25  1 30  0.0000000  0  8G14G23G31G30G16G32G29G20
 -10706698.88249  -7883060.89946  22568813.722    22568812.976    22568816.015
  -3955636.22249  -3031427.13345  23973365.848    23973364.895    23973365.536
 -26564130.40149 -20668989.44648  20766176.246    20766176.635    20766177.957
 -11000945.06849  -8544340.53445  23835109.367    23835109.577    23835113.552
 -19061471.87749 -14798968.81647  20807375.874    20807375.734    20807377.809
 -12041019.80149  -9352051.60546  22382267.208    22382266.909    22382271.016
  -7311326.68649  -5677775.73246  23006956.561    23006957.315    23006959.370
  -7602727.42549  -5894404.44946  22901191.189    22901190.566    22901193.607
 08  9 25  1 30 30.0000000  0  8G14G23G31G30G16G32G29G20
 -10615675.67949  -7812133.76746  22586134.843    22586134.924    22586136.981
  -4061235.00949  -3113711.87945  23953270.915    23953270.556    23953271.652
 -26550555.42449 -20658411.54848  20768759.456    20768759.767    20768761.274
 -10894731.36449  -8461576.66145  23855321.292    23855321.255    23855325.146
 -19115724.99449 -14841243.95747  20797051.898    20797051.691    20797054.043
 -12005750.64649  -9324569.17646  22388978.664    22388978.812    22388981.457
  -7289427.12149  -5660711.13246  23011123.867    23011124.880    23011126.656
  -7590194.47949  -5884638.53246  22903576.058    22903574.755    22903579.271
 08  9 25  1 31  0.0000000  0  8G14G23G31G30G16G32G29G20
 -10524345.56749  -7740967.47446  22603514.390    22603513.803    22603517.502
  -4166731.50649  -3195916.91245  23933195.595    23933195.374    23933196.965
 -26536764.87849 -20647665.67748  20771383.700    20771384.300    20771385.192
 -10788432.88449  -8378746.73045  23875549.408    23875550.620    23875553.915
 -19169523.87849 -14883165.15847  20786814.324    20786813.868    20786816.558
 -11970012.07949  -9296720.95746  22395779.462    22395778.795    22395782.701
  -7266969.45049  -5643211.65946  23015397.438    23015398.121    23015400.342
  -7577111.11149  -5874443.70646  22906065.574    22906065.131    22906068.951
 08  9 25  1 31 30.0000000  0  8G14G23G31G30G16G32G29G20
 -10432708.59149  -7669562.06146  22620952.308    22620952.940    22620955.268
  -4272122.03149  -3278039.35845  23913140.477    23913140.547    23913141.462
 -26522757.17949 -20636750.59648  20774049.278    20774049.725    20774050.942
 -10682050.41949  -8295851.35145  23895793.435    23895792.967    23895797.175
 -19222866.15749 -14924730.56247  20776663.582    20776663.195    20776665.825
 -11933804.31049  -9268507.13846  22402669.490    22402668.925    22402672.780
  -7243953.08749  -5625276.83446  23019777.229    23019778.149    23019780.647
  -7563477.09949  -5863819.81046  22908659.905    22908658.995    22908662.546
 08  9 25  1 32  0.0000000  0  8G14G23G31G30G16G32G29G20
 -10340767.12249  -7597919.38746  22638448.203    22638447.929    22638450.402
  -4377405.05749  -3360078.05145  23893105.597    23893103.948    23893106.741
 -26508533.33749 -20625667.09048  20776756.004    20776756.371    20776757.852
 -10575586.70749  -8212892.66045  23916052.893    23916052.132    23916055.364
 -19275751.96049 -14965940.27247  20766599.692    20766599.402    20766602.147
 -11897129.98249  -9239929.76346  22409648.354    22409647.824    22409651.666
  -7220379.26549  -5606907.62646  23024263.285    23024263.554    23024265.967
  -7549294.40449  -5852768.36146  22911358.788    22911358.087    22911362.189
 08  9 25  1 32 30.0000000  0  8G14G23G31G30G16G32G29G20
 -10248524.46249  -7526042.02246  22656001.266    22656000.657    22656003.946
  -4482579.82049  -3442032.39045  23873091.431    23873091.363    23873092.446
 -26494095.24049 -20614416.62848  20779503.535    20779503.909    20779505.154
 -10469045.44049  -8129873.54145  23936327.058    23936328.535    23936330.160
 -19328182.47649 -15006795.20347  20756622.442    20756622.159    20756624.970
 -11859992.38849  -9210991.40646  22416715.401    22416715.191    22416718.128
  -7196249.92049  -5588105.55646  23028854.937    23028854.726    23028857.245
  -7534565.54649  -5841291.34446  22914161.571    22914161.266    22914164.611
 08  9 25  1 33  0.0000000  0  8G14G23G31G30G16G32G29G20
 -10155979.82649  -7453929.33446  22673611.858    22673611.965    22673615.162
  -4587641.54249  -3523898.64845  23853098.829    23853098.174    23853100.000
 -26479439.85449 -20602996.85448  20782292.374    20782292.698    20782293.933
 -10362426.10649  -8046793.60745  23956616.095    23956616.090    23956619.117
 -19380154.74949 -15047293.07247  20746732.445    20746732.336    20746734.724
 -11822390.74049  -9181691.44446  22423870.848    22423870.128    22423874.158
  -7171563.13549  -5568869.11746  23033552.630    23033553.073    23033555.251
  -7519289.23949  -5829387.74946  22917068.569    22917068.773    22917071.686
 08  9 25  1 33 30.0000000  0  8G14G23G31G30G16G32G29G20
 -10063135.39649  -7381583.06546  22691279.493    22691279.544    22691282.570
  -4692588.46449  -3605675.45045  23833128.016    23833127.859    23833129.064
 -26464567.86949 -20591408.30348  20785122.359    20785122.889    20785123.970
 -10255731.89649  -7963655.29645  23976919.303    23976920.553    23976923.024
 -19431668.83649 -15087433.91247  20736929.679    20736929.632    20736931.408
 -11784327.49849  -9152031.80846  22431113.968    22431113.263    22431117.632
  -7146320.52749  -5549199.56146  23038356.122    23038356.678    23038359.447
  -7503467.38249  -5817059.05646  22920079.739    22920079.199    22920082.986
 08  9 25  1 34  0.0000000  0  8G14G23G31G30G16G32G29G20
  -9969993.09949  -7309004.68346  22709003.958    22709004.593    22709007.392
  -4797418.27749  -3687360.99645  23813179.538    23813179.639    23813180.464
 -26449479.63549 -20579651.23948  20787993.599    20787993.971    20787995.361
 -10148964.67249  -7880460.09245  23997236.375    23997238.238    23997240.346
 -19482724.28949 -15127217.36447  20727214.236    20727214.048    20727216.283
 -11745804.55149  -9122013.93946  22438444.585    22438444.238    22438448.050
  -7120522.72849  -5529097.39046  23043265.277    23043265.749    23043268.158
  -7487101.44449  -5804306.38246  22923194.179    22923193.443    22923197.191
 08  9 25  1 34 30.0000000  0  8G14G23G31G30G16G32G29G20
  -9876554.13849  -7236195.13246  22726784.955    22726784.684    22726787.840
  -4902128.23949  -3768953.15245  23793253.954    23793254.263    23793254.958
 -26434174.30349 -20567725.01348  20790906.078    20790906.425    20790907.709
 -10042126.15649  -7797209.33345  24017567.064    24017569.143    24017569.657
 -19533320.17749 -15166642.72047  20717586.156    20717585.674    20717588.356
 -11706823.28149  -9091638.94446  22445862.413    22445861.673    22445866.386
  -7094169.99849  -5508562.80346  23048280.049    23048280.018    23048283.494
  -7470192.15649  -5791130.32246  22926411.984    22926410.816    22926415.302
 08  9 25  1 35  0.0000000  0  8G14G23G31G30G16G32G29G20
  -9782820.89949  -7163156.27846  22744621.944    22744622.755    22744624.655
  -5006716.60849  -3850450.56045  23773351.538    23773351.281    23773352.218
 -26418652.70549 -20555630.27348  20793859.716    20793860.220    20793861.547
  -9935219.07449  -7713905.16245  24037910.769    24037911.320    24037914.205
 -19583456.71149 -15205710.14547  20708045.426    20708044.839    20708047.658
 -11667386.12449  -9060908.71746  22453367.089    22453366.648    22453371.049
  -7067263.59549  -5487596.78446  23053400.181    23053400.473    23053402.863
  -7452741.58349  -5777532.50446  22929732.463    22929732.007    22929735.864
 08  9 25  1 35 30.0000000  0  8G14G23G31G30G16G32G29G20
  -9688795.02049  -7089889.39046  22762514.593    22762514.639    22762517.194
  -5111180.81849  -3931851.22145  23753472.649    23753471.894    23753473.141
 -26402914.96049 -20543367.09848  20796854.573    20796855.027    20796856.008
  -9828245.50249  -7630549.19145  24058267.129    24058268.607    24058270.308
 -19633133.32749 -15244419.18847  20698592.224    20698591.933    20698594.448
 -11627494.99249  -9029824.74046  22460958.122    22460957.812    22460961.245
  -7039804.21249  -5466199.87846  23058625.555    23058626.095    23058628.162
  -7434750.85849  -5763513.75546  22933155.999    22933155.247    22933159.780
 08  9 25  1 36  0.0000000  0  8G14G23G31G30G16G32G29G20
  -9594477.59049  -7016395.33446  22780462.681    22780462.614    22780465.589
  -5215518.07549  -4013152.93645  23733617.860    23733617.778    23733618.699
 -26386959.96449 -20530934.63648  20799890.743    20799891.085    20799892.237
  -9721206.89849  -7547142.50545  24078636.009    24078636.627    24078641.204
 -19682349.12149 -15282769.15047  20689226.786    20689226.477    20689228.938
 -11587151.27249  -8998388.09846  22468635.155    22468634.748    22468639.679
  -7011792.13049  -5444372.28746  23063956.093    23063956.585    23063959.209
  -7416220.45849  -5749074.49946  22936682.268    22936682.335    22936685.453
 08  9 25  1 36 30.0000000  0  8G14G23G31G30G16G32G29G20
  -9499870.46349  -6942675.53846  22798465.883    22798466.050    22798468.231
  -5319726.47849  -4094354.25945  23713787.620    23713787.197    23713788.069
 -26370788.33849 -20518333.37148  20802968.068    20802968.575    20802969.813
  -9614105.63349  -7463687.02645  24099016.582    24099015.978    24099022.621
 -19731103.89049 -15320759.87547  20679949.071    20679948.679    20679951.086
 -11546357.10349  -8966600.45346  22476398.013    22476397.874    22476402.245
  -6983228.17649  -5422114.67046  23069391.655    23069392.422    23069394.980
  -7397152.14449  -5734216.10546  22940310.899    22940311.143    22940314.245
 08  9 25  1 37  0.0000000  0  8G14G23G31G30G16G32G29G20
  -9404975.45949  -6868731.42146  22816523.841    22816522.850    22816526.792
  -5423803.63449  -4175453.31745  23693982.522    23693983.207    23693983.736
 -26354400.17049 -20505563.37448  20806086.637    20806086.986    20806088.326
  -9506943.82549  -7380184.36645  24119408.747    24119408.311    24119412.467
 -19779397.30749 -15358391.10147  20670759.113    20670758.991    20670760.975
 -11505114.46649  -8934463.35046  22484246.298    22484246.200    22484249.793
  -6954113.40949  -5399427.84346  23074932.108    23074932.467    23074934.873
  -7377547.45549  -5718939.73346  22944041.701    22944041.341    22944044.325
 08  9 25  1 37 30.0000000  0  8G14G23G31G30G16G32G29G20
  -9309794.73349  -6794564.64646  22834636.190    22834635.950    22834638.694
  -5527746.98549  -4256448.09445  23674202.938    23674203.500    23674203.142
 -26337794.84949 -20492624.16548  20809246.469    20809247.008    20809248.033
  -9399723.74449  -7296636.29645  24139811.967    24139812.486    24139816.712
 -19827228.79049 -15395662.37747  20661657.098    20661656.633    20661659.042
 -11463425.21549  -8901978.24246  22492179.599    22492180.088    22492183.177
  -6924448.42949  -5376312.27746  23080577.198    23080577.619    23080580.196
  -7357407.73849  -5703246.46646  22947874.174    22947873.738    22947877.075
 08  9 25  1 38  0.0000000  0  8G14G23G31G30G16G32G29G20
  -9214329.53049  -6720176.21546  22852802.611    22852802.114    22852804.417
  -5631553.98149  -4337336.63145  23654449.120    23654448.436    23654450.213
 -26320972.98449 -20479516.22148  20812447.576    20812448.192    20812449.163
  -9292447.18049  -7213044.22745  24160225.988    24160225.894    24160229.971
 -19874598.36949 -15432573.72847  20652642.987    20652642.833    20652645.377
 -11421291.48149  -8869146.78046  22500197.548    22500197.947    22500201.534
  -6894234.25649  -5352768.76846  23086326.821    23086326.858    23086329.319
  -7336734.78749  -5687137.69246  22951808.219    22951807.644    22951810.584
 08  9 25  1 38 30.0000000  0  8G14G23G31G30G16G32G29G20
  -9118580.98349  -6645567.00546  22871022.983    22871023.170    22871025.479
  -5735221.61749  -4418116.58345  23634721.626    23634720.923    23634721.767
 -26303933.49749 -20466238.70348  20815690.114    20815690.477    20815691.861
  -9185115.07949  -7129408.83945  24180650.797    24180651.443    24180655.692
 -19921504.72749 -15469124.13247  20643716.996    20643716.842    20643719.093
 -11378714.30749  -8835969.79546  22508299.762    22508299.748    22508303.411
  -6863470.89149  -5328797.32446  23092180.871    23092181.056    23092183.900
  -7315528.79949  -5670613.57445  22955843.493    22955843.600    22955845.611
 08  9 25  1 39  0.0000000  0  8G14G23G31G30G16G32G29G20
  -9022551.84349  -6570739.12946  22889296.789    22889296.450    22889298.526
  -5838748.43949  -4498786.80545  23615020.985    23615020.631    23615022.332
 -26286677.00449 -20452792.08248  20818973.918    20818974.254    20818975.560
  -9077730.45049  -7045732.53545  24201085.304    24201084.728    24201087.738
 -19967948.10149 -15505313.76347  20634879.114    20634878.691    20634881.159
 -11335696.62549  -8802449.54946  22516485.746    22516485.551    22516489.909
  -6832159.86549  -5304399.12546  23098139.282    23098139.371    23098141.893
  -7293792.20049  -5653675.99145  22959979.784    22959979.627    22959981.441
 08  9 25  1 39 30.0000000  0  8G14G23G31G30G16G32G29G20
  -8926242.91449  -6495693.24446  22907623.721    22907622.943    22907626.030
  -5942130.15949  -4579343.96545  23595347.948    23595348.160    23595349.305
 -26269202.38449 -20439175.50148  20822299.246    20822299.642    20822300.782
  -8970294.51749  -6962016.28545  24221529.541    24221529.584    24221533.384
 -20013927.38649 -15541141.77247  20626129.525    20626129.248    20626131.435
 -11292239.23949  -8768586.66746  22524755.447    22524755.386    22524759.231
  -6800301.27549  -5279574.26146  23104201.764    23104202.314    23104204.167
  -7271525.28249  -5636325.16445  22964217.281    22964216.744    22964220.083
 08  9 25  1 40  0.0000000  0  8G14G23G31G30G16G32G29G20
  -8829657.90949  -6420432.24345  22926003.106    22926003.008    22926006.342
  -6045367.84949  -4659788.87645  23575702.529    23575702.221    23575703.991
 -26251512.25849 -20425390.99448  20825665.574    20825665.862    20825667.259
  -8862811.43449  -6878263.27145  24241982.805    24241984.753    24241987.386
 -20059444.32749 -15576609.51047  20617467.913    20617467.854    20617469.905
 -11248346.45549  -8734384.52846  22533107.981    22533108.024    22533110.939
  -6767898.21349  -5254325.12446  23110367.901    23110367.426    23110371.023
  -7248731.85049  -5618564.06845  22968554.702    22968552.942    22968557.261
 08  9 25  1 40 30.0000000  0  8G14G23G31G30G16G32G29G20
  -8732796.49249  -6344955.84146  22944435.217    22944434.848    22944438.277
  -6148456.30549  -4740117.52745  23556085.475    23556085.571    23556086.753
 -26233603.60049 -20411436.19748  20829073.396    20829073.692    20829075.208
  -8755280.87449  -6794473.27845  24262445.125    24262445.768    24262450.655
 -20104496.56649 -15611715.14447  20608894.779    20608894.599    20608896.704
 -11204018.17849  -8699843.03346  22541543.370    22541542.475    22541547.449
  -6734949.48049  -5228650.79746  23116637.711    23116637.855    23116640.779
  -7225411.26649  -5600392.21345  22972992.324    22972991.849    22972994.900
 08  9 25  1 41  0.0000000  0  8G14G23G31G30G16G32G29G20
  -8635660.53949  -6269265.52546  22962919.549    22962919.512    22962922.939
  -6251392.78249  -4820327.75445  23536497.434    23536498.361    23536497.975
 -26215476.90149 -20397311.50248  20832522.780    20832523.284    20832524.586
  -8647704.78849  -6710647.82345  24282916.231    24282917.966    24282920.220
 -20149083.83049 -15646458.45247  20600410.104    20600409.993    20600412.110
 -11159256.40149  -8664963.74546  22550061.156    22550061.108    22550064.767
  -6701456.08349  -5202552.05146  23123011.147    23123011.832    23123013.895
  -7201565.01649  -5581810.74645  22977529.953    22977530.137    22977533.190
 08  9 25  1 41 30.0000000  0  8G14G23G31G30G16G32G29G20
  -8538252.00449  -6193362.79946  22981455.932    22981456.968    22981458.614
  -6354175.35549  -4900418.04445  23516938.702    23516938.942    23516938.795
 -26197132.06149 -20383016.82948  20836013.799    20836014.337    20836015.394
  -8540085.35249  -6626788.56445  24303395.733    24303397.478    24303400.912
 -20193205.99249 -15680839.35047  20592013.979    20592013.616    20592016.007
 -11114063.41549  -8629748.46146  22558661.192    22558660.954    22558664.456
  -6667419.07949  -5176029.71446  23129488.211    23129488.308    23129491.226
  -7177194.92349  -5562821.08745  22982167.449    22982167.057    22982170.554
 08  9 25  1 42  0.0000000  0  9G14G23G 6G31G30G16G32G29G20
  -8440573.49549  -6117249.70746  23000043.658    23000043.531    23000046.382
  -6456802.43949  -4980387.17445  23497409.449    23497409.322    23497408.971
  -1253530.14749   -945358.45443
 -26178570.20549 -20368553.05048  20839546.011    20839546.282    20839547.607
  -8432425.37549  -6542897.73245  24323882.844    24323883.226    24323886.353
 -20236863.71249 -15714858.34247  20583706.116    20583705.857    20583708.151
 -11068442.11749  -8594199.41746  22567342.719    22567342.614    22567345.799
  -6632840.38549  -5149085.28546  23136068.280    23136068.423    23136070.980
  -7152303.35849  -5543425.09545  22986904.134    22986902.698    22986906.588
 08  9 25  1 42 30.0000000  0  9G14G23G 6G31G30G16G32G29G20
  -8342626.38649  -6040927.32246  23018682.487    23018682.917    23018685.466
  -6559270.56549  -5060232.44845  23477910.382    23477909.651    23477909.638
  -1358658.09449  -1027277.13943
 -26159790.20149 -20353919.29048  20843119.673    20843120.078    20843121.377
  -8324726.20749  -6458976.34545  24344377.748    24344380.156    24344382.221
 -20280056.03049 -15748514.68747  20575486.868    20575486.417    20575488.802
 -11022394.12449  -8558317.89146  22576105.375    22576104.978    22576108.514
  -6597720.66049  -5121719.26946  23142751.283    23142752.686    23142754.549
  -7126891.54049  -5523623.69645  22991739.659    22991739.220    22991742.714
 08  9 25  1 43  0.0000000  0  9G14G23G 6G31G30G16G32G29G20
  -8244412.72249  -5964397.22546  23037372.033    23037371.919    23037374.607
  -6661577.74649  -5139952.29945  23458441.969    23458441.579    23458442.386
  -1463772.58349  -1109185.17143
 -26140792.34349 -20339115.77048  20846734.907    20846735.275    20846736.820
  -8216990.11049  -6375026.20845  24364879.629    24364879.335    24364883.412
 -20322783.12249 -15781808.52347  20567356.118    20567355.776    20567358.264
 -10975921.72049  -8522105.65446  22584948.731    22584947.566    22584952.221
  -6562060.82349  -5093932.38446  23149537.266    23149537.709    23149540.153
  -7100961.05049  -5503418.14745  22996674.303    22996673.984    22996677.426
 08  9 25  1 43 30.0000000  0  9G14G23G 6G31G30G16G32G29G20
  -8145934.17449  -5887660.74146  23056111.920    23056112.216    23056114.988
  -6763721.31849  -5219544.67545  23439004.659    23439004.685    23439004.823
  -1568870.85849   -702868.82543
 -26121576.47249 -20324142.36648  20850391.555    20850391.994    20850393.301
  -8109218.72849  -6291048.56445  24385388.015    24385389.426    24385391.244
 -20365044.77049 -15814739.66647  20559313.978    20559313.753    20559316.263
 -10929026.94049  -8485564.27946  22593872.335    22593870.829    22593876.473
  -6525862.08649  -5065725.59246  23156425.676    23156425.560    23156428.430
  -7074513.62249  -5482809.79545  23001707.396    23001707.559    23001709.390
 08  9 25  1 44  0.0000000  0  9G14G23G 6G31G30G16G32G29G20
  -8047193.38449  -5810719.90346  23074901.749    23074902.517    23074904.377
  -6865699.78049  -5299008.39045  23419598.781    23419599.059    23419599.139
  -1673951.21149   -784749.46043
 -26102143.03949 -20308999.43848  20854089.648    20854089.964    20854091.155
  -8001414.52649  -6207045.32945  24405902.443    24405901.706    24405907.287
 -20406841.40749 -15847308.46447  20551360.383    20551360.259    20551362.498
 -10881712.64849  -8448696.02046  22602875.813    22602875.305    22602880.248
  -6489126.05649  -5037100.13846  23163416.274    23163416.660    23163419.284
  -7047551.68949  -5461800.50545  23006838.333    23006838.237    23006839.926
 08  9 25  1 44 30.0000000  0  9G14G23G 6G31G30G16G32G29G20
  -7948191.30149  -5733575.46446  23093741.328    23093740.846    23093744.070
  -6967509.43949  -5378340.57745  23400225.002    23400224.971    23400225.181
  -1779010.08249   -866613.55744                                  24087518.029
 -26082491.39649 -20293686.47648  20857829.248    20857829.605    20857830.880
  -7893578.83849  -6123017.58245  24426422.606    24426423.099    24426425.970
 -20448171.69549 -15879513.87647  20543495.555    20543495.384    20543497.811
 -10833980.13749  -8411501.86546  22611959.087    22611958.597    22611963.487
  -6451853.07849  -5008056.26246  23170509.131    23170509.690    23170511.861
  -7020076.01349  -5440390.91945  23012066.755    23012065.928    23012070.307
 08  9 25  1 45  0.0000000  0  9G14G23G 6G31G30G16G32G29G20
  -7848927.74449  -5656227.28245  23112630.449    23112630.769    23112633.493
  -7069145.72749  -5457537.66245  23380884.199    23380883.771    23380884.920
  -1884042.80249   -948457.21545  24067527.096    24067526.588    24067529.360
 -26062619.52249 -20278201.90948  20861610.761    20861611.127    20861612.558
  -7785711.47749  -6038965.13545  24446948.781    24446949.919    24446953.772
 -20489033.85749 -15911354.51647  20535719.705    20535719.187    20535721.722
 -10785829.49749  -8373981.91146  22621121.936    22621121.633    22621126.379
  -6414042.46149  -4978593.45346  23177704.447    23177704.769    23177706.984
  -6992086.52349  -5418580.95345  23017392.844    23017392.161    23017395.298
 08  9 25  1 45 30.0000000  0  9G14G23G 6G31G30G16G32G29G20
  -7749405.38249  -5578677.42845  23131568.984    23131568.029    23131571.246
  -7170607.13449  -5536598.47945  23361576.654    23361577.257    23361578.165
  -1989047.59849  -1030279.10545  24047545.260    24047544.431    24047548.749
 -26042527.80749 -20262546.03748  20865434.039    20865434.260    20865435.740
  -7677815.02149  -5954890.00845  24467480.759    24467482.075    24467486.435
 -20529428.59849 -15942830.93447  20528032.790    20528032.749    20528034.926
 -10737263.82149  -8336138.55246  22630363.707    22630362.856    22630367.843
  -6375696.00249  -4948713.09846  23185001.715    23185002.197    23185003.874
  -6963585.34849  -5396372.26645  23022816.379    23022816.006    23022819.261
 08  9 25  1 46  0.0000000  0  9G14G23G 6G31G30G16G32G29G20
  -7649627.71849  -5500928.63545  23150556.004    23150554.874    23150559.527
  -7271892.60649  -5615522.19645  23342302.834    23342303.270    23342303.105
  -2094023.23949  -1112078.26145  24027568.933    24027568.990    24027573.467
 -26022217.63749 -20246719.93748  20869298.914    20869299.245    20869300.746
  -7569892.78349  -5870794.82845  24488017.936    24488018.128    24488022.690
 -20569357.00049 -15973943.96747  20520434.717    20520434.479    20520436.669
 -10688286.66549  -8297974.55446  22639683.780    22639684.363    22639687.444
  -6336816.24149  -4918417.19046  23192400.163    23192399.756    23192402.617
  -6934575.67249  -5373767.33145  23028336.811    23028335.845    23028339.372
 08  9 25  1 46 30.0000000  0  9G14G23G 6G31G30G16G32G29G20
  -7549595.78449  -5422981.71945  23169591.271    23169591.396    23169594.189
  -7372998.24149  -5694305.78645  23323063.078    23323062.470    23323063.075
  -2198966.18249  -1193851.94045  24007598.724    24007597.476    24007602.287
 -26001688.08649 -20230722.88348  20873205.586    20873206.110    20873207.304
  -7461945.67849  -5786680.25245  24508559.739    24508560.357    24508563.734
 -20608818.37249 -16004693.07747  20512925.412    20512925.097    20512927.479
 -10638899.37949  -8259490.97846  22649081.951    22649081.297    22649085.274
  -6297403.61049  -4887706.05746  23199900.122    23199900.413    23199903.114
  -6905058.74549  -5350767.15845  23033953.716    23033953.506    23033956.558
 08  9 25  1 47  0.0000000  0  9G14G23G 6G31G30G16G32G29G20
  -7449311.36549  -5344838.06345  23188674.807    23188674.864    23188677.404
  -7473922.15949  -5772947.77445  23303857.846    23303857.135    23303857.257
  -2303874.03249  -1275598.26045  23987635.258    23987634.086    23987637.772
 -25980939.09149 -20214554.84348  20877154.009    20877154.137    20877155.713
  -7353975.92849  -5702548.04445  24529105.843    24529106.483    24529110.636
 -20647812.64649 -16035078.22247  20505505.082    20505504.994    20505507.086
 -10589104.40049  -8220689.71746  22658557.753    22658557.797    22658561.630
  -6257459.51049  -4856580.78046  23207501.260    23207501.081    23207503.539
  -6875036.20949  -5327373.00345  23039666.941    23039666.081    23039669.726
 08  9 25  1 47 30.0000000  0  9G14G23G 6G31G30G16G32G29G20
  -7348776.83549  -5266499.49745  23207805.770    23207805.311    23207808.783
  -7574661.96249  -5851446.29345  23284687.712    23284687.536    23284687.434
  -2408744.57949  -1357315.52245  23967678.833    23967678.731    23967682.566
 -25959971.30649 -20198216.31248  20881144.030    20881144.554    20881145.733
  -7245985.87249  -5618399.99445  24549655.753    24549656.476    24549660.765
 -20686340.01449 -16065099.54147  20498173.553    20498173.540    20498175.659
 -10538904.45249  -8181572.88546  22668110.543    22668109.934    22668113.952
  -6216985.82849  -4825042.84246  23215203.102    23215203.019    23215206.585
  -6844510.63149  -5303586.87246  23045475.836    23045475.699    23045478.336
 08  9 25  1 48  0.0000000  0  9G14G23G 6G31G30G16G32G29G20
  -7247994.96549  -5187968.21045  23226983.911    23226984.383    23226987.198
  -7675216.41149  -5929800.38945  23265552.760    23265552.533    23265553.164
  -2513576.13449  -1439002.41545  23947729.832    23947729.312    23947733.374
 -25938785.16449 -20181707.63248  20885175.700    20885176.223    20885177.322
  -7137978.01049  -5534238.07745  24570208.968    24570209.228    24570213.865
 -20724401.12749 -16094757.54447  20490930.806    20490930.704    20490932.836
 -10488302.58049  -8142142.87046  22677739.840    22677739.658    22677744.223
  -6175984.34049  -4793093.63946  23223005.356    23223005.808    23223008.362
  -6813484.64649  -5279410.80445  23051379.910    23051379.812    23051382.748
 08  9 25  1 48 30.0000000  0  9G14G23G 6G31G30G16G32G29G20
  -7146965.31549  -5109243.82845  23246209.253    23246209.744    23246213.021
  -7775580.24449  -6008005.95145  23246454.024    23246453.685    23246454.460
  -2618363.57949  -1520654.92145  23927789.241    23927788.767    23927792.824
 -25917378.02649 -20165026.75348  20889249.364    20889249.623    20889250.938
  -7029951.64749  -5450061.72845  24590765.655    24590766.986    24590769.527
 -20761993.99549 -16124050.68047  20483777.192    20483776.966    20483779.136
 -10437298.69049  -8102399.61446  22687445.654    22687445.288    22687449.013
  -6134454.12049  -4760732.43346  23230908.235    23230908.667    23230910.093
  -6781957.50449  -5254844.22045  23057379.287    23057379.109    23057381.967
 08  9 25  1 49  0.0000000  0  9G14G23G 6G31G30G16G32G29G20
  -7045690.57949  -5030328.49445  23265481.266    23265481.003    23265483.869
  -7875751.58949  -6086061.54445  23227391.978    23227391.801    23227391.737
  -2723105.06149  -1602271.63245  23907857.501    23907856.615    23907862.825
 -25895750.81849 -20148174.38948  20893364.855    20893364.994    20893366.415
  -6921909.53449  -5365873.11545  24611325.496    24611326.213    24611329.781
 -20799119.42249 -16152979.57647  20476712.473    20476712.417    20476714.528
 -10385895.83849  -8062345.46346  22697227.381    22697226.977    22697231.129
  -6092396.99449  -4727960.64546  23238911.396    23238912.256    23238914.737
  -6749931.93049  -5229889.24546  23063473.641    23063473.200    23063476.233
 08  9 25  1 49 30.0000000  0  9G14G23G 6G31G30G16G32G29G20
  -6944173.28949  -4951224.16245  23284799.486    23284799.988    23284801.844
  -7975728.62849  -6163965.71645  23208366.916    23208366.462    23208366.716
  -2827798.50849  -1683850.89845  23887934.819    23887933.877    23887939.358
 -25873904.05449 -20131150.94048  20897522.134    20897522.456    20897523.953
  -6813853.84049  -5281673.91945  24631887.971    24631887.629    24631892.141
 -20835777.77149 -16181544.51747  20469736.652    20469736.097    20469738.522
 -10334096.93049  -8021982.69446  22707084.485    22707084.213    22707087.536
  -6049815.23249  -4694780.06146  23247014.281    23247014.807    23247017.863
  -6717410.54849  -5204547.93645  23069662.225    23069661.755    23069665.147
 08  9 25  1 50  0.0000000  0  9G14G23G 6G31G30G16G32G29G20
  -6842414.75549  -4871931.83145  23304163.649    23304163.164    23304166.484
  -8075508.01149  -6241715.85845  23189379.441    23189379.467    23189380.199
  -2932440.59249  -1765390.14645  23868022.012    23868021.393    23868026.450
 -25851836.91549 -20113955.77448  20901721.408    20901721.739    20901723.238
  -6705785.59249  -5197464.95845  24652452.627    24652452.972    24652457.752
 -20871968.35749 -16209744.96847  20462849.738    20462849.444    20462851.876
 -10281903.55449  -7981312.54346  22717016.497    22717015.857    22717020.280
  -6006709.17849  -4661190.92446  23255217.125    23255217.428    23255220.302
  -6684394.60249  -5178821.25145  23075944.795    23075944.536    23075946.969
 08  9 25  1 50 30.0000000  0  9G14G23G 6G31G30G16G32G29G20
  -6740417.35449  -4792453.37645  23323573.235    23323573.586    23323575.608
  -8175087.48649  -6319310.23245  23170430.021    23170430.035    23170430.911
  -3037029.12549  -1846887.66745  23848119.310    23848118.771    23848124.084
 -25829549.61749 -20096589.05148  20905962.526    20905962.843    20905964.127
  -6597707.13449  -5113248.02245  24673019.014    24673018.914    24673023.812
 -20907691.71849 -16237581.34847  20456051.733    20456051.620    20456053.845
 -10229318.52849  -7940337.21446  22727023.092    22727022.240    22727027.040
  -5963080.69949  -4627194.72746  23263519.318    23263519.790    23263522.046
  -6650886.15649  -5152710.78745  23082321.280    23082320.792    23082323.477
 08  9 25  1 51  0.0000000  0  9G14G23G 6G31G30G16G32G29G20
  -6638183.04549  -4712790.32945  23343027.896    23343028.378    23343030.211
  -8274464.52149  -6396746.86745  23151519.177    23151518.797    23151519.356
  -3141561.48149  -1928341.43045  23828227.490    23828226.912    23828232.212
 -25807041.97649 -20079050.63348  20910245.603    20910246.008    20910247.195
  -6489620.58049  -5029024.79345  24693587.196    24693586.746    24693592.052
 -20942947.66449 -16265053.50547  20449342.771    20449342.475    20449344.899
 -10176344.20649  -7899058.54746  22737103.796    22737102.701    22737107.498
  -5918931.21549  -4592792.53946  23271920.746    23271921.624    23271924.144
  -6616887.51049  -5126218.36945  23088790.954    23088790.433    23088794.111
 08  9 25  1 51 30.0000000  0  9G14G23G 6G31G30G16G32G29G20
  -6535713.97849  -4632944.35245  23362527.128    23362527.089    23362529.595
  -8373636.58649  -6474023.78845  23132647.302    23132646.352    23132647.686
  -3246035.15349  -2009749.46745  23808346.723    23808346.235    23808350.826
 -25784314.02249 -20061340.54447  20914570.553    20914570.904    20914572.242
  -6381527.77249  -4944796.68845  24714156.592    24714158.414    24714162.531
 -20977736.72949 -16292161.85747  20442722.629    20442722.128    20442724.818
 -10122983.11049  -7857478.49246  22747258.036    22747257.541    22747261.583
  -5874262.53949  -4557985.79346  23280420.949    23280421.280    23280423.601
  -6582400.81849  -5099345.65545  23095353.626    23095352.980    23095355.900
 08  9 25  1 52  0.0000000  0  9G14G23G 6G31G30G16G32G29G20
  -6433011.24649  -4552916.30145  23382070.809    23382070.949    23382073.163
  -8472600.67849  -6551138.64845  23113815.050    23113815.518    23113815.549
  -3350446.71649  -2091109.10045  23788477.915    23788478.089    23788482.621
 -25761364.92449 -20043458.14347  20918937.672    20918938.071    20918939.310
  -6273429.38649  -4860564.22745  24734727.214    24734727.355    24734730.364
 -21012057.97649 -16318905.67947  20436191.475    20436191.059    20436193.614
 -10069236.81049  -7815598.27146  22757485.562    22757485.471    22757489.589
  -5829075.12849  -4522774.84046  23289019.932    23289020.736    23289022.871
  -6547427.24949  -5072093.53545  23102008.912    23102008.073    23102012.225
 08  9 25  1 52 30.0000000  0  9G14G23G 6G31G30G16G32G29G20
  -6330077.49949  -4472708.23645  23401658.515    23401658.789    23401660.938
  -8571354.66649  -6628089.79145  23095022.761    23095022.099    23095023.441
  -3454794.05349  -2172418.68245  23768621.389    23768622.175    23768625.604
 -25738195.30449 -20025403.90447  20923346.741    20923347.148    20923348.513
  -6165327.91849  -4776329.35745  24755298.647    24755299.413    24755302.656
 -21045912.30149 -16345285.66447  20429749.245    20429749.179    20429751.351
 -10015108.27449  -7773420.20246  22767785.852    22767785.200    22767789.144
  -5783371.18849  -4487161.39646  23297717.123    23297717.296    23297720.528
  -6511969.43349  -5044464.08245  23108756.310    23108754.572    23108759.893
 08  9 25  1 53  0.0000000  0  9G14G23G 6G31G30G16G32G29G20
  -6226913.86049  -4392321.03145  23421290.022    23421290.128    23421293.526
  -8669895.33149  -6704874.70945  23076271.068    23076271.550    23076272.425
  -3559073.91749  -2253675.69045  23748777.779    23748777.593    23748782.202
 -25714804.14649 -20007177.03047  20927797.945    20927798.347    20927799.524
  -6057224.15849  -4692092.70545  24775870.285    24775871.591    24775875.137
 -21079298.93749 -16371301.21547  20423396.003    20423395.917    20423398.119
  -9960599.29549  -7730945.70346  22778158.558    22778157.780    22778162.549
  -5737151.35949  -4451145.95446  23306512.528    23306512.847    23306515.722
  -6476028.47049  -5016458.15745  23115595.524    23115594.547    23115597.982
 08  9 25  1 53 30.0000000  0  9G14G23G 6G31G30G16G32G29G20
  -6123522.86149  -4311756.66645  23440964.763    23440964.458    23440967.446
  -8768220.13249  -6781491.42245  23057560.378    23057560.483    23057560.259
  -3663283.82449  -2334878.18445  23728947.329    23728947.222    23728951.953
 -25691191.77749 -19988777.79647  20932291.229    20932291.576    20932293.070
  -5949120.58749  -4607856.22245  24796441.936    24796441.551    24796445.642
 -21112218.66549 -16396952.94747  20417131.658    20417131.304    20417133.691
  -9905712.55749  -7688176.82946  22788603.145    22788602.159    22788606.615
  -5690417.32049  -4414729.81846  23315405.598    23315406.490    23315409.503
  -6439606.91349  -4988077.76245  23122526.181    23122525.329    23122528.083
 08  9 25  1 54  0.0000000  0  9G14G23G 6G31G30G16G32G29G20
  -6019905.97849  -4231016.28745  23460682.258    23460682.138    23460684.776
  -8866325.73649  -6857937.32545  23038891.538    23038891.717    23038892.093
  -3767420.70749  -2416023.76945  23709130.623    23709129.381    23709134.830
 -25667357.39649 -19970205.56447  20936826.721    20936827.196    20936828.310
  -5841018.21649  -4523620.65145  24817013.170    24817013.279    24817017.185
 -21144670.87649 -16422240.37747  20410956.183    20410955.759    20410958.264
  -9850450.03649  -7645115.13146  22799119.210    22799118.938    22799123.295
  -5643170.29749  -4377913.96546  23324396.450    23324397.116    23324399.736
  -6402706.18949  -4959323.96945  23129548.235    23129547.787    23129550.754
 08  9 25  1 54 30.0000000  0  9G14G23G 6G31G30G16G32G29G20
  -5916066.34049  -4150102.32545  23480442.184    23480441.788    23480444.157
  -8964211.05349  -6934211.58346  23020264.654    23020264.712    23020265.485
  -3871482.89249  -2497111.15645  23689328.168    23689327.880    23689332.138
 -25643302.00849 -19951461.11447  20941404.361    20941404.727    20941406.113
  -5732919.52949  -4439387.94145  24837583.710    24837582.939    24837587.654
 -21176656.74249 -16447164.42547  20404869.434    20404869.043    20404871.545
  -9794815.13849  -7601763.29346  22809706.173    22809705.929    22809709.473
  -5595412.77449  -4340700.31846  23333484.528    23333484.545    23333487.877
  -6365329.58549  -4930199.37645  23136660.790    23136660.663    23136663.730
 08  9 25  1 55  0.0000000  0  9G14G23G 6G31G30G16G32G29G20
  -5812004.65949  -4069015.34745  23500244.457    23500245.449    23500247.971
  -9061872.33549  -7010311.26746  23001680.317    23001680.068    23001681.062
  -3975466.68849  -2578137.45645  23669540.586    23669540.078    23669544.952
 -25619024.17649 -19932543.33347  20946024.296    20946024.769    20946026.068
  -5624825.53749  -4355158.91145  24858153.381    24858153.588    24858156.710
 -21208175.38249 -16471724.40247  20398871.592    20398871.245    20398873.576
  -9738809.28149  -7558122.38346  22820363.751    22820363.851    22820366.873
  -5547145.13449  -4303089.19046  23342669.498    23342669.886    23342673.045
  -6327478.27749  -4900704.87145  23143863.637    23143863.327    23143867.562
 08  9 25  1 55 30.0000000  0  9G14G23G 6G31G30G16G32G29G20
  -5707723.61249  -3987757.43545  23520088.386    23520087.632    23520092.256
  -9159307.29549  -7086234.59846  22983139.175    22983139.524    22983139.630
  -4079369.82249  -2659100.89545  23649768.467    23649767.956    23649773.610
 -25594524.72349 -19913452.85547  20950686.351    20950686.691    20950688.085
  -5516738.11549  -4270935.04945  24878721.653    24878721.480    24878726.232
 -21239227.71149 -16495921.01647  20392962.486    20392962.336    20392964.661
  -9682435.43349  -7514194.74646  22831091.475    22831091.085    22831094.144
  -5498369.49349  -4265082.20846  23351951.207    23351950.981    23351954.207
  -6289154.85149  -4870842.48745  23151156.298    23151155.958    23151159.829
 08  9 25  1 56  0.0000000  0  9G14G23G 6G31G30G16G32G29G20
  -5603226.39149  -3906331.07745  23539973.326    23539973.046    23539976.438
  -9256514.64049  -7161980.57446  22964641.470    22964641.010    22964641.523
  -4183191.09149  -2740000.56145  23630012.079    23630011.723    23630015.656
 -25569804.36449 -19894190.24947  20955390.428    20955390.975    20955392.117
  -5408660.64649  -4186718.88245  24899288.018    24899288.201    24899292.411
 -21269815.26749 -16519755.47147  20387141.888    20387141.536    20387143.872
  -9625697.38149  -7469983.30046  22841888.339    22841888.170    22841890.808
  -5449088.92449  -4226681.77346  23361329.003    23361329.358    23361331.979
  -6250362.39449  -4840614.63845  23158538.222    23158537.778    23158542.112
 08  9 25  1 56 30.0000000  0  9G14G23G 6G31G30G16G32G29G20
  -5498513.28349  -3824736.49945  23559899.528    23559898.272    23559903.142
  -9353489.71049  -7237545.54846  22946187.792    22946186.686    22946188.220
  -4286925.94649  -2820832.86045  23610272.093    23610272.518    23610275.620
 -25544861.28449 -19874754.09447  20960136.977    20960137.409    20960138.689
  -5300592.70249  -4102510.12345  24919852.507    24919854.444    24919857.723
 -21299936.08949 -16543226.23647  20381410.050    20381409.953    20381412.203
  -9568595.58549  -7425488.41146  22852754.600    22852754.567    22852758.519
  -5399302.69749  -4187887.31446  23370803.093    23370804.029    23370806.187
  -6211101.60849  -4810021.84445  23166009.385    23166009.146    23166013.132
 08  9 25  1 57  0.0000000  0  8G14G23G 6G31G16G32G29G20
  -5393586.19349  -3742975.16645  23579866.594    23579866.488    23579869.710
  -9450230.11149  -7312927.64846  22927778.562    22927778.469    22927778.522
  -4390571.49449  -2901595.56345  23590549.133    23590548.783    23590551.989
 -25519695.55949 -19855144.45147  20964925.867    20964926.324    20964927.502
 -21329590.73849 -16566333.75147  20375766.951    20375766.690    20375768.877
  -9511132.72149  -7380712.16546  22863689.456    22863689.377    22863692.062
  -5349012.89049  -4148700.46346  23380373.025    23380373.494    23380375.800
  -6171374.65249  -4779065.81145  23173569.259    23173568.622    23173571.785
 08  9 25  1 57 30.0000000  0  8G14G23G 6G31G16G32G29G20
  -5288447.69249  -3661049.12045  23599873.929    23599874.457    23599877.481
  -9546733.39249  -7388125.00646  22909414.476    22909414.143    22909415.437
  -4494125.55049  -2982286.99845  23570843.441    23570842.166    23570846.282
 -25494307.01349 -19835361.18347  20969757.158    20969757.569    20969758.874
 -21358779.32349 -16589078.10047  20370212.531    20370212.405    20370214.783
  -9453311.62649  -7335656.80146  22874692.465    22874691.910    22874695.874
  -5298221.40549  -4109122.68746  23390038.307    23390039.193    23390041.748
  -6131183.87149  -4747748.34045  23181217.403    23181218.067    23181221.280
 08  9 25  1 58  0.0000000  0  9G14G23G 6G31G30G16G32G29G20
  -5183098.77049  -3578959.10745  23619921.432    23619921.668    23619924.061
  -9642995.93849  -7463134.75446  22891096.200    22891097.063    22891097.301
  -4597584.68049  -3062904.43745  23551155.557    23551154.975    23551159.207
 -25468694.76249 -19815403.59747  20974631.018    20974631.535    20974632.760
  -1050165.10649   -819712.66443
 -21387501.74849 -16611459.20747  20364746.911    20364746.559    20364749.134
  -9395133.93449  -7290323.55546  22885763.266    22885762.586    22885766.295
  -5246928.89949  -4069154.53146  23399798.983    23399799.056    23399801.851
  -6090530.84449  -4716070.68845  23188953.561    23188953.342    23188956.369
 08  9 25  1 58 30.0000000  0  8G14G23G 6G31G16G32G29G20
  -5077542.15849  -3496707.25945  23640008.259    23640007.463    23640011.300
  -9739015.55449  -7537955.22046  22872824.203    22872823.694    22872825.052
  -4700946.35249  -3143445.96445  23531486.259    23531485.442    23531489.574
 -25442859.21049 -19795272.01147  20979547.383    20979547.861    20979549.257
 -21415758.43549 -16633477.39647  20359369.810    20359369.572    20359371.919
  -9336602.57149  -7244714.71446  22896901.446    22896901.315    22896904.228
  -5195137.38549  -4028797.51846  23409654.496    23409654.433    23409657.008
  -6049417.91349  -4684034.66845  23196776.970    23196776.995    23196779.953
 08  9 25  1 59  0.0000000  0  8G14G23G 6G31G16G32G29G20
  -4971779.86549  -3414295.13845  23660134.083    23660133.730    23660137.116
  -9834789.92249  -7612584.58946  22854598.983    22854599.250    22854599.340
  -4804208.17949  -3223909.68545  23511835.978    23511835.695    23511839.998
 -25416800.17049 -19774966.26947  20984506.288    20984506.608    20984507.869
 -21443549.73449 -16655132.94647  20354081.292    20354080.993    20354083.281
  -9277720.27449  -7198832.41846  22908106.442    22908106.538    22908109.940
  -5142848.89249  -3988053.22746  23419604.609    23419604.215    23419607.587
  -6007847.64149  -4651642.26345  23204687.697    23204688.219    23204690.071
 08  9 25  1 59 30.0000000  0  8G14G23G 6G31G16G32G29G20
  -4865816.47349  -3331726.31245  23680298.186    23680297.471    23680301.398
  -9930319.07049  -7687022.86846  22836420.398    22836419.776    22836420.810
  -4907370.24049  -3304295.68245  23492204.875    23492205.105    23492208.869
 -25390520.27149 -19754488.43047  20989507.143    20989507.656    20989508.932
 -21470878.89449 -16676428.38547  20348880.730    20348880.493    20348882.798
  -9218492.21149  -7152680.71046  22919377.148    22919376.666    22919380.826
  -5090067.95449  -3946925.23046  23429648.346    23429648.282    23429651.110
  -5965825.26549  -4618897.57445  23212684.545    23212684.463    23212687.351
 08  9 25  2  0  0.0000000  0  8G14G23G 6G31G16G32G29G20
  -4759651.02949  -3249000.03545  23700500.881    23700500.275    23700505.055
 -10025596.91149  -7761265.32746  22818289.613    22818289.887    22818290.236
  -5010426.36549  -3384599.12745  23472594.001    23472594.451    23472598.113
 -25364015.75449 -19733835.56847  20994550.852    20994551.185    20994552.455
 -21497742.96549 -16697361.42047  20343768.678    20343768.402    20343770.504
  -9158917.63849  -7106258.98146  22930713.762    22930713.138    22930716.748
  -5036792.80849  -3905412.14646  23439786.145    23439786.244    23439789.300
  -5923349.24849  -4585799.42645  23220767.485    23220766.868    23220770.761
 08  9 25  2  0 30.0000000  0  9G14G23G 6G31G16G32G 3G29G20
  -4653284.97949  -3166117.46945  23720741.588    23720741.123    23720745.365
 -10120620.22649  -7835309.45846  22800207.362    22800207.065    22800207.887
  -5113373.45349  -3464817.61945  23453003.860    23453004.303    23453008.357
 -25337286.57049 -19713007.64047  20999637.220    20999637.553    20999638.953
 -21524141.83949 -16717931.96647  20338745.121    20338744.870    20338747.435
  -9098998.73449  -7059568.94746  22942115.957    22942115.594    22942119.588
  -1200466.47949   -885030.68443
  -4983024.51049  -3863514.77546  23450017.894    23450018.730    23450021.176
  -5880421.67349  -4552349.38845  23228936.384    23228935.283    23228939.785
 08  9 25  2  1  0.0000000  0  9G14G23G 6G31G16G32G 3G29G20
  -4546720.36349  -3083080.15545  23741020.269    23741020.733    23741023.398
 -10215386.31149  -7909153.14246  22782174.048    22782174.249    22782173.936
  -5216208.78949  -3544949.03545  23433434.815    23433434.481    23433439.400
 -25310331.83549 -19692003.95947  21004766.503    21004767.062    21004768.405
 -21550075.37949 -16738139.90847  20333810.123    20333809.866    20333812.077
  -9038738.00549  -7012612.56446  22953583.234    22953582.955    22953586.887
  -1317803.48649   -459076.62843
  -4928764.95949  -3821234.61146  23460343.271    23460343.522    23460346.423
  -5837044.88749  -4518549.31845  23237190.677    23237189.768    23237193.836
 08  9 25  2  1 30.0000000  0  9G14G23G 6G31G16G32G 3G29G20
  -4439962.84249  -2999892.53645  23761335.856    23761336.139    23761339.759
 -10309895.84249  -7982796.92146  22764189.526    22764189.400    22764189.764
  -5318932.99249  -3624993.85345  23413887.016    23413887.653    23413891.107
 -25283155.10949 -19670827.29747  21009938.067    21009938.632    21009939.855
 -21575548.05949 -16757988.74247  20328962.858    20328962.552    20328964.813
  -8978141.33749  -6965394.40446  22965114.424    22965113.573    22965118.566
  -1435153.44549   -550517.68643
  -4874019.31249  -3778575.66846  23470761.126    23470760.920    23470764.762
  -5793224.54449  -4484403.61945  23245529.394    23245528.466    23245532.781
 08  9 25  2  2  0.0000000  0  9G14G23G 6G31G16G32G 3G29G20
  -4333009.61149  -2916552.41845  23781688.498    23781688.510    23781691.485
 -10404141.72349  -8056235.25246  22746255.238    22746255.545    22746255.600
  -5421538.77349  -3704946.39545  23394361.959    23394362.260    23394366.134
 -25255751.47649 -19649473.81947  21015152.794    21015153.252    21015154.590
 -21600555.22449 -16777474.83647  20324204.089    20324203.707    20324206.065
  -8917206.78149  -6917912.95346  22976709.953    22976709.365    22976712.620
  -1552508.93749   -641963.51844                                  24326709.440
  -4818784.66149  -3735535.68546  23481271.854    23481272.483    23481274.686
  -5748958.31949  -4449910.48245  23253952.943    23253951.075    23253955.862
 08  9 25  2  2 30.0000000  0  9G14G23G 6G31G16G32G 3G29G20
  -4225863.87449  -2833062.31145  23802077.650    23802078.144    23802081.014
 -10498122.00049  -8129466.61546  22728371.483    22728371.306    22728371.266
  -5524024.36349  -3784805.28045  23374859.697    23374858.992    23374863.227
 -25228122.39649 -19627944.67347  21020410.448    21020410.802    21020412.324
 -21625098.33049 -16796599.33047  20319533.628    20319533.450    20319535.618
  -8855937.89649  -6870170.99346  22988369.065    22988368.713    22988372.422
  -1669868.27449   -733412.32445  24304372.676    24304371.534    24304377.229
  -4763063.70249  -3692116.76846  23491875.033    23491874.823    23491878.077
  -5704249.61049  -4415072.54245  23262460.664    23262459.364    23262464.144
 08  9 25  2  3  0.0000000  0  9G14G23G 6G31G16G32G 3G29G20
  -4118529.42749  -2749425.13445  23822502.681    23822501.895    23822505.791
 -10591835.57649  -8202490.16146  22710538.441    22710537.852    22710538.593
  -5626388.94349  -3864569.88445  23355380.289    23355380.187    23355383.894
 -25200268.45549 -19606240.31647  21025710.901    21025711.313    21025712.712
 -21649179.19849 -16815363.63547  20314951.199    20314950.642    20314953.216
  -8794338.98749  -6822171.86246  23000090.961    23000089.999    23000094.197
  -1787230.87649   -824863.67045  24282039.138    24282037.865    24282043.768
  -4706860.15549  -3648321.80146  23502570.238    23502571.508    23502573.543
  -5659102.44649  -4379892.97745  23271051.665    23271050.847    23271056.083
 08  9 25  2  3 30.0000000  0  9G14G23G 6G31G16G32G 3G29G20
  -4011007.92349  -2665642.19245  23842963.295    23842962.311    23842966.973
 -10685279.32849  -8275303.46946  22692756.631    22692755.962    22692756.704
  -5728629.05649  -3944237.50045  23335924.723    23335924.825    23335928.324
 -25172189.25449 -19584360.43147  21031054.228    21031054.574    21031055.845
 -21672797.93049 -16833767.83747  20310456.669    20310456.573    20310458.612
  -8732412.15549  -6773917.20846  23011875.282    23011874.781    23011879.680
  -1904593.50749   -916315.06145  24259705.721    24259706.025    24259711.228
  -4650175.25749  -3604151.75346  23513357.234    23513357.861    23513359.572
  -5613518.65349  -4344373.15745  23279725.905    23279725.701    23279729.468
 08  9 25  2  4  0.0000000  0  9G14G23G 6G31G16G32G 3G29G20
  -3903302.71749  -2581716.12245  23863458.822    23863459.301    23863462.603
 -10778452.14449  -8347905.64146  22675026.238    22675026.026    22675027.029
  -5830743.54149  -4023807.22145  23316492.915    23316493.328    23316496.615
 -25143886.28849 -19562306.17847  21036440.138    21036440.555    21036441.816
 -21695956.48149 -16851813.45547  20306049.771    20306049.474    20306051.895
  -8670161.50249  -6725410.24246  23023721.316    23023721.170    23023725.617
  -2021955.09149  -1007765.61145  24237372.771    24237372.806    24237376.558
  -4593012.26149  -3559609.17346  23524235.100    23524235.321    23524237.494
  -5567502.25649  -4308516.24545  23288482.592    23288481.170    23288486.207
 08  9 25  2  4 30.0000000  0  9G14G23G 6G31G16G32G 3G29G20
  -3795413.98849  -2497647.06045  23883989.479    23883989.778    23883993.293
 -10871349.24049  -8420292.97546  22657348.375    22657348.014    22657349.187
  -5932727.77349  -4103275.42245  23297086.084    23297086.143    23297089.956
 -25115357.02949 -19540075.59847  21041869.068    21041869.287    21041870.853
 -21718653.41649 -16869499.37447  20301730.698    20301730.305    20301732.897
  -8607587.64949  -6676651.42946  23035628.804    23035628.087    23035631.925
  -2139310.80949  -1099211.61345  24215040.955    24215041.356    24215045.702
  -4535371.04949  -3514693.96146  23535203.943    23535204.097    23535207.199
  -5521053.53149  -4272322.46345  23297321.457    23297321.180    23297325.706
 08  9 25  2  5  0.0000000  0  9G14G23G 6G31G16G32G 3G29G20
  -3687343.76249  -2413436.56545  23904554.837    23904555.241    23904557.996
 -10963967.92149  -8492463.36446  22639723.529    22639723.306    22639724.191
  -6034578.62649  -4182639.69645  23277704.554    23277704.950    23277707.840
 -25086601.35149 -19517668.57947  21047341.084    21047341.159    21047342.867
 -21740888.85949 -16886825.68747  20297499.446    20297499.034    20297501.456
  -8544693.07449  -6627642.67645  23047597.028    23047595.831    23047600.274
  -2256657.84049  -1190650.80245  24192710.544    24192708.556    24192715.093
  -4477253.16749  -3469407.31746  23546263.350    23546263.321    23546266.531
  -5474174.64049  -4235793.49045  23306242.280    23306241.685    23306245.150
 08  9 25  2  5 30.0000000  0  9G14G23G 6G31G16G32G 3G29G20
  -3579093.96349  -2329086.15445  23925154.161    23925153.771    23925156.876
 -11056305.39449  -8564414.63846  22622152.352    22622151.810    22622152.035
  -6136293.51849  -4261898.04345  23258348.890    23258348.940    23258352.107
 -25057619.12149 -19495085.03247  21052856.139    21052856.531    21052857.783
 -21762663.46849 -16903792.91047  20293355.871    20293355.422    20293357.949
  -8481480.46949  -6578386.12845  23059625.840    23059626.023    23059629.114
  -2373993.35049  -1282081.00345  24170382.087    24170381.363    24170386.271
  -4418660.76349  -3423750.90346  23557413.076    23557412.902    23557416.284
  -5426868.25249  -4198931.39645  23315244.602    23315244.542    23315247.964
 08  9 25  2  6  0.0000000  0  9G14G23G 6G31G16G32G 3G29G20
  -3470666.87849  -2244597.57345  23945787.277    23945787.526    23945790.470
 -11148359.13449  -8636144.79246  22604634.900    22604633.798    22604635.811
  -6237870.28949  -4341048.72845  23239019.291    23239018.472    23239022.544
 -25028410.52849 -19472325.10047  21058414.391    21058414.983    21058416.046
 -21783978.08349 -16920401.69947  20289299.765    20289299.470    20289301.813
  -8417952.94049  -6528884.18345  23071714.659    23071713.115    23071717.662
  -2491315.64849  -1373500.90345  24148056.058    24148055.819    24148059.903
  -4359596.06949  -3377726.47946  23568652.738    23568653.231    23568655.908
  -5379136.94449  -4161738.21045  23324327.648    23324326.575    23324329.980
 08  9 25  2  6 30.0000000  0  9G14G23G 6G31G16G32G 3G29G20
  -3362065.40549  -2159973.10145  23966453.473    23966452.280    23966456.539
 -11240126.15949  -8707651.55946  22587171.955    22587171.217    22587172.833
  -6339305.97649  -4420089.49945  23219716.583    23219716.485    23219719.965
 -24998975.49249 -19449388.72047  21064015.719    21064016.275    21064017.465
 -21804833.03649 -16936652.31247  20285331.200    20285330.998    20285333.346
  -8354113.09149  -6479138.86245  23083862.841    23083861.695    23083866.624
  -2608622.10849  -1464908.49645  24125733.285    24125732.613    24125737.984
  -4300061.10649  -3331335.61146  23579981.848    23579982.448    23579985.188
  -5330983.51449  -4124216.08645  23333490.846    23333490.151    23333494.205
 08  9 25  2  7  0.0000000  0  9G14G23G 6G31G16G32G 3G29G20
  -3253291.01049  -2075213.89145  23987152.474    23987152.470    23987156.150
 -11331604.10449  -8778933.06546  22569764.123    22569764.187    22569764.894
  -6440597.84749  -4499018.21145  23200441.231    23200440.549    23200445.085
 -24969313.30549 -19426275.34447  21069660.256    21069660.797    21069662.079
 -21825228.50249 -16952544.88247  20281450.051    20281449.854    20281452.179
  -8289963.41249  -6429152.14445  23096070.103    23096069.904    23096074.210
  -2725909.17949  -1556300.98245  24103414.270    24103414.563    24103418.266
  -4240057.32849  -3284579.43346  23591400.250    23591400.493    23591403.052
  -5282409.97549  -4086366.60645  23342734.157    23342734.221    23342737.250
 08  9 25  2  7 30.0000000  0  9G14G23G 6G31G16G32G 3G29G20
  -3144345.94449  -1990321.69245  24007884.067    24007883.268    24007887.765
 -11422789.96049  -8849986.96646  22552411.923    22552411.420    22552412.687
  -6541743.20349  -4577832.73345  23181193.671    23181193.484    23181197.259
 -24939423.91249 -19402984.91747  21075348.006    21075348.490    21075349.682
 -21845165.56749 -16968080.25547  20277656.164    20277655.981    20277658.319
  -8225506.67649  -6378926.13545  23108335.746    23108335.342    23108339.804
  -2843174.80049  -1647676.75945  24081099.285    24081098.343    24081103.357
  -4179586.90949  -3237459.63446  23602907.376    23602907.127    23602910.807
  -5233419.06949  -4048191.90445  23352056.838    23352056.897    23352059.711
 08  9 25  2  8  0.0000000  0  9G14G23G 6G31G16G32G 3G29G20
  -3035231.88649  -1905297.81545  24028647.762    24028648.093    24028651.406
 -11513680.72449  -8920810.92746  22535115.912    22535115.944    22535116.636
  -6642738.94049  -4656530.66545  23161974.744    23161974.868    23161979.674
 -24909307.18849 -19379517.35547  21081079.038    21081079.532    21081080.833
 -21864644.22549 -16983258.42648  20273949.550    20273949.527    20273951.629
  -8160745.15349  -6328462.63845  23120659.514    23120659.331    23120664.202
  -2960416.20449  -1739033.63745  24058788.738    24058787.908    24058793.492
  -4118651.53449  -3189977.55046  23614502.956    23614503.100    23614506.531
  -5184012.89649  -4009693.63745  23361458.604    23361458.449    23361461.381
 08  9 25  2  8 30.0000000  0  9G14G23G 6G31G16G32G 3G29G20
  -2925951.81749  -1820144.57645  24049443.227    24049442.867    24049446.227
 -11604274.75449  -8991403.67346  22517876.471    22517876.469    22517876.640
  -6743583.25049  -4735110.59845  23142784.667    23142784.674    23142788.846
 -24878963.48749 -19355872.92547  21086853.302    21086853.865    21086855.160
 -21883665.84949 -16998080.46548  20270329.876    20270329.653    20270332.050
  -8095682.42949  -6277764.43845  23133040.616    23133041.089    23133045.273
  -3077631.08149  -1830369.86445  24036483.546    24036483.109    24036487.850
  -4057253.86649  -3142135.24346  23626186.537    23626186.731    23626189.762
  -5134195.05349  -3970874.57545  23370938.943    23370939.086    23370942.630
 08  9 25  2  9  0.0000000  0  9G14G23G 6G31G16G32G 3G29G20
  -2816508.14149  -1734863.84845  24070269.889    24070269.209    24070273.118
 -11694569.22849  -9061762.99146  22500694.100    22500694.463    22500694.427
  -6844273.56549  -4813570.55745  23123624.057    23123623.978    23123628.332
 -24848392.29849 -19332051.23047  21092670.783    21092671.098    21092672.702
 -21902231.12849 -17012546.91148  20266797.033    20266796.839    20266799.072
  -8030321.39449  -6226833.78745  23145478.482    23145478.459    23145482.501
  -3194816.64349  -1921683.22845  24014183.948    24014183.647    24014187.594
  -3995396.14449  -3093934.43846  23637957.742    23637957.992    23637961.017
  -5083967.90849  -3931736.58645  23380496.953    23380496.349    23380499.362
 08  9 25  2  9 30.0000000  0  9G14G23G 6G31G16G32G 3G29G20
  -2706902.26449  -1649456.74545  24091127.290    24091127.509    24091129.946
 -11784560.86649  -9131886.33246  22483569.428    22483569.449    22483569.770
  -6944806.28549  -4891907.71345  23104493.199    23104492.603    23104496.192
 -24817593.29849 -19308052.02047  21098531.623    21098531.920    21098533.643
 -21920340.02249 -17026657.73348  20263351.044    20263350.904    20263353.019
  -7964664.02649  -6175672.24445  23157972.736    23157973.179    23157976.884
  -3311970.02749  -2012971.55845  23991890.437    23991890.510    23991893.842
  -3933079.37849  -3045375.94246  23649816.360    23649817.032    23649819.355
  -5033333.26349  -3892281.03545  23390132.340    23390131.409    23390135.181
 08  9 25  2 10  0.0000000  0  9G14G23G 6G31G16G32G 3G29G20
  -2597136.49249  -1563925.04645  24112015.161    24112014.320    24112018.392
 -11874246.81949  -9201771.47646  22466502.973    22466503.253    22466503.732
  -7045178.86649  -4970120.09145  23085392.754    23085393.275    23085397.509
 -24786566.24849 -19283875.11247  21104435.892    21104436.363    21104437.665
 -21937993.04349 -17040413.32448  20259991.756    20259991.400    20259993.824
  -7898713.18949  -6124282.01445  23170522.848    23170522.911    23170526.995
  -3429088.43649  -2104232.62845  23969603.580    23969603.069    23969606.285
  -3870306.12049  -2996461.74946  23661761.809    23661762.263    23661764.775
  -4982294.00549  -3852510.22845  23399844.656    23399844.235    23399846.906
 08  9 25  2 10 30.0000000  0  9G14G23G 6G31G16G32G 3G29G20
  -2487212.78649  -1478270.27545  24132932.916    24132932.518    24132935.536
 -11963624.22149  -9271416.19746  22449495.137    22449494.948    22449495.330
  -7145388.63349  -5048205.60145  23066323.572    23066323.836    23066327.537
 -24755310.95849 -19259520.34447  21110383.645    21110384.155    21110385.502
 -21955190.88249 -17053814.23148  20256719.128    20256718.805    20256721.002
  -7832471.59449  -6072665.21545  23183128.272    23183127.745    23183131.747
  -3546169.41149  -2195464.54345  23947323.711    23947323.033    23947327.949
  -3807077.99749  -2947193.09846  23673793.801    23673794.073    23673797.849
  -4930852.60949  -3812426.06945  23409633.653    23409633.418    23409636.518
 08  9 25  2 11  0.0000000  0  9G14G23G 6G31G16G32G 3G29G20
  -2377132.55649  -1392493.52345  24153880.400    24153879.497    24153883.643
 -12052690.00549  -9340818.09946  22432546.433    22432546.811    22432547.111
  -7245432.16249  -5126161.56445  23047286.134    23047286.266    23047289.736
 -24723826.61849 -19234987.10247  21116374.940    21116375.358    21116376.958
 -21971933.59949 -17066860.49748  20253533.106    20253533.121    20253535.000
  -7765941.25949  -6020823.42345  23195788.729    23195789.989    23195792.632
  -3663209.53649  -2286664.60945  23925051.748    23925051.362    23925056.194
  -3743396.75149  -2897571.34046  23685912.016    23685912.014    23685915.406
  -4879011.09149  -3772030.11345  23419498.589    23419498.119    23419501.137
 08  9 25  2 11 30.0000000  0  9G14G23G 6G31G16G32G 3G29G20
  -2266899.02849  -1306597.35845  24174856.997    24174856.875    24174861.144
 -12141441.96049  -9409975.46546  22415657.493    22415657.973    22415658.002
  -7345307.52849  -5203986.50745  23028280.460    23028280.143    23028284.212
 -24692113.55049 -19210275.63247  21122409.730    21122410.060    21122411.598
 -21988222.56249 -17079553.18448  20250433.459    20250433.237    20250435.489
  -7699125.67149  -5968759.37245  23208503.460    23208503.947    23208507.272
  -3780206.39749  -2377830.98145  23902788.064    23902787.634    23902793.182
  -3679264.94249  -2847598.53245  23698115.767    23698116.116    23698118.957
  -4826772.39749  -3731324.67445  23429439.240    23429439.087    23429441.784
 08  9 25  2 12  0.0000000  0  9G14G23G 6G31G16G32G 3G29G20
  -2156515.31049  -1220584.13345  24195862.427    24195861.594    24195866.906
 -12229878.54449  -9478887.06646  22398828.703    22398828.344    22398828.823
  -7445013.05449  -5281679.08745  23009307.085    23009307.058    23009311.146
 -24660172.66649 -19185386.63447  21128487.842    21128488.232    21128489.412
 -22004059.62649 -17091893.74448  20247419.779    20247419.483    20247421.620
  -7632028.69949  -5916476.06245  23221271.695    23221272.198    23221274.708
  -3897158.50849  -2468962.46145  23880532.878    23880532.481    23880538.153
  -3614685.77149  -2797277.10945  23710404.815    23710404.938    23710407.402
  -4774140.68949  -3690312.98145  23439454.779    23439455.153    23439456.936
 08  9 25  2 12 30.0000000  0  9G14G23G 6G31G16G32G 3G29G20
  -2045981.15649  -1134453.68645  24216896.270    24216895.482    24216897.815
 -12317994.54749  -9547548.87546  22382060.807    22382061.132    22382060.860
  -7544543.56349  -5359235.30945  22990366.988    22990366.500    22990370.150
 -24628001.35749 -19160318.08147  21134609.827    21134610.414    21134611.622
 -22019442.95349 -17103880.74648  20244492.498    20244492.190    20244494.407
  -7564650.68049  -5863973.74545  23234093.259    23234093.512    23234096.037
  -4014060.98649  -2560055.28945  23858287.113    23858285.902    23858291.385
  -3549658.90449  -2746606.83645  23722778.892    23722778.752    23722781.856
  -4721116.05949  -3648995.11645  23449545.322    23449544.758    23449548.062
 08  9 25  2 13  0.0000000  0  9G14G23G 6G31G16G32G 3G29G20
  -1935299.75149  -1048208.51545  24237958.122    24237958.151    24237963.255
 -12405788.24449  -9615959.54046  22365354.280    22365354.148    22365353.611
  -7643897.45749  -5436653.90045  22971460.422    22971460.149    22971463.985
 -24595600.52949 -19135070.69347  21140775.595    21140776.035    21140777.398
 -22034374.20349 -17115515.48147  20241651.099    20241650.667    20241653.025
  -7496995.43949  -5811255.41345  23246967.698    23246966.750    23246969.883
  -4130911.79749  -2651107.85245  23836050.926    23836050.536    23836054.807
  -3484187.35549  -2695590.06245  23735237.633    23735237.887    23735240.426
  -4667702.23849  -3607373.99345  23459709.696    23459708.622    23459712.699
 08  9 25  2 13 30.0000000  0  9G14G23G 6G31G16G32G 3G29G20
  -1824472.71749   -961849.86345  24259047.804    24259048.580    24259052.735
 -12493256.58649  -9684116.68046  22348709.631    22348710.420    22348709.518
  -7743071.72549  -5513932.51546  22952588.298    22952588.094    22952591.960
 -24562969.82949 -19109644.18247  21146985.023    21146985.457    21146986.813
 -22048853.67049 -17126798.18247  20238895.720    20238895.544    20238897.521
  -7429065.45449  -5758323.00445  23259894.337    23259894.310    23259897.743
  -4247708.06049  -2742117.90545  23813825.294    23813825.811    23813829.345
  -3418272.93749  -2644228.19645  23747780.832    23747781.473    23747783.754
  -4613901.29749  -3565451.20845  23469947.672    23469947.314    23469951.614
 08  9 25  2 14  0.0000000  0  9G14G23G 6G31G16G32G 3G29G20
  -1713502.53149   -875379.67344  24280164.839    24280163.952    24280166.033
 -12580397.04049  -9752018.32346  22332127.347    22332126.620    22332127.860
  -7842063.72349  -5591069.12246  22933750.765    22933750.635    22933754.258
 -24530108.88949 -19084038.26647  21153238.242    21153238.558    21153239.844
 -22062881.94549 -17137729.30247  20236226.232    20236225.772    20236228.237
  -7360863.52849  -5705178.69445  23272872.708    23272870.857    23272876.409
  -4364447.31349  -2833083.54045  23791610.655    23791610.171    23791615.346
  -3351917.98049  -2592523.06945  23760407.776    23760408.192    23760410.223
  -4559716.11749  -3523229.02545  23480258.797    23480258.975    23480261.842
 08  9 25  2 14 30.0000000  0  9G14G23G 6G31G16G32G 3G29G20
  -1602391.25149   -788799.52044  24301308.855    24301309.304    24301312.030
 -12667206.54349  -9819662.08046  22315608.004    22315608.086    22315607.860
  -7940870.44549  -5668061.33446  22914948.505    22914948.701    22914952.618
 -24497017.12849 -19058252.48347  21159535.425    21159535.788    21159537.163
 -22076460.19249 -17148309.74948  20233642.340    20233642.011    20233644.238
  -7292392.29749  -5651824.50145  23285902.115    23285901.246    23285906.882
  -4481126.83949  -2924002.61645  23769407.430    23769407.542    23769411.844
  -3285124.31749  -2540476.09045  23773118.132    23773118.612    23773121.411
  -4505149.34449  -3480709.49345  23490642.566    23490642.557    23490644.745
 08  9 25  2 15  0.0000000  0  9G14G23G 6G31G16G32G 3G29G20
  -1491141.37849   -702111.39045  24322479.186    24322479.388    24322483.601
 -12753682.75149  -9887046.12746  22299152.069    22299151.249    22299151.954
  -8039489.51249  -5744907.32746  22896181.782    22896182.203    22896185.463
 -24463694.98949 -19032287.19547  21165876.430    21165876.758    21165878.074
 -22089588.99749 -17158539.98648  20231143.996    20231143.541    20231146.152
  -7223654.76149  -5598262.81445  23298982.367    23298981.311    23298985.830
  -4597743.98749  -3014873.09545  23747215.964    23747216.364    23747219.806
  -3217894.50749  -2488089.24845  23785911.449    23785912.136    23785915.074
  -4450203.79549  -3437894.81845  23501098.307    23501097.459    23501101.099
 08  9 25  2 15 30.0000000  0  9G14G23G 6G31G16G32G 3G29G20
  -1379754.54049   -615316.54344  24343675.422    24343674.145    24343678.236
 -12839822.44349  -9954167.94946  22282760.154    22282760.246    22282760.956
  -8137917.88349  -5821604.73246  22877451.475    22877451.200    22877456.803
 -24430141.76749 -19006141.84047  21172261.392    21172261.768    21172263.320
 -22102268.96849 -17168420.48148  20228731.037    20228730.721    20228733.059
  -7154653.43749  -5544495.58745  23312112.863    23312112.790    23312117.789
  -4714295.26549  -3105692.22945  23725036.967    23725036.489    23725040.550
  -3150230.23249  -2435363.87745  23798787.585    23798788.222    23798791.223
  -4394881.78149  -3394786.78445  23511625.781    23511624.191    23511629.545
 08  9 25  2 16  0.0000000  0  9G14G23G 6G31G16G32G 3G29G20
  -1268234.04549   -528417.51644  24364897.053    24364896.033    24364899.654
 -12925623.76049 -10021026.10846  22266432.783    22266432.739    22266433.014
  -8236153.87649  -5898152.24246  22858757.817    22858758.541    22858762.362
 -24396358.43349 -18979817.17747  21178690.086    21178690.278    21178691.861
 -22114501.73449 -17177952.50548  20226403.194    20226402.953    20226405.101
  -7085392.15649  -5490525.79545  23325292.941    23325292.146    23325296.358
  -4830779.31849  -3196458.98445  23702870.678    23702870.644    23702875.565
  -3082134.89349  -2382302.58945  23811745.635    23811745.911    23811749.157
  -4339187.23549  -3351388.46645  23522223.953    23522223.054    23522227.299
 08  9 25  2 16 30.0000000  0  9G14G23G 6G31G16G32G 3G29G20
  -1156580.79949   -441415.06844  24386144.210    24386145.952    24386148.587
 -13011082.76549 -10087617.53846  22250170.520    22250170.737    22250170.723
  -8334193.43849  -5974546.69046  22840101.608    22840100.717    22840104.937
 -24362343.37549 -18953311.95347  21185162.935    21185163.487    21185164.736
 -22126286.79449 -17187135.66448  20224160.549    20224160.175    20224162.705
  -7015872.33849  -5436354.54745  23338522.121    23338519.859    23338525.143
  -4947191.97249  -3287170.09845  23680717.892    23680717.840    23680722.746
  -3013609.08949  -2328905.90245  23824785.669    23824786.134    23824789.563
  -4283121.26149  -3307700.73345  23532892.704    23532891.498    23532895.838
 08  9 25  2 17  0.0000000  0  9G14G23G 6G31G16G32G 3G29G20
  -1044797.29849   -354311.13744  24407416.037    24407417.307    24407419.691
 -13096197.18249 -10153940.43746  22233973.767    22233974.180    22233974.083
  -8432034.37649  -6050786.35646  22821483.015    22821482.257    22821487.019
 -24328096.62549 -18926626.18547  21191679.912    21191680.375    21191681.663
 -22137625.37649 -17195970.92448  20222002.898    20222002.689    20222004.764
  -6946097.26349  -5381984.40045  23351799.812    23351798.656    23351803.336
  -5063531.27849  -3377824.07445  23658579.037    23658578.917    23658583.552
  -2944655.63549  -2275175.96645  23837907.124    23837907.750    23837910.417
  -4226687.22549  -3263726.20745  23543631.706    23543631.383    23543634.654
 08  9 25  2 17 30.0000000  0  9G14G23G 6G31G16G32G 3G29G20
   -932886.46949   -267107.98144  24428712.007    24428713.903    24428714.664
 -13180964.79649 -10219993.11446  22217843.040    22217842.348    22217843.324
  -8529674.57849  -6126869.59046  22802902.562    22802902.169    22802906.993
 -24293618.75749 -18899760.32347  21198240.838    21198241.273    21198242.682
 -22148518.78849 -17204459.29148  20219929.968    20219929.624    20219931.922
  -6876070.37549  -5327418.04345  23365125.429    23365125.270    23365128.824
  -5179794.40249  -3468418.66945  23636454.774    23636454.233    23636459.742
  -2875277.00749  -2221114.73345  23851109.375    23851110.250    23851113.666
  -4169888.34549  -3219467.37345  23554440.397    23554439.501    23554444.734
 08  9 25  2 18  0.0000000  0  9G14G23G 6G31G16G32G 3G29G20
   -820849.16449   -179806.23244  24450032.137    24450033.764    24450035.049
 -13265382.02049 -10285772.75946  22201778.926    22201779.138    22201779.531
  -8627110.10749  -6202793.34446  22784361.218    22784361.145    22784365.192
 -24258908.58549 -18872713.44647  21204845.994    21204846.240    21204847.745
 -22158966.99449 -17212600.73948  20217941.712    20217941.310    20217943.766
  -6805793.42749  -5272656.81145  23378498.666    23378499.552    23378504.136
  -5295977.85649  -3558951.19845  23614345.786    23614345.769    23614350.649
  -2805474.60549  -2166723.28745  23864392.386    23864393.034    23864396.306
  -4112726.31249  -3174925.57145  23565318.010    23565317.740    23565322.131
 08  9 25  2 18 30.0000000  0  9G14G23G 6G31G16G32G 3G29G20
   -708688.58749    -92408.48844  24471375.775    24471376.948    24471379.148
 -13349446.60949 -10351277.61746  22185781.996    22185782.123    22185782.399
  -8724338.96449  -6278556.07546  22765859.227    22765859.453    22765863.498
 -24223966.31049 -18845485.71147  21211495.296    21211495.517    21211497.080
 -22168971.34749 -17220396.33548  20216037.934    20216037.598    20216039.967
  -6735269.82149  -5217703.39545  23391918.946    23391919.431    23391923.559
  -5412079.63049  -3649420.06545  23592252.393    23592252.084    23592257.851
  -2735251.23149  -2112003.78045  23877755.543    23877755.654    23877758.859
  -4055204.59149  -3130103.50445  23576264.115    23576263.492    23576266.793
 08  9 25  2 19  0.0000000  0  9G14G23G 6G31G16G32G 3G29G20
   -596407.08549     -4916.47944  24492742.309    24492742.167    24492746.526
 -13433156.11749 -10416505.80846  22169852.686    22169852.441    22169852.048
  -8821358.81549  -6354155.93246  22747397.027    22747396.855    22747400.573
 -24188791.97549 -18818077.15047  21218188.715    21218188.834    21218190.387
 -22178532.84949 -17227846.85048  20214218.453    20214218.308    20214220.552
  -6664502.84449  -5162560.34445  23405385.584    23405385.209    23405389.803
  -5528097.17849  -3739823.30445  23570175.021    23570174.798    23570179.949
  -2664609.49849  -2056958.31545  23891198.233    23891198.228    23891201.948
  -3997326.31049  -3085003.59645  23587277.969    23587277.568    23587281.559
 08  9 25  2 19 30.0000000  0  9G14G23G 6G31G16G32G 3G29G20
   -484006.30049     82668.45344  24514131.421    24514130.860    24514133.590
 -13516507.53749 -10481454.95046  22153991.369    22153990.182    22153990.740
  -8918166.68349  -6429590.60146  22728975.145    22728975.628    22728978.641
 -24153385.25449 -18790487.50547  21224926.410    21224926.759    21224928.025
 -22187652.04649 -17234952.70548  20212483.187    20212482.779    20212485.112
  -6593494.86149  -5107229.48345  23418898.041    23418897.754    23418902.668
  -5644027.69849  -3830158.73345  23548114.241    23548114.090    23548118.662
  -2593551.22449  -2001588.25145  23904720.268    23904720.936    23904723.718
  -3939093.80349  -3039627.64845  23598359.445    23598358.616    23598361.174
 08  9 25  2 20  0.0000000  0  9G14G23G 6G31G16G32G 3G29G20
   -371489.67349    170343.62544  24535542.626    24535540.449    24535546.202
 -13599498.80749 -10546123.46146  22138198.540    22138198.524    22138199.206
  -9014760.69149  -6504858.62246  22710593.869    22710594.153    22710597.812
 -24117746.67149 -18762717.19347  21231708.260    21231708.754    21231710.023
 -22196330.89949 -17241715.43548  20210831.643    20210831.433    20210833.485
  -6522249.71549  -5051713.81745  23432455.504    23432455.419    23432459.720
  -5759868.83949  -3920424.50745  23526070.452    23526070.440    23526074.937
  -2522079.50149  -1945896.02945  23918320.980    23918320.991    23918324.515
  -3880510.94449  -2993978.68645  23609507.388    23609507.148    23609510.907
 08  9 25  2 20 30.0000000  0  9G14G23G 6G31G16G32G 3G29G20
   -258857.10248    258109.18444  24556975.600    24556975.789    24556978.122
 -13682125.18949 -10610507.65346  22122475.226    22122474.919    22122475.579
  -9111135.76849  -6579956.06646  22692254.283    22692254.259    22692257.706
 -24081873.87949 -18734764.38847  21238534.655    21238534.938    21238536.311
 -22204567.71749 -17248133.72848  20209264.222    20209263.878    20209266.082
  -6450767.86549  -4996013.72045  23446058.099    23446057.122    23446062.044
  -5875615.77749  -4010616.87545  23504044.352    23504043.549    23504048.845
  -2450194.50549  -1889881.77645  23932000.102    23931999.921    23932003.344
  -3821578.11349  -2948057.05045  23620722.097    23620721.695    23620725.138
 08  9 25  2 21  0.0000000  0  9G14G23G 6G31G16G32G 3G29G20
   -146111.75449    345962.63244  24578430.281    24578429.777    24578433.587
 -13764385.10249 -10674606.28946  22106821.669    22106821.256    22106821.592
  -9207290.40249  -6654881.73246  22673956.637    22673956.187    22673960.364
 -24045767.71349 -18706629.72647  21245405.433    21245406.001    21245407.135
 -22212364.54049 -17254209.16548  20207780.551    20207780.265    20207782.430
  -6379053.11549  -4940132.13945  23459704.952    23459704.574    23459710.058
  -5991266.85249  -4100734.53445  23482036.541    23482036.504    23482040.975
  -2377899.37349  -1833547.92745  23945757.541    23945758.506    23945761.285
  -3762299.33449  -2901865.86145  23632002.483    23632001.806    23632005.568
 08  9 25  2 21 30.0000000  0  9G14G23G 6G31G16G32G 3G29G20
    -33255.02049    433902.82944  24599906.591    24599906.489    24599910.817
 -13846275.14749 -10738416.69846  22091238.421    22091238.074    22091238.449
  -9303221.36649  -6729633.11246  22655701.444    22655702.454    22655705.577
 -24009427.47149 -18678312.66347  21252320.774    21252321.494    21252322.538
 -22219721.71949 -17259942.02248  20206380.525    20206380.504    20206382.371
  -6307108.06949  -4884071.10445  23473395.725    23473395.017    23473401.052
  -6106818.38149  -4190774.63345  23460047.978    23460047.687    23460052.157
  -2305195.72349  -1776895.77345  23959592.697    23959592.939    23959595.625
  -3702676.61049  -2855406.62645  23643348.369    23643348.261    23643351.508
 08  9 25  2 22  0.0000000  0  9G14G23G 6G31G16G32G 3G29G20
     79709.22348    521926.80344  24621403.212    24621402.808    24621408.060
 -13927793.71749 -10801937.65646  22075725.897    22075725.463    22075725.939
  -9398927.18649  -6804209.04546  22637489.302    22637489.672    22637493.124
 -23972853.99249 -18649813.86547  21259280.494    21259280.906    21259282.171
 -22226641.43849 -17265334.00448  20205063.793    20205063.486    20205065.669
  -6234936.70749  -4827833.71845  23487129.565    23487129.589    23487134.200
  -6222269.00649  -4280736.12045  23438078.503    23438078.686    23438081.785
  -2232087.59849  -1719928.43345  23973504.809    23973504.898    23973508.182
  -3642714.10849  -2808682.64445  23654758.992    23654758.062    23654761.559
 08  9 25  2 22 30.0000000  0  9G14G23G 6G31G16G32G 3G29G20
    192779.80948    610033.63544  24642919.636    24642920.681    24642922.162
 -14008936.81849 -10865166.03846  22060284.872    22060285.192    22060284.794
  -9494403.92149  -6878606.47246  22619320.684    22619321.590    22619325.034
 -23936046.08949 -18621132.39647  21266284.755    21266284.987    21266286.643
 -22233123.09849 -17270384.63448  20203830.332    20203830.079    20203832.140
  -6162540.63449  -4771421.24645  23500906.307    23500905.981    23500910.812
  -6337614.39449  -4370615.59845  23416129.091    23416127.312    23416132.922
  -2158575.80349  -1662646.54845  23987493.632    23987494.143    23987497.292
  -3582413.32749  -2761695.03345  23666233.576    23666233.008    23666236.404
 08  9 25  2 23  0.0000000  0  9G14G23G 6G31G16G32G 3G29G20
    305954.66349    698221.73944  24664456.305    24664453.214    24664459.317
 -14089702.26949 -10928100.15446  22044915.667    22044915.553    22044916.008
  -9589649.19849  -6952823.55146  22601196.152    22601195.418    22601200.259
 -23899003.51549 -18592268.07347  21273333.738    21273334.037    21273335.694
 -22239168.50649 -17275095.33548  20202679.906    20202679.656    20202681.915
  -6089922.92749  -4714836.06245  23514725.033    23514724.645    23514728.672
  -6452852.85549  -4460411.74945  23394199.525    23394198.723    23394203.447
  -2084662.73449  -1605051.97445  24001558.862    24001559.146    24001562.611
  -3521777.55049  -2714446.43045  23677772.250    23677772.409    23677775.011
 08  9 25  2 23 30.0000000  0  9G14G23G 6G31G16G32G 3G29G20
    419232.39649    786490.01644  24686012.573    24686012.909    24686018.268
 -14170086.49049 -10990737.20546  22029619.048    22029618.882    22029619.007
  -9684659.53649  -7026857.55946  22583116.161    22583115.654    22583119.942
 -23861725.50449 -18563220.29147  21280427.517    21280427.966    21280429.167
 -22244777.57049 -17279466.02848  20201612.497    20201612.245    20201614.475
  -6017085.56149  -4658079.72045  23528585.449    23528585.129    23528589.904
  -6567980.40049  -4550121.48145  23372291.073    23372290.790    23372296.436
  -2010350.03049  -1547146.00245  24015700.129    24015700.506    24015704.164
  -3460808.68049  -2666938.26645  23689374.314    23689374.048    23689377.480
 08  9 25  2 24  0.0000000  0  9G14G23G 6G31G16G32G 3G29G20
    532609.63949    874835.79544  24707587.561    24707587.893    24707591.411
 -14250087.71749 -11053075.81346  22014395.317    22014394.732    22014396.296
  -9779433.41249  -7100707.30446  22565081.260    22565081.159    22565084.773
 -23824212.78949 -18533989.62147  21287565.984    21287566.384    21287567.964
 -22249952.14549 -17283498.15648  20200627.820    20200627.577    20200629.680
  -5944032.78849  -4601155.52045  23542487.012    23542486.836    23542491.254
  -6682995.30749  -4639743.44045  23350404.359    23350404.711    23350408.924
  -1935641.12949  -1488931.30745  24029916.802    24029916.815    24029920.179
  -3399510.85449  -2619173.75545  23701038.908    23701038.492    23701041.804
 08  9 25  2 24 30.0000000  0  9G14G23G 6G31G16G32G 3G29G20
    646084.13548    963257.36044  24729181.092    24729182.063    24729183.519
 -14329703.14649 -11115113.80446  21999244.924    21999244.480    21999245.559
  -9873968.03249  -7174370.62946  22547091.857    22547091.753    22547095.830
 -23786465.24049 -18504575.96547  21294749.080    21294749.412    21294750.732
 -22254693.19849 -17287192.48448  20199725.616    20199725.381    20199727.550
  -5870767.41049  -4544065.65945  23556428.802    23556428.684    23556433.506
  -6797894.73949  -4729275.41845  23328539.749    23328539.678    23328544.373
  -1860538.45649  -1430409.78445  24044208.475    24044207.472    24044210.956
  -3337886.92949  -2571155.14745  23712765.713    23712764.964    23712768.485
 08  9 25  2 25  0.0000000  0  9G14G23G 6G31G16G32G 3G29G20
    759653.32548   1051752.71544  24750792.412    24750792.243    24750797.474
 -14408930.37349 -11176849.29646  21984168.479    21984168.337    21984169.058
  -9968261.16849  -7247845.76646  22529148.340    22529148.725    22529152.538
 -23748482.97349 -18474979.40547  21301976.840    21301977.408    21301978.441
 -22259002.01249 -17290549.99248  20198905.641    20198905.119    20198907.622
  -5797292.52549  -4486812.54845  23570410.761    23570410.914    23570414.874
  -6912676.13649  -4818715.41845  23306697.444    23306696.590    23306702.228
  -1785044.52049  -1371583.36245  24058574.384    24058575.265    24058577.199
  -3275939.83749  -2522884.72245  23724553.620    23724552.954    23724556.704
 08  9 25  2 25 30.0000000  0  9G14G23G 6G31G16G32G 3G29G20
    873315.56548   1140320.58044  24772421.732    24772421.340    24772424.075
 -14487766.19449 -11238279.79946  21969166.573    21969166.213    21969166.973
 -10062309.35349  -7321130.04346  22511251.643    22511251.625    22511255.493
 -23710265.04449 -18445199.21647  21309249.489    21309250.103    21309251.244
 -22262878.99649 -17293571.01348  20198167.819    20198167.600    20198169.853
  -5723610.26049  -4429397.83245  23584431.943    23584431.608    23584436.410
  -7027336.15449  -4908060.85445  23284878.386    23284878.684    23284882.772
  -1709160.89249  -1312453.29845  24073014.510    24073015.128    24073017.844
  -3213671.97049  -2474364.35845  23736402.836    23736402.640    23736406.594
 08  9 25  2 26  0.0000000  0  9G14G23G 6G31G16G32G 3G29G20
    987068.55348   1228959.16044  24794068.411    24794067.674    24794072.205
 -14566208.68849 -11299403.81346  21954239.443    21954239.456    21954239.658
 -10156110.44249  -7394221.77846  22493401.809    22493401.712    22493406.247
 -23671811.79849 -18415235.65647  21316566.918    21316567.467    21316568.916
 -22266325.56749 -17296256.64448  20197511.992    20197511.774    20197513.714
  -5649724.13449  -4371824.27745  23598492.042    23598492.773    23598496.661
  -7141871.87849  -4997309.43745  23263083.162    23263082.993    23263085.956
  -1632890.71449  -1253022.01645  24087528.351    24087528.291    24087531.486
  -3151086.44949  -2425596.46045  23748312.445    23748311.386    23748316.171
 08  9 25  2 26 30.0000000  0  9G14G23G 6G31G16G32G 3G29G20
   1100910.00048   1317666.65844  24815731.623    24815731.846    24815736.489
 -14644254.34849 -11360218.61046  21939387.813    21939387.168    21939388.364
 -10249661.50749  -7467118.70746  22475599.575    22475599.826    22475603.282
 -23633122.48249 -18385088.14847  21323929.239    21323929.801    21323931.164
 -22269342.34649 -17298607.37548  20196937.959    20196937.731    20196940.020
  -5575636.63349  -4314093.80445  23612590.618    23612590.004    23612594.907
  -7256281.29149  -5086459.58645  23241311.858    23241311.105    23241315.526
  -1556235.93449  -1193291.04745  24102115.280    24102115.593    24102118.939
  -3088186.47049  -2376583.52945  23760281.868    23760281.320    23760286.006
 08  9 25  2 27  0.0000000  0  9G14G23G 6G31G16G32G 3G29G20
   1214838.04948   1406441.63544  24837411.381    24837412.627    24837416.277
 -14721900.46549 -11420722.06346  21924612.227    21924612.107    21924612.470
 -10342959.52449  -7539818.42946  22457845.567    22457845.907    22457849.271
 -23594196.81949 -18354756.47647  21331336.612    21331337.253    21331338.501
 -22271929.92049 -17300623.65748  20196445.603    20196445.262    20196447.519
  -5501350.38849  -4256208.47145  23626726.897    23626726.747    23626731.089
  -7370560.39549  -5175508.19845  23219565.185    23219564.820    23219569.188
  -1479198.55149  -1133261.93745  24116774.999    24116775.744    24116779.182
  -3024974.01249  -2327327.11645  23772310.907    23772310.102    23772314.681
 08  9 25  2 27 30.0000000  0  9G14G23G 6G31G16G32G 3G29G20
   1328850.02348   1495282.02944  24859107.202    24859107.168    24859111.022
 -14799144.83649 -11480912.47946  21909913.051    21909913.223    21909913.567
 -10436002.41449  -7612319.35746  22440140.136    22440139.535    22440144.345
 -23555035.06349 -18324240.83647  21338788.880    21338789.164    21338790.694
 -22274089.88549 -17302306.74348  20196034.565    20196034.186    20196036.377
  -5426868.74249  -4198170.86345  23640900.487    23640901.325    23640904.557
  -7484707.17849  -5264453.71045  23197843.828    23197844.616    23197848.048
  -1401781.60149  -1072937.07045  24131506.894    24131507.365    24131510.303
  -2961452.51449  -2277829.87945  23784398.802    23784397.734    23784402.991
 08  9 25  2 28  0.0000000  0  9G14G23G 6G31G16G32G 3G29G20
   1442942.63048   1584185.23144  24880818.561    24880819.427    24880822.665
 -14875985.85149 -11540788.58846  21895290.703    21895290.576    21895291.337
 -10528788.73849  -7684620.38046  22422483.592    22422483.797    22422486.847
 -23515638.12149 -18293541.93647  21346285.788    21346286.254    21346287.758
 -22275824.98749 -17303658.76848  20195704.401    20195703.995    20195706.197
  -5352195.89749  -4139984.28545  23655110.632    23655110.318    23655114.235
  -7598719.79249  -5353294.67645  23176148.013    23176147.917    23176152.618
  -1323988.50049  -1012319.09345  24146310.432    24146310.847    24146313.924
  -2897626.51949  -2228095.38245  23796544.647    23796543.706    23796547.834
 08  9 25  2 28 30.0000000  0  9G14G23G 6G31G16G32G 3G29G20
   1557116.66049   1673151.88544  24902545.244    24902546.766    24902550.497
 -14952417.69349 -11600345.86346  21880746.185    21880745.845    21880746.521
 -10621312.55249  -7756716.84746  22404877.002    22404875.997    22404880.601
 -23476002.93749 -18262657.39847  21353828.081    21353828.342    21353830.055
 -22277132.54649 -17304677.64048  20195455.547    20195455.287    20195457.374
  -5277331.43649  -4081648.38845  23669356.929    23669356.366    23669360.676
  -7712592.25749  -5442026.43745  23154478.851    23154478.948    23154483.185
  -1245818.67749   -951407.57245  24161185.661    24161185.949    24161188.644
  -2833495.58349  -2178123.25545  23808748.410    23808747.657    23808752.644
 08  9 25  2 29  0.0000000  0  9G14G23G 6G31G16G32G 3G29G20
   1671368.11548   1762178.85144  24924286.444    24924286.785    24924290.219
 -15028439.35849 -11659583.52546  21866279.751    21866279.780    21866280.406
 -10713573.01649  -7828608.09346  22387320.385    22387320.151    22387324.370
 -23436130.55549 -18231588.03147  21361415.605    21361416.239    21361417.405
 -22278015.39849 -17305365.57548  20195287.582    20195287.463    20195289.379
  -5202280.06049  -4023166.84845  23683638.625    23683638.868    23683643.058
  -7826323.51049  -5530648.17845  23132836.619    23132836.271    23132839.632
  -1167275.93549   -890205.45945  24176131.947    24176131.922    24176135.312
  -2769064.24149  -2127917.06145  23821009.134    23821008.509    23821013.672
 08  9 25  2 29 30.0000000  0  9G14G23G 6G31G16G32G 3G29G20
   1785694.74349   1851264.39844  24946042.346    24946042.874    24946046.922
 -15104048.04549 -11718499.37546  21851892.006    21851891.900    21851892.602
 -10805567.66949  -7900292.22046  22369814.308    22369814.040    22369818.547
 -23396020.73649 -18200333.64247  21369048.311    21369048.595    21369050.179
 -22278474.59049 -17305723.37348  20195200.173    20195199.744    20195202.196
  -5127044.58549  -3964541.84445  23697955.404    23697954.737    23697959.818
  -7939911.01649  -5619157.89045  23111221.600    23111221.055    23111226.098
  -1088362.89549   -828714.81145  24191148.708    24191149.815    24191152.260
  -2704335.52049  -2077479.13445  23833326.511    23833326.082    23833330.996
 08  9 25  2 30  0.0000000  0  9G14G23G 6G31G16G32G 3G29G20
   1900094.50749   1940406.94244  24967812.218    24967813.742    24967818.547
 -15179241.44449 -11777091.63346  21837583.241    21837583.076    21837583.797
 -10897293.73049  -7971767.05946  22352359.384    22352359.254    22352363.093
 -23355673.91249 -18168894.57847  21376726.016    21376726.550    21376728.165
 -22278511.32949 -17305752.00048  20195193.172    20195192.939    20195194.880
  -5051628.03849  -3905775.75845  23712306.680    23712306.222    23712311.241
  -8053351.79849  -5707553.26945  23089634.572    23089634.049    23089638.270
  -1009082.21049   -766937.66845  24206235.282    24206235.132    24206238.378
  -2639312.47549  -2026811.84945  23845700.113    23845700.285    23845703.610
 08  9 25  2 30 30.0000000  0  9G14G23G 6G31G16G32G 3G29G20
   2014565.31048   2029604.83544  24989595.347    24989595.313    24989599.972
 -15254016.57549 -11835357.96446  21823354.025    21823353.337    21823353.786
 -10988748.43249  -8043030.45446  22334956.072    22334955.822    22334959.531
 -23315089.33749 -18137270.25047  21384448.974    21384449.624    21384450.873
 -22278126.44249 -17305452.07948  20195266.392    20195266.268    20195268.247
  -4976033.20749  -3846870.74945  23726691.980    23726691.134    23726696.555
  -8166642.77449  -5795831.92845  23068075.894    23068075.164    23068079.731
   -929435.70549   -704875.47745  24221391.656    24221391.530    24221394.293
  -2573997.54649  -1975917.15245  23858129.320    23858129.081    23858132.763
 08  9 25  2 31  0.0000000  0  9G14G23G 6G31G16G32G 3G29G20
   2129105.36448   2118856.69044  25011391.473    25011391.994    25011395.843
 -15328370.51149 -11893296.09146  21809204.896    21809204.872    21809204.672
 -11079928.67249  -8114079.97446  22317605.011    22317604.944    22317608.861
 -23274266.34549 -18105460.14747  21392217.410    21392217.786    21392219.251
 -22277320.73449 -17304824.25248  20195419.741    20195419.432    20195421.582
  -4900262.49049  -3787828.67745  23741110.744    23741111.121    23741114.570
  -8279781.14349  -5883991.67345  23046546.306    23046545.299    23046549.876
   -849425.79249   -642530.13445  24236617.057    24236617.329    24236620.582
  -2508393.53849  -1924797.18245  23870613.352    23870613.008    23870617.760
 08  9 25  2 31 30.0000000  0  9G14G23G 6G31G16G32G 3G29G20
   2243711.70649   2208160.22544  25033200.437    25033201.775    25033205.146
 -15402301.13549 -11950904.36746  21795136.415    21795136.601    21795136.205
 -11170832.47349  -8184914.08446  22300306.622    22300306.979    22300310.595
 -23233205.54649 -18073464.74347  21400030.997    21400031.337    21400032.863
 -22276095.65649 -17303869.64348  20195652.841    20195652.521    20195654.840
  -4824319.43649  -3728652.30745  23755562.346    23755562.646    23755566.687
  -8392764.08449  -5972030.29245  23025046.222    23025045.443    23025050.295
   -769055.35949   -579903.87645  24251910.985    24251910.851    24251913.527
  -2442504.18749  -1873454.87345  23883151.680    23883151.288    23883156.517
 08  9 25  2 32  0.0000000  0  9G14G23G 6G31G16G32G 3G29G20
   2358382.51849   2297513.99244  25055021.801    25055024.028    25055026.733
 -15475805.18549 -12008180.25046  21781149.057    21781148.884    21781148.955
 -11261456.75149  -8255530.38846  22283061.358    22283060.788    22283065.279
 -23191905.95949 -18041283.26447  21407890.062    21407890.426    21407892.160
 -22274452.00649 -17302588.88048  20195965.628    20195965.234    20195967.493
  -4748206.19649  -3669343.33545  23770046.253    23770045.950    23770050.047
  -8505588.10949  -6059945.09545  23003576.485    23003576.196    23003580.863
   -688326.23449   -516998.07745  24267273.241    24267274.226    24267275.328
  -2376331.70049  -1821891.92545  23895743.900    23895744.460    23895747.842
 08  9 25  2 32 30.0000000  0  9G14G23G 6G31G16G32G 3G29G20
   2473115.97848   2386916.59944  25076854.976    25076854.135    25076861.230
 -15548880.16649 -12065121.78846  21767243.337    21767243.371    21767243.639
 -11351798.81949  -8325926.78246  22265869.759    22265870.089    22265874.012
 -23150367.55949 -18008915.69947  21415794.566    21415795.054    21415796.599
 -22272390.87449 -17300982.80148  20196357.835    20196357.543    20196359.687
  -4671925.95549  -3609904.24245  23784561.730    23784559.982    23784566.155
  -8618250.71749  -6147734.11845  22982137.464    22982137.917    22982141.651
   -607240.79949   -453814.65845  24282703.327    24282703.134    24282706.196
  -2309878.93249  -1770110.59445  23908389.438    23908389.167    23908394.349
 08  9 25  2 33  0.0000000  0 10G14G23G 6G31G16G32G 3G29G13G20
   2587909.16349   2476365.71944  25098699.253    25098697.973    25098702.577
 -15621523.77949 -12121727.19347  21753419.806    21753419.851    21753419.703
 -11441856.48349  -8396101.57646  22248732.262    22248732.453    22248736.541
 -23108590.39049 -17976362.08147  21423744.516    21423744.740    21423746.575
 -22269913.68549 -17299052.52248  20196829.202    20196828.936    20196831.013
  -4595481.79349  -3550337.41645  23799108.346    23799108.700    23799112.243
  -8730749.64949  -6235395.59946  22960729.635    22960729.258    22960733.934
   -525802.12649   -390355.98045  24298200.464    24298200.816    24298204.017
   -916901.90149   -683692.97844                                  24135004.445
  -2243149.41049  -1718113.59945  23921087.818    23921087.056    23921092.396
 08  9 25  2 33 30.0000000  0 10G14G23G 6G31G16G32G 3G29G13G20
   2702759.88849   2565859.70944  25120554.785    25120554.942    25120560.082
 -15693733.28749 -12177994.33947  21739678.786    21739678.983    21739678.517
 -11531627.26049  -8466052.80946  22231649.469    22231649.170    22231652.992
 -23066574.39849 -17943622.36847  21431739.872    21431740.385    21431741.825
 -22267021.53749 -17296798.89648  20197379.556    20197379.355    20197381.439
  -4518876.99949  -3490645.42545  23813685.739    23813685.149    23813690.151
  -8843081.86749  -6322927.18645  22939353.404    22939353.156    22939357.560
   -444012.54249   -326623.85945  24313764.511    24313764.871    24313768.426
  -1022028.17149   -765609.55044  24114996.369    24114996.505    24114999.946
  -2176146.17249  -1665903.31845  23933838.086    23933838.309    23933842.534
 08  9 25  2 34  0.0000000  0 10G14G23G 6G31G16G32G 3G29G13G20
   2817665.50049   2655396.43944  25142420.802    25142421.714    25142426.565
 -15765506.68049 -12233921.65647  21726020.773    21726020.679    21726020.733
 -11621108.87949  -8535778.74046  22214621.701    22214621.528    22214625.180
 -23024319.69649 -17910696.63847  21439780.729    21439780.968    21439782.749
 -22263716.18549 -17294223.29248  20198008.570    20198008.260    20198010.395
  -4442114.60949  -3430830.61745  23828293.120    23828292.416    23828297.898
  -8955244.76549  -6410326.81546  22918009.478    22918009.522    22918013.912
   -361875.11649   -262620.70245  24329394.658    24329394.641    24329397.475
  -1126977.60349   -847388.27345  24095025.828    24095026.011    24095029.540
  -2108872.41349  -1613482.25845  23946639.827    23946639.147    23946644.984
 08  9 25  2 34 30.0000000  0 10G14G23G 6G31G16G32G 3G29G13G20
   2932624.54449   2744974.86744  25164297.106    25164296.550    25164302.579
 -15836840.92249 -12289506.78047  21712446.339    21712446.256    21712445.950
 -11710298.36149  -8605277.00746  22197649.582    22197649.617    22197653.034
 -22981825.61649 -17877584.39647  21447867.101    21447867.450    21447869.041
 -22259998.20549 -17291326.16148  20198716.074    20198715.860    20198717.869
  -4365197.00849  -3370894.86045  23842930.030    23842930.802    23842934.550
  -9067235.45149  -6497592.26146  22896698.419    22896698.206    22896702.161
   -279391.99649   -198348.18245  24345090.724    24345089.945    24345093.276
  -1231747.06349   -929026.77845  24075088.920    24075088.883    24075091.797
  -2041330.86649  -1560852.51945  23959492.593    23959491.219    23959496.974
 08  9 25  2 35  0.0000000  0 10G14G23G 6G31G16G32G 3G29G13G20
   3047634.89949   2834593.24144  25186182.847    25186181.699    25186186.913
 -15907732.94449 -12344747.30547  21698956.060    21698955.925    21698956.201
 -11799192.67449  -8674545.29146  22180733.557    22180733.228    22180737.580
 -22939091.68249 -17844285.25147  21455999.126    21455999.651    21456001.185
 -22255868.29749 -17288108.04648  20199501.931    20199501.856    20199503.775
  -4288126.89349  -3310840.26845  23857595.988    23857595.750    23857599.863
  -9179050.50149  -6584720.85046  22875420.623    22875419.776    22875424.959
   -196565.01649   -133807.68545  24360852.180    24360852.193    24360855.854
  -1336333.92949  -1010523.00045  24055186.674    24055187.610    24055191.119
  -1973524.03849  -1508016.07945  23972395.827    23972395.276    23972399.669
 08  9 25  2 35 30.0000000  0  9G23G 6G31G16G32G 3G29G13G20
 -15978181.23549 -12399642.07447  21685550.169    21685549.836    21685549.934
 -11887790.45149  -8743582.49846  22163874.039    22163874.339    22163878.162
 -22896118.97649 -17810800.05947  21464176.571    21464177.179    21464178.576
 -22251328.78549 -17284570.76648  20200365.790    20200365.648    20200367.782
  -4210908.34649  -3250670.04945  23872290.301    23872290.797    23872294.636
  -9290688.19649  -6671711.24546  22854176.621    22854175.883    22854180.452
   -113397.58749    -69001.93745  24376678.485    24376678.657    24376682.484
  -1440735.71749  -1091874.99845  24035319.694    24035319.974    24035322.269
  -1905456.07149  -1454976.15445  23985348.838    23985348.739    23985352.442
 08  9 25  2 36  0.0000000  0  9G23G 6G31G16G32G 3G29G13G20
 -16048182.69049 -12454188.65947  21672229.398    21672229.398    21672228.831
 -11976088.59249  -8812386.21646  22147071.456    22147071.302    22147074.493
 -22852906.53149 -17777128.04747  21472399.713    21472400.067    21472401.720
 -22246380.22649 -17280714.73448  20201307.474    20201307.326    20201309.412
  -4133543.52749  -3190385.83345  23887012.428    23887012.825    23887017.000
  -9402145.10949  -6758560.76446  22832966.979    22832967.066    22832970.907
    -29891.97149     -3932.63145  24392569.038    24392568.826    24392571.243
  -1544949.46949  -1173080.46845  24015488.355    24015489.003    24015491.117
  -1837129.44049  -1401734.64845  23998351.064    23998351.877    23998353.958
 08  9 25  2 36 30.0000000  0  9G23G 6G31G16G32G 3G29G13G20
 -16117732.97849 -12508383.67647  21658994.485    21658994.340    21658994.415
 -12064082.45849  -8880952.84846  22130326.743    22130326.394    22130330.095
 -22809452.41849 -17743267.71447  21480668.749    21480669.302    21480670.769
 -22241022.04049 -17276539.52348  20202327.125    20202327.010    20202328.818
  -4056033.62349  -3129988.54945  23901762.262    23901762.704    23901766.522
  -9513416.23049  -6845265.52246  22811792.888    22811792.814    22811797.067
     53951.28249     61399.73145  24408523.702    24408524.590    24408527.201
  -1648970.73549  -1254135.96845  23995693.729    23995693.767    23995698.025
  -1768545.16349  -1348292.40345  24011402.157    24011401.992    24011405.348
 08  9 25  2 37  0.0000000  0  9G23G 6G31G16G32G 3G29G13G20
 -16186830.97249 -12562226.26747  21645845.602    21645845.413    21645845.500
 -12151771.16349  -8949281.69546  22113640.048    22113639.706    22113643.307
 -22765757.83449 -17709220.01247  21488983.587    21488983.926    21488985.439
 -22235256.92549 -17272047.22048  20203424.170    20203423.831    20203426.026
  -3978382.87449  -3069481.52945  23916538.637    23916537.765    23916541.760
  -9624500.65149  -6931824.79346  22790654.245    22790654.088    22790658.271
    138128.28649    126992.17945  24424542.162    24424540.942    24424546.293
  -1752798.25049  -1335040.48845  23975935.964    23975936.245    23975939.266
  -1699707.81149  -1294652.96645  24024501.628    24024501.004    24024505.794
 08  9 25  2 37 30.0000000  0  9G23G 6G31G16G32G 3G29G13G20
 -16255473.45949 -12615713.90947  21632783.335    21632783.396    21632783.273
 -12239151.64849  -9017370.36146  22097012.100    22097011.897    22097015.687
 -22721822.11349 -17674984.40847  21497344.262    21497344.658    21497345.954
 -22229085.34049 -17267238.19048  20204598.555    20204598.388    20204600.474
  -3900593.78949  -3008866.70045  23931341.364    23931341.637    23931345.211
  -9735394.58649  -7018235.63246  22769551.924    22769551.398    22769555.742
    222636.83549    192842.97445  24440623.684    24440624.448    24440627.031
  -1856428.74049  -1415791.48045  23956215.664    23956215.207    23956219.532
  -1630619.95449  -1240818.31145  24037648.627    24037647.743    24037651.717
 08  9 25  2 38  0.0000000  0  9G23G 6G31G16G32G 3G29G13G20
 -16323658.14449 -12668844.82247  21619808.182    21619807.898    21619808.624
 -12326221.60649  -9085217.06146  22080443.223    22080443.357    22080446.001
 -22677645.17249 -17640560.82947  21505750.821    21505751.378    21505752.897
 -22222509.14849 -17262113.87848  20205849.931    20205849.721    20205851.892
  -3822669.58849  -2948146.60945  23946169.923    23946169.222    23946174.206
  -9846095.77349  -7104496.26546  22748486.294    22748486.001    22748489.934
    307474.57649    258950.30345  24456767.718    24456769.051    24456771.484
  -1959859.77249  -1496387.04845  23936533.317    23936533.233    23936536.609
  -1561284.82049  -1186790.95345  24050842.618    24050841.009    24050846.754
 08  9 25  2 38 30.0000000  0  9G23G 6G31G16G32G 3G29G13G20
 -16391382.75449 -12721617.23947  21606920.631    21606920.720    21606920.599
 -12412978.72249  -9152819.99746  22063933.840    22063933.367    22063937.251
 -22633227.22849 -17605949.46347  21514203.289    21514203.787    21514205.502
 -22215529.55649 -17256675.23848  20207178.138    20207178.162    20207180.088
  -3744613.36849  -2887323.63745  23961023.569    23961023.549    23961028.496
  -9956601.70149  -7190604.76946  22727457.742    22727457.179    22727461.416
    392638.42049    325311.70145  24472974.066    24472974.183    24472978.488
  -2063089.04449  -1576825.41745  23916889.423    23916889.992    23916893.072
  -1491705.42349  -1132573.28545  24064083.110    24064082.243    24064086.377
 08  9 25  2 39  0.0000000  0  9G23G 6G31G16G32G 3G29G13G20
 -16458645.23949 -12774029.56247  21594120.984    21594120.451    21594121.029
 -12499420.77449  -9220177.42846  22047484.390    22047483.485    22047488.499
 -22588568.43349 -17571150.42047  21522701.633    21522701.973    21522703.731
 -22208148.12949 -17250923.46948  20208582.745    20208582.479    20208584.472
  -3666428.37749  -2826400.32245  23975901.722    23975901.229    23975906.762
 -10066909.41049  -7276558.80346  22706466.884    22706466.071    22706470.614
    478125.47749    391924.97445  24489241.835    24489242.210    24489244.536
  -2166113.82149  -1657104.42845  23897284.456    23897284.764    23897287.614
  -1421885.34549  -1078168.07945  24077369.372    24077367.785    24077372.428
 08  9 25  2 39 30.0000000  0  9G23G 6G31G16G32G 3G29G13G20
 -16525441.94949 -12826078.94247  21581409.932    21581409.791    21581410.049
 -12585544.16749  -9287286.55146  22031095.587    22031095.600    22031099.234
 -22543667.62249 -17536162.80747  21531245.950    21531246.778    21531248.304
 -22200365.01749 -17244858.70748  20210063.819    20210063.634    20210065.761
  -3588116.42749  -2765378.09845  23990804.166    23990803.942    23990809.042
 -10177015.41449  -7362355.66746  22685514.402    22685513.965    22685518.192
    563934.30549    458788.96645  24505570.781    24505570.347    24505574.189
  -2268930.21149  -1737221.05745  23877719.051    23877719.049    23877722.522
  -1351826.54549  -1023576.87645  24090701.114    24090700.425    24090704.041
 08  9 25  2 40  0.0000000  0  9G23G 6G31G16G32G 3G29G13G20
 -16591771.28749 -12877764.13647  21568787.890    21568787.059    21568788.092
 -12671347.36649  -9354146.17646  22014767.826    22014768.033    22014771.449
 -22498525.35449 -17500987.02947  21539836.253    21539836.911    21539838.491
 -22192182.25049 -17238482.52048  20211620.934    20211620.726    20211622.862
  -3509681.47649  -2704259.98645  24005729.857    24005729.529    24005735.027
 -10286917.79249  -7447993.86046  22664600.775    22664599.844    22664605.406
    650061.42849    525900.98245  24521960.118    24521960.120    24521963.178
  -2371536.94449  -1817174.33245  23858193.598    23858193.746    23858196.805
  -1281532.98249   -968802.70945  24104077.422    24104077.075    24104080.860
 08  9 25  2 40 30.0000000  0  9G23G 6G31G16G32G 3G29G13G20
 -16657630.08649 -12929082.68447  21556255.282    21556254.865    21556255.712
 -12756827.20849  -9420753.84146  21998501.655    21998501.474    21998505.260
 -22453140.75849 -17465622.43047  21548472.710    21548473.182    21548474.736
 -22183600.47249 -17231795.42148  20213254.027    20213253.756    20213255.777
  -3431125.57349  -2643047.66245  24020678.543    24020677.241    24020682.227
 -10396612.82949  -7533470.48946  22643726.398    22643726.015    22643729.323
    736505.29049    593259.80345  24538409.711    24538410.512    24538413.593
  -2473930.38349  -1896961.39545  23838708.712    23838709.125    23838712.068
  -1211007.02149   -913847.45545  24117497.961    24117497.194    24117500.996
 08  9 25  2 41  0.0000000  0  9G23G 6G31G16G32G 3G29G13G20
 -16723015.60949 -12980032.43747  21543812.782    21543813.119    21543813.274
 -12841980.98649  -9487107.41546  21982297.419    21982298.172    21982300.827
 -22407513.59049 -17430068.81847  21557155.270    21557155.921    21557157.228
 -22174620.84149 -17224798.30548  20214962.793    20214962.663    20214964.675
  -3352451.46049  -2581743.20145  24035649.660    24035648.607    24035653.730
 -10506097.35049  -7618783.07846  22622892.137    22622891.848    22622895.368
    823263.37649    660863.49145  24554919.362    24554919.543    24554922.265
  -2576107.31949  -1976579.73545  23819265.156    23819265.456    23819268.784
  -1140251.42449   -858713.26945  24130962.337    24130961.653    24130966.331
 08  9 25  2 41 30.0000000  0  9G23G 6G31G16G32G 3G29G13G20
 -16787926.53349 -13030612.37947  21531460.651    21531459.930    21531460.944
 -12926807.18049  -9553205.73446  21966155.650    21966155.487    21966159.458
 -22361644.77349 -17394326.90247  21565883.823    21565884.109    21565885.815
 -22165245.67349 -17217492.97748  20216746.793    20216746.608    20216748.695
  -3273663.12749  -2520349.74745  24050642.543    24050641.827    24050647.590
 -10615369.61749  -7703930.27146  22602098.255    22602097.643    22602101.737
    910331.90449    728709.07645  24571487.988    24571488.622    24571491.349
  -2678066.02949  -2056028.05945  23799863.046    23799863.008    23799866.092
  -1069270.43149   -803403.45345  24144469.540    24144470.001    24144473.822
 08  9 25  2 42  0.0000000  0  9G23G 6G31G16G32G 3G29G13G20
 -16852360.03649 -13080820.30547  21519199.345    21519199.019    21519199.604
 -13011303.01549  -9619046.63046  21950076.617    21950076.508    21950079.465
 -22315534.02249 -17358396.46247  21574658.437    21574658.705    21574660.685
 -22155475.88149 -17209880.15248  20218605.927    20218605.830    20218607.640
  -3194763.30249  -2458869.41345  24065656.690    24065656.603    24065661.567
 -10724426.65049  -7788909.75546  22581345.190    22581345.350    22581349.444
    997708.83249    796794.96245  24588115.444    24588115.502    24588119.092
  -2779803.32349  -2135303.84445  23780503.195    23780503.280    23780506.072
   -998066.61849   -747920.02445  24158019.239    24158019.001    24158022.608
 08  9 25  2 42 30.0000000  0  9G23G 6G31G16G32G 3G29G13G20
 -16916312.80949 -13130653.63647  21507029.504    21507029.243    21507029.924
 -13095465.40349  -9684627.70746  21934061.071    21934060.666    21934064.058
 -22269180.12349 -17322276.56547  21583479.308    21583479.798    21583481.236
 -22145311.95049 -17201960.20448  20220540.066    20220539.792    20220542.019
  -3115753.91349  -2397303.70445  24080691.694    24080691.464    24080696.702
 -10833264.41849  -7873718.37646  22560633.985    22560634.008    22560637.153
   1085392.49049    865119.87245  24604801.082    24604801.620    24604803.973
  -2881315.84849  -2214404.48345  23761186.004    23761185.434    23761189.638
   -926642.40149   -692264.83845  24171610.895    24171611.771    24171615.388
 08  9 25  2 43  0.0000000  0  9G23G 6G31G16G32G 3G29G13G20
 -16979783.88549 -13180111.62547  21494951.320    21494951.145    21494951.539
 -13179293.29049  -9749948.13146  21918109.107    21918109.099    21918112.535
 -22222584.44749 -17285968.26347  21592346.198    21592346.669    21592347.898
 -22134756.55949 -17193735.22348  20222548.666    20222548.581    20222550.439
  -3036639.46549  -2335656.13645  24095746.737    24095746.142    24095752.502
 -10941881.75149  -7958355.23846  22539964.766    22539964.397    22539968.194
   1173378.63149    933680.46545  24621544.451    24621544.609    24621546.858
  -2982602.29949  -2293328.95645  23741911.947    23741912.256    23741914.793
   -855002.40149   -636441.50545  24185243.662    24185242.795    24185250.524
 08  9 25  2 43 30.0000000  0  9G23G 6G31G16G32G 3G29G13G20
 -17042769.57449 -13229191.37947  21482965.529    21482965.472    21482965.952
 -13262782.71449  -9815004.81346  21902221.531    21902221.148    21902224.826
 -22175745.27749 -17249470.22447  21601259.422    21601259.709    21601261.580
 -22123809.78149 -17185205.26448  20224631.799    20224631.569    20224633.602
  -2957421.55849  -2273927.96745  24110821.406    24110821.715    24110826.816
 -11050274.76649  -8042817.30346  22519338.227    22519337.987    22519342.219
   1261666.20149   1002475.96345  24638344.986    24638344.889    24638349.104
  -3083658.71249  -2372074.20045  23722681.667    23722681.589    23722683.532
   -783147.87849   -580451.01745  24198917.234    24198917.858    24198921.651
 08  9 25  2 44  0.0000000  0  9G23G 6G31G16G32G 3G29G13G20
 -17105268.86549 -13277892.12547  21471072.283    21471072.346    21471072.722
 -13345932.73449  -9879797.03046  21886398.535    21886398.522    21886401.522
 -22128664.12549 -17212783.64447  21610218.676    21610219.277    21610220.659
 -22112473.94649 -17176372.15048  20226788.947    20226788.696    20226790.864
  -2878104.39549  -2212122.44045  24125914.973    24125915.816    24125920.177
 -11158441.88949  -8127103.34646  22498754.635    22498754.536    22498758.791
   1350251.06649   1071503.09345  24655202.078    24655201.709    24655205.643
  -3184483.56049  -2450638.98945  23703495.273    23703494.932    23703497.953
   -711083.80149   -524297.24645  24212630.586    24212630.515    24212635.829
 08  9 25  2 44 30.0000000  0  9G23G 6G31G16G32G 3G29G13G20
 -17167277.83449 -13326210.79947  21459272.343    21459272.035    21459272.932
 -13428739.58049  -9944321.83946  21870640.875    21870640.770    21870644.303
 -22081339.38249 -17175907.23947  21619224.286    21619224.712    21619226.472
 -22100749.33849 -17167236.09048  20229020.093    20229019.811    20229021.987
  -2798689.40449  -2150240.68545  24141027.347    24141027.215    24141033.180
 -11266378.90649  -8211210.08246  22478214.903    22478215.066    22478218.267
   1439132.39849   1140761.25945  24672115.690    24672116.779    24672119.674
  -3285072.85449  -2529020.23545  23684353.823    23684353.933    23684355.760
   -638811.40849   -467981.15045  24226383.548    24226382.295    24226388.207
 08  9 25  2 45  0.0000000  0  9G23G 6G31G16G32G 3G29G13G20
 -17228793.96949 -13374145.44747  21447566.216    21447566.279    21447566.737
 -13511200.80549 -10008577.32946  21854948.883    21854948.554    21854952.274
 -22033770.88849 -17138840.90347  21628276.301    21628276.586    21628278.195
 -22088637.03149 -17157797.93048  20231324.954    20231324.765    20231326.867
  -2719179.63349  -2088285.07945  24156157.488    24156157.050    24156161.147
 -11374082.93649  -8295135.27146  22457719.440    22457719.215    22457722.264
   1528307.56949   1210248.37145  24689085.230    24689085.272    24689088.823
  -3385423.51149  -2607215.51445  23665257.609    23665257.513    23665261.193
   -566333.91849   -411505.25345  24240175.709    24240175.296    24240181.317
 08  9 25  2 45 30.0000000  0  9G23G 6G31G16G32G 3G29G13G20
 -17289814.97149 -13421694.28247  21435954.281    21435954.028    21435955.132
 -13593313.60149 -10072561.31646  21839323.307    21839323.341    21839326.713
 -21985958.23949 -17101584.31947  21637374.744    21637375.257    21637376.931
 -22076138.26049 -17148058.62448  20233703.397    20233703.259    20233705.325
  -2639577.71149  -2026257.65445  24171305.352    24171304.544    24171309.313
 -11481550.64749  -8378876.31446  22437269.062    22437269.112    22437272.684
   1617773.96249   1279962.42145  24706110.232    24706111.385    24706113.716
  -3485532.50849  -2685222.49745  23646207.422    23646207.711    23646209.614
   -493653.79949   -354871.44745  24254006.472    24254006.311    24254010.457
 08  9 25  2 46  0.0000000  0  9G23G 6G31G16G32G 3G29G13G20
 -17350338.67649 -13468855.61847  21424437.054    21424436.931    21424438.017
 -13675076.04249 -10136272.29946  21823764.428    21823764.172    21823767.869
 -21937901.67049 -17064137.66247  21646519.609    21646519.976    21646521.676
 -22063254.85949 -17138019.61548  20236155.047    20236154.931    20236157.036
  -2559886.82749  -1964160.90545  24186470.080    24186470.085    24186476.379
 -11588779.87749  -8462431.54046  22416864.134    22416865.147    22416868.067
   1707528.96949   1349901.36245  24723190.039    24723189.872    24723192.258
  -3585397.17449  -2763039.08145  23627203.676    23627203.747    23627207.227
   -420774.82949   -298082.69245  24267875.006    24267875.369    24267877.976
 08  9 25  2 46 30.0000000  0  9G23G 6G31G16G32G 3G29G13G20
 -17410362.96349 -13515627.79047  21413014.843    21413014.359    21413015.315
 -13756486.14549 -10199708.71646  21808272.541    21808272.547    21808276.156
 -21889601.53449 -17026501.21647  21655710.820    21655710.953    21655712.654
 -22049988.23049 -17127681.97948  20238679.587    20238679.514    20238681.446
  -2480110.27349  -1901997.43545  24201651.204    24201651.485    24201655.399
 -11695767.94249  -8545798.82646  22396504.994    22396504.622    22396508.610
   1797569.41749   1420062.71445  24740324.203    24740324.360    24740328.162
  -3685015.37049  -2840663.60245  23608247.012    23608247.151    23608249.582
   -347700.58049   -241141.73345  24281780.622    24281779.834    24281784.645
 08  9 25  2 47  0.0000000  0  9G23G 6G31G16G32G 3G29G13G20
 -17469885.43949 -13562008.94347  21401688.055    21401687.900    21401688.274
 -13837541.02649 -10262868.36747  21792848.404    21792848.615    21792851.853
 -21841057.21149 -16988674.49947  21664948.495    21664948.908    21664950.598
 -22036339.50449 -17117046.60848  20241276.849    20241276.646    20241278.593
  -2400250.82849  -1839769.35445  24216847.923    24216846.736    24216854.749
 -11802511.94649  -8628975.95146  22376192.253    22376192.214    22376195.380
   1887893.01149   1490444.70145  24757512.276    24757513.230    24757515.674
  -3784384.14949  -2918093.79345  23589337.734    23589338.461    23589340.129
   -274433.63949   -184050.70244  24295722.837    24295723.870    24295728.895
 08  9 25  2 47 30.0000000  0  9G23G 6G31G16G32G 3G29G13G20
 -17528903.89849 -13607997.35847  21390457.198    21390457.404    21390457.649
 -13918238.83949 -10325749.76747  21777492.175    21777492.136    21777495.256
 -21792268.56349 -16950657.39147  21674232.716    21674233.330    21674234.713
 -22022309.95049 -17106114.48648  20243946.589    20243946.477    20243948.514
  -2320311.41949  -1777478.96745  24232059.852    24232059.135    24232064.419
 -11909009.42449  -8711960.98246  22355926.439    22355926.814    22355929.895
   1978496.99249   1561045.18445  24774753.624    24774754.954    24774757.025
  -3883500.56049  -2995327.32345  23570476.456    23570476.659    23570479.635
   -200977.29049   -126812.02544  24309701.184    24309698.456    24309705.504
 08  9 25  2 48  0.0000000  0  9G23G 6G31G16G32G 3G29G13G20
 -17587415.07449 -13653590.48747  21379323.005    21379322.843    21379323.481
 -13998575.80649 -10388349.98447  21762204.597    21762204.249    21762208.172
 -21743235.10249 -16912449.52547  21683563.542    21683564.311    21683565.375
 -22007900.60949 -17094886.43348  20246688.633    20246688.319    20246690.515
  -2240294.23749  -1715127.96245  24247286.735    24247285.983    24247292.282
 -12015256.53249  -8794750.91846  22335708.308    22335708.061    22335711.879
   2069379.48649   1631862.67445  24792048.057    24792048.242    24792051.264
  -3982361.42749  -3072361.72745  23551663.849    23551663.423    23551666.538
   -127333.94549    -69427.66344  24323715.018    24323713.933    24323717.504
 08  9 25  2 48 30.0000000  0  9G23G 6G31G16G32G 3G29G13G20
 -17645416.93449 -13698786.74547  21368285.544    21368285.084    21368285.881
 -14078550.67549 -10450668.06547  21746985.858    21746986.125    21746989.098
 -21693956.90749 -16874050.96247  21692940.939    21692941.339    21692943.121
 -21993113.21749 -17083363.79048  20249502.554    20249502.201    20249504.592
  -2160202.45549  -1652718.84145  24262527.650    24262527.042    24262531.812
 -12121250.31249  -8877343.46246  22315538.304    22315537.665    22315542.391
   2160537.94949   1702895.20545  24809394.878    24809395.133    24809398.456
  -4080963.87549  -3149194.78245  23532900.562    23532900.102    23532903.515
    -53506.80849    -11900.05544  24337763.782    24337765.476    24337767.858
 08  9 25  2 49  0.0000000  0  9G23G 6G31G16G32G 3G29G13G20
 -17702904.53149 -13743582.27547  21357346.049    21357345.927    21357346.580
 -14158157.60249 -10512699.42047  21731837.207    21731837.222    21731841.179
 -21644431.04049 -16835459.40647  21702365.387    21702365.705    21702367.622
 -21977945.59449 -17071544.86147  20252388.825    20252388.513    20252390.845
  -2080035.93949  -1590251.48145  24277782.932    24277784.320    24277788.204
 -12226985.46249  -8959734.47546  22295417.518    22295416.644    22295421.296
   2251972.92449   1774143.18545  24826794.280    24826794.548    24826797.717
  -4179302.37849  -3225822.15145  23514187.286    23514187.057    23514189.387
     20504.10449     45770.71744  24351847.627    24351849.006    24351852.027
 08  9 25  2 49 30.0000000  0  9G23G 6G31G16G32G 3G29G13G20
 -17759881.01949 -13787979.54647  21346503.755    21346503.423    21346504.168
 -14237400.01449 -10574446.74947  21716757.904    21716758.081    21716761.532
 -21594662.50849 -16796678.75747  21711836.061    21711836.448    21711838.085
 -21962404.82649 -17059435.17847  20255346.127    20255345.756    20255347.882
  -1999803.21649  -1527732.53045  24293050.909    24293050.651    24293055.989
 -12332464.62449  -9041926.01346  22275345.487    22275345.060    22275348.897
   2343675.65949   1845599.83745  24844244.587    24844245.497    24844248.682
  -4277379.30549  -3302245.70745  23495523.858    23495523.058    23495526.563
     94690.04249    103577.87444  24365964.635    24365966.742    24365966.151
 08  9 25  2 50  0.0000000  0 10G19G23G 6G31G16G32G 3G29G13G20
  -1081847.94049   -283469.17243
 -17816342.12249 -13831975.21147  21335759.485    21335759.221    21335759.968
 -14316273.84949 -10635906.87147  21701748.671    21701748.042    21701752.758
 -21544649.67849 -16757707.75147  21721353.303    21721353.660    21721355.257
 -21946490.58249 -17047034.46648  20258374.500    20258374.139    20258376.471
  -1919505.11049  -1465162.66145  24308331.076    24308329.394    24308337.064
 -12437683.07149  -9123914.40146  22255323.018    22255322.011    22255325.980
   2435645.52149   1917264.60445  24861745.708    24861746.691    24861749.906
  -4375190.52449  -3378462.21245  23476910.923    23476910.293    23476913.471
    169049.75649    161520.43244  24380115.006    24380113.649    24380116.917
 08  9 25  2 50 30.0000000  0 10G19G23G 6G31G16G32G 3G29G13G20
  -1197017.54949   -373211.21544                                  25064339.422
 -17872285.11449 -13875567.15347  21325113.932    21325114.041    21325114.427
 -14394775.92949 -10697077.30446  21686810.063    21686809.894    21686813.848
 -21494391.58649 -16718545.63347  21730917.100    21730917.519    21730919.374
 -21930203.57449 -17034343.29447  20261473.792    20261473.604    20261475.710
  -1839144.13849  -1402543.78245  24323623.217    24323622.646    24323628.531
 -12542637.23749  -9205696.86646  22235350.845    22235350.857    22235354.184
   2527880.74949   1989136.19245  24879297.488    24879298.880    24879300.805
  -4472732.20549  -3454468.68745  23458349.190    23458348.104    23458352.707
    243580.68549    219596.41544  24394297.734    24394295.990    24394301.875
 08  9 25  2 51  0.0000000  0 10G19G23G 6G31G16G32G 3G29G13G20
  -1312231.85449   -462988.55045  25042413.492    25042411.939    25042414.968
 -17927708.05449 -13918753.86447  21314567.282    21314567.222    21314567.839
 -14472904.38449 -10757956.60546  21671942.614    21671942.706    21671946.239
 -21443888.74549 -16679192.80347  21740527.453    21740527.816    21740529.388
 -21913545.51849 -17021362.99447  20264643.727    20264643.549    20264645.668
  -1758723.57649  -1339878.48245  24338926.817    24338926.602    24338931.911
 -12647324.88549  -9287271.62946  22215429.428    22215429.858    22215433.608
   2620378.43949   2061212.28245  24896899.122    24896899.155    24896902.486
  -4570002.02349  -3530263.30845  23439839.312    23439839.157    23439843.144
    318279.43949    277803.22244  24408512.296    24408512.688    24408519.314
 08  9 25  2 51 30.0000000  0 10G19G23G 6G31G16G32G 3G29G13G20
  -1427490.08649   -552800.12745  25020480.615    25020479.303    25020482.224
 -17982610.33049 -13961534.86247  21304119.748    21304119.335    21304120.365
 -14550658.24849 -10818544.00947  21657146.486    21657146.449    21657149.956
 -21393142.48449 -16639650.29447  21750184.174    21750184.491    21750186.169
 -21896519.29849 -17008095.80947  20267883.705    20267883.526    20267885.608
  -1678247.56049  -1277169.93545  24354241.093    24354240.420    24354246.259
 -12751744.86549  -9368637.83746  22195559.018    22195559.044    22195562.654
   2713134.39349   2133489.61445  24914549.873    24914549.646    24914552.945
  -4666998.50149  -3605844.96945  23421381.438    23421380.696    23421385.419
    393141.64049    336137.34144  24422758.182    24422757.627    24422761.972
 08  9 25  2 52  0.0000000  0 10G19G23G 6G31G16G32G 3G29G13G20
  -1542786.97149   -642641.78645  24998540.231    24998538.782    24998541.780
 -18036986.97549 -14003906.27547  21293772.147    21293771.998    21293772.769
 -14628032.77549 -10878835.82847  21642422.626    21642422.862    21642426.416
 -21342149.97349 -16599915.90047  21759887.702    21759887.813    21759889.803
 -21879123.70949 -16994540.80147  20271193.966    20271193.625    20271195.785
  -1597716.42649  -1214418.47545  24369565.537    24369565.571    24369570.570
 -12855891.41649  -9449790.96646  22175740.521    22175739.585    22175744.677
   2806148.64249   2205968.23545  24932249.975    24932250.952    24932253.923
  -4763716.24749  -3681209.41445  23402976.648    23402976.976    23402979.229
    468167.00449    394598.63044  24437035.268    24437032.754    24437040.864
 08  9 25  2 52 30.0000000  0 11G19G23G 6G31G25G16G32G 3G29G13G20
  -1658120.93149   -732512.34545  24976592.936    24976591.815    24976595.412
 -18090836.58249 -14045867.01447  21283524.950    21283524.882    21283525.245
 -14705026.34949 -10938830.80647  21627771.253    21627771.106    21627774.809
 -21290911.92849 -16559990.18747  21769638.053    21769638.383    21769640.001
  -1922044.41349  -1458933.54044  24726131.119    24726133.594    24726136.365
 -21861360.90449 -16980699.65247  20274574.114    20274573.935    20274576.197
  -1517133.94149  -1151626.98545  24384899.618    24384899.505    24384905.748
 -12959763.06849  -9530729.90346  22155974.345    22155974.268    22155978.474
   2899417.87049   2278645.48945  24949998.524    24949998.935    24950001.351
  -4860153.44949  -3756355.26645  23384625.111    23384626.230    23384628.539
    543351.35849    453183.76944  24451342.520    24451341.009    24451343.533
 08  9 25  2 53  0.0000000  0 11G19G23G 6G31G25G16G32G 3G29G13G20
  -1773490.78549   -822410.90945  24954638.558    24954636.155    24954639.882
 -18144158.30949 -14087416.40647  21273378.158    21273378.407    21273378.804
 -14781637.67549 -10998527.92147  21613192.602    21613192.528    21613196.133
 -21239429.48349 -16519874.03547  21779434.874    21779435.271    21779436.685
  -2006764.65949  -1524949.26645  24710010.636    24710012.165    24710015.838
 -21843233.28249 -16966574.23547  20278023.670    20278023.586    20278025.820
  -1436504.06049  -1088798.56345  24400243.093    24400243.153    24400248.230
 -13063357.89949  -9611453.13246  22136260.930    22136260.546    22136264.941
   2992938.37649   2351518.57245  24967794.924    24967795.275    24967799.782
  -4956308.27949  -3831281.08345  23366327.423    23366327.828    23366331.081
    618690.71649    511889.66344  24465679.188    24465678.403    24465683.241
 08  9 25  2 53 30.0000000  0 11G19G23G 6G31G25G16G32G 3G29G13G20
  -1888894.30749   -912335.70545  24932677.709    24932675.758    24932679.860
 -18196950.18149 -14128552.92647  21263332.261    21263331.972    21263332.933
 -14857865.32349 -11057926.06247  21598686.997    21598687.130    21598690.920
 -21187702.87349 -16479567.62347  21789278.053    21789278.386    21789280.132
  -2091504.17249  -1590979.99945  24693885.918    24693886.178    24693889.926
 -21824742.52149 -16952165.84647  20281542.332    20281541.981    20281544.191
  -1355829.96749  -1025935.70445  24415594.859    24415594.026    24415599.644
 -13166673.75749  -9691958.97146  22116600.557    22116600.216    22116604.120
   3086707.24749   2424585.18745  24985638.736    24985640.301    24985642.134
  -5052178.11249  -3905984.83445  23348084.004    23348084.497    23348087.803
    694181.38049    570713.50944  24480044.770    24480042.899    24480049.340
 08  9 25  2 54  0.0000000  0 11G19G23G 6G31G25G16G32G 3G29G13G20
  -2004327.39449  -1002283.51245  24910711.321    24910710.984    24910714.751
 -18249208.30549 -14169273.55047  21253387.882    21253387.856    21253388.274
 -14933704.91949 -11117021.83447  21584255.200    21584255.661    21584258.997
 -21135730.17949 -16439069.46247  21799168.100    21799168.809    21799170.025
  -2176260.24749  -1657023.62245  24677757.128    24677756.145    24677759.352
 -21805888.40249 -16937474.32447  20285130.160    20285129.987    20285132.228
  -1275112.75049   -963039.23845  24430954.792    24430954.732    24430961.001
 -13269705.39249  -9772243.34046  22096994.300    22096993.939    22096998.419
   3180723.70049   2497844.73345  25003529.665    25003531.106    25003532.956
  -5147758.38449  -3980462.93845  23329895.648    23329896.089    23329898.128
    769822.18549    629654.31044  24494438.958    24494438.753    24494443.420
 08  9 25  2 54 30.0000000  0 11G19G23G 6G31G25G16G32G 3G29G13G20
  -2119787.19149  -1092252.20245  24888739.924    24888739.074    24888742.519
 -18300930.71349 -14209576.72647  21243545.471    21243545.579    21243546.127
 -15009154.42549 -11175813.64247  21569897.630    21569898.090    21569901.424
 -21083511.19649 -16398379.38547  21809105.099    21809105.730    21809107.079
  -2261032.30349  -1723079.73745  24661625.745    24661625.992    24661630.973
 -21786672.38249 -16922500.80547  20288786.867    20288786.585    20288788.684
  -1194355.26749   -900111.37345  24446322.686    24446322.573    24446328.649
 -13372450.12949  -9852304.16046  22077442.622    22077441.955    22077446.550
   3274984.58349   2571294.73045  25021467.116    25021467.029    25021471.178
  -5243046.28249  -4054713.22445  23311762.865    23311763.202    23311766.106
    845610.15449    688709.82644  24508860.839    24508859.939    24508864.868
 08  9 25  2 55  0.0000000  0 11G19G23G 6G31G25G16G32G 3G29G13G20
  -2235270.24249  -1182238.97045  24866764.191    24866763.208    24866766.622
 -18352113.37149 -14249459.31847  21233805.744    21233805.592    21233806.174
 -15084210.05649 -11234298.53147  21555615.056    21555615.318    21555618.909
 -21031044.56749 -16357496.33947  21819089.248    21819090.108    21819091.431
  -2345818.35549  -1789146.72745  24645491.591    24645491.281    24645495.834
 -21767094.56849 -16907245.36447  20292512.395    20292512.256    20292514.411
  -1113558.89649   -837153.21445  24461697.959    24461698.449    24461704.696
 -13474903.58949  -9932138.00246  22057946.332    22057946.242    22057950.332
   3369489.43149   2644934.84645  25039450.669    25039450.619    25039454.991
  -5338037.63049  -4128732.42745  23293686.566    23293686.796    23293690.684
    921543.52949    747878.63245  24523310.576    24523310.356    24523314.532
 08  9 25  2 55 30.0000000  0 11G19G23G 6G31G25G16G32G 3G29G13G20
  -2350775.32649  -1272242.90445  24844784.306    24844783.594    24844788.479
 -18402756.47249 -14288921.47847  21224168.683    21224168.524    21224169.215
 -15158871.51449 -11292476.27647  21541407.426    21541407.404    21541411.270
 -20978331.91149 -16316421.57447  21829120.157    21829120.474    21829122.355
  -2430619.37849  -1855225.37745  24629354.439    24629354.683    24629358.835
 -21747157.99449 -16891710.37447  20296306.177    20296305.830    20296308.090
  -1032728.32549   -774168.43245  24477079.637    24477079.660    24477084.818
 -13577065.09849 -10011744.34246  22038505.638    22038505.420    22038510.034
   3464233.64649   2718761.47745  25057480.036    25057480.048    25057483.562
  -5432731.26149  -4202519.63945  23275667.059    23275668.040    23275670.481
    997617.64149    807157.08845  24537787.224    24537787.093    24537791.814
 08  9 25  2 56  0.0000000  0 11G19G23G 6G31G25G16G32G 3G29G13G20
  -2466299.51849  -1362261.74545  24822800.804    24822800.143    24822804.251
 -18452857.38849 -14327961.15647  21214634.777    21214634.224    21214635.018
 -15233136.12349 -11350344.79347  21527275.314    21527274.888    21527279.031
 -20925372.86849 -16275154.82947  21839197.982    21839198.418    21839200.277
  -2515434.22349  -1921314.83545  24613214.911    24613216.465    24613219.602
 -21726863.54549 -16875896.52147  20300168.099    20300167.996    20300170.113
   -951865.92449   -711158.83845  24492467.270    24492467.617    24492472.712
 -13678931.16949 -10091120.47646  22019121.224    22019120.780    22019124.731
   3559215.08349   2792772.95245  25075554.386    25075555.554    25075557.417
  -5527123.88749  -4276072.30445  23257704.773    23257705.076    23257707.295
   1073829.57649    866542.96144  24552289.919    24552291.952    24552294.475
 08  9 25  2 56 30.0000000  0 11G19G23G 6G31G25G16G32G 3G29G13G20
  -2581840.22049  -1452293.41145  24800814.107    24800813.124    24800817.534
 -18502413.43349 -14366576.25647  21205204.477    21205204.253    21205204.957
 -15307001.43449 -11407902.15747  21513219.178    21513219.268    21513222.769
 -20872166.91549 -16233695.68147  21849322.741    21849323.038    21849324.867
  -2600261.78549  -1987414.16445  24597072.931    24597073.330    24597077.650
 -21706212.47549 -16859804.77747  20304097.884    20304097.406    20304099.766
   -870974.34649   -648126.51145  24507860.376    24507859.382    24507864.856
 -13780499.46749 -10170264.57946  21999793.450    21999792.950    21999797.095
   3654431.40449   2866967.44645  25093673.716    25093674.681    25093678.035
  -5621212.27449  -4349387.91445  23239800.223    23239800.841    23239802.647
   1150176.65249    926034.15544  24566818.412    24566818.455    24566821.941
 08  9 25  2 57  0.0000000  0 11G19G23G 6G31G25G16G32G 3G29G13G20
  -2697395.77149  -1542336.67845  24778824.587    24778823.977    24778827.845
 -18551423.18349 -14404765.66847  21195878.241    21195878.009    21195878.914
 -15380465.64749 -11465146.98447  21499239.420    21499239.406    21499243.122
 -20818714.43949 -16192044.44347  21859494.406    21859494.487    21859496.581
  -2685101.74249  -2053523.16645  24580928.350    24580927.738    24580930.880
 -21685206.52549 -16843436.50847  20308095.243    20308095.108    20308097.220
   -790056.85149   -585073.97245  24523258.461    24523258.012    24523265.484
 -13881767.20349 -10249174.47846  21980522.851    21980521.901    21980525.928
   3749879.72549   2941342.74645  25111837.015    25111837.097    25111840.141
  -5714994.28249  -4422464.78145  23221954.161    23221953.866    23221957.190
   1226655.62349    985628.09544  24581371.823    24581372.180    24581375.876
 08  9 25  2 57 30.0000000  0 11G19G23G 6G31G25G16G32G 3G29G13G20
  -2812962.80849  -1632388.86945  24756832.859    24756832.222    24756835.287
 -18599884.50849 -14442527.74347  21186656.388    21186656.303    21186656.507
 -15453526.35849 -11522077.40047  21485336.397    21485336.651    21485339.651
 -20765015.07849 -16150200.82047  21869713.057    21869713.362    21869715.397
  -2769953.02549  -2119641.00745  24564781.637    24564782.955    24564785.980
 -21663846.62049 -16826792.43147  20312159.898    20312159.634    20312161.658
   -709115.74249   -522003.02145  24538661.066    24538661.018    24538667.721
 -13982731.34849 -10327847.81346  21961309.909    21961309.612    21961313.791
   3845557.65449   3015896.92945  25130044.027    25130044.452    25130047.616
  -5808466.46349  -4495300.22445  23204167.160    23204167.749    23204170.125
   1303263.76349   1045322.66244  24595949.702    24595948.359    24595955.049
 08  9 25  2 58  0.0000000  0 11G19G23G 6G31G25G16G32G 3G29G13G20
  -2928538.79949  -1722448.02145  24734839.521    24734837.888    24734841.652
 -18647795.32949 -14479860.85147  21177539.331    21177539.225    21177539.888
 -15526181.17649 -11578691.53747  21471510.634    21471510.732    21471514.525
 -20711068.83049 -16108164.82047  21879978.682    21879979.246    21879980.846
  -2854815.13249  -2185767.27445  24548632.933    24548631.366    24548636.908
 -21642134.54449 -16809873.92947  20316291.531    20316291.434    20316293.513
   -628154.19249   -458916.15945  24554067.583    24554068.972    24554073.230
 -14083388.79749 -10406282.17346  21942155.364    21942154.373    21942159.050
   3941462.54349   3090627.96945  25148294.235    25148294.588    25148297.979
  -5901626.66949  -4567892.57045  23186439.371    23186439.462    23186441.829
   1379997.57949   1105115.20844  24610551.685    24610551.820    24610557.045
 08  9 25  2 58 30.0000000  0 11G19G23G 6G31G25G16G32G 3G29G13G20
  -3044121.73349  -1812512.63545  24712844.768    24712843.974    24712847.346
 -18695153.87249 -14516763.61347  21168527.319    21168526.984    21168528.054
 -15598428.45949 -11634988.10147  21457762.503    21457762.730    21457766.018
 -20656875.95649 -16065936.64247  21890291.306    21890291.806    21890293.586
  -2939687.42249  -2251901.49345  24532482.057    24532482.086    24532485.653
 -21620071.85649 -16792682.22847  20320489.915    20320489.728    20320491.767
   -547175.19449   -395815.73445  24569477.586    24569479.323    24569484.227
 -14183737.83749 -10484476.21546  21923059.540    21923059.182    21923063.168
   4037591.64049   3165533.71245  25166586.709    25166586.395    25166589.320
  -5994471.44049  -4640239.11445  23168771.545    23168772.093    23168773.259
   1456853.87249   1165003.16944  24625176.840    24625176.445    24625185.325
 08  9 25  2 59  0.0000000  0 11G19G23G 6G31G25G16G32G 3G29G13G20
  -3159709.04849  -1902580.60545  24690849.234    24690848.831    24690852.051
 -18741958.50049 -14553234.75147  21159620.667    21159620.390    21159621.275
 -15670266.33849 -11690965.65647  21444092.260    21444092.314    21444095.775
 -20602436.51649 -16023516.32547  21900650.782    21900650.805    21900653.008
  -3024569.37349  -2318043.21145  24516329.613    24516330.767    24516332.825
 -21597660.29449 -16775218.67847  20324754.709    20324754.575    20324756.453
   -466181.60449   -332703.91344  24584890.217    24584888.626    24584896.136
 -14283775.16449 -10562427.34846  21904023.095    21904022.841    21904026.344
   4133942.06249   3240611.92645  25184921.586    25184921.731    25184924.973
  -6086998.53949  -4712338.13345  23151164.186    23151164.352    23151166.516
   1533829.66449   1224984.24645  24639824.886    24639824.964    24639828.678
 08  9 25  2 59 30.0000000  0 11G19G23G 6G31G25G16G32G 3G29G13G20
  -3275297.72449  -1992649.62245  24668853.441    24668851.769    24668856.144
 -18788206.18849 -14589271.91547  21150820.028    21150819.832    21150820.681
 -15741692.05849 -11746622.05547  21430500.406    21430499.844    21430503.709
 -20547750.06449 -15980903.53647  21911057.276    21911058.010    21911059.533
  -3109459.53249  -2384191.35445  24500175.617    24500175.851    24500179.560
 -21574900.63849 -16757483.88147  20329085.740    20329085.497    20329087.586
   -385175.73149   -269582.51244  24600304.992    24600303.984    24600312.242
 -14383498.03049 -10640133.45746  21885046.450    21885046.098    21885050.809
   4230511.97949   3315861.19045  25203298.270    25203298.679    25203301.934
  -6179204.64049  -4784187.02145  23133617.908    23133618.189    23133620.018
   1610922.33749   1285056.41044  24654495.168    24654495.428    24654499.092
 08  9 25  3  0  0.0000000  0 11G19G23G 6G31G25G16G32G 3G29G13G20
  -3390885.12549  -2082717.68545  24646857.765    24646856.746    24646860.769
 -18833895.28749 -14624873.81347  21142125.651    21142125.611    21142126.086
 -15812702.99549 -11801955.23947  21416987.418    21416987.568    21416991.105
 -20492816.17349 -15938097.94247  21921510.961    21921511.833    21921513.121
  -3194356.75349  -2450345.01145  24484020.217    24484018.477    24484023.428
 -21551794.28949 -16739478.93547  20333482.726    20333482.433    20333484.465
   -304160.18349   -206453.57245  24615721.916    24615722.700    24615726.518
 -14482902.90849 -10717591.79146  21866130.344    21866130.273    21866133.764
   4327298.88649   3391279.50145  25221715.984    25221717.238    25221720.654
  -6271086.30849  -4855783.11645  23116133.442    23116133.903    23116135.512
   1688129.01849   1345217.41044  24669187.224    24669185.049    24669190.037
 08  9 25  3  0 30.0000000  0 10G19G23G 6G31G25G16G32G 3G13G20
  -3506469.34349  -2172783.23845  24624862.853    24624861.543    24624865.472
 -18879024.38049 -14660039.34247  21133537.929    21133537.546    21133538.667
 -15883298.16049 -11856964.45547  21403553.533    21403553.328    21403556.795
 -20437635.44049 -15895100.00547  21932011.567    21932012.274    21932013.774
  -3279261.32549  -2516504.38945  24467863.399    24467863.291    24467866.309
 -21528343.19649 -16721205.35347  20337945.318    20337945.174    20337947.433
   -223138.71549   -143320.02945  24631139.999    24631141.595    24631145.193
 -14581988.50349 -10794801.32446  21847274.947    21847274.946    21847278.553
  -6362641.85049  -4927125.07445  23098711.014    23098711.465    23098713.868
   1765446.04749   1405464.37644  24683899.978    24683900.991    24683904.969
 08  9 25  3  1  0.0000000  0 10G19G23G 6G31G25G16G32G 3G13G20
  -3622048.46849  -2262844.85645  24602868.620    24602867.269    24602870.668
 -18923592.16249 -14694767.48747  21125056.954    21125056.987    21125057.553
 -15953475.92449 -11911648.42247  21390199.161    21390198.863    21390202.376
 -20382208.73549 -15851910.38947  21942558.935    21942559.272    21942561.393
  -3364172.80649  -2582669.14745  24451705.145    24451704.177    24451708.556
 -21504549.44649 -16702664.77047  20342473.150    20342472.969    20342475.116
   -142114.47049    -80184.33045  24646558.552    24646557.973    24646564.210
 -14680752.05849 -10871759.92246  21828480.918    21828480.238    21828484.740
  -6453868.73249  -4998210.93945  23081351.194    23081351.143    23081353.346
   1842869.42349   1465794.20144  24698633.319    24698633.872    24698634.738
 08  9 25  3  1 30.0000000  0 10G19G23G 6G31G25G16G32G 3G13G20
  -3737613.17049  -2352895.20845  24580877.202    24580876.563    24580878.980
 -18967590.07649 -14729051.58647  21116684.456    21116684.653    21116684.819
 -16023227.52749 -11966000.31647  21376925.798    21376925.762    21376929.490
 -20326528.84849 -15808523.49147  21953154.483    21953155.077    21953156.612
  -3449083.55149  -2648833.31845  24435546.990    24435546.773    24435551.010
 -21480407.64849 -16683852.97747  20347067.180    20347066.989    20347068.968
    -61083.44149    -17043.34345  24661978.167    24661975.909    24661983.415
 -14779184.59749 -10948460.58046  21809749.761    21809749.115    21809753.539
  -6544757.57949  -5069033.39945  23064055.490    23064055.247    23064056.917
   1920403.30449   1526210.13344  24713387.542    24713384.890    24713392.125
 08  9 25  3  2  0.0000000  0 10G19G23G 6G31G25G16G32G 3G13G20
  -3853167.66549  -2442937.59545  24558887.902    24558887.656    24558892.482
 -19011023.01449 -14762895.43047  21108419.410    21108419.136    21108420.092
 -16092557.88349 -12020023.96247  21363732.717    21363732.376    21363736.510
 -20270602.90849 -15764944.86047  21963796.915    21963797.559    21963798.856
  -3533999.88949  -2715001.85745  24419387.827    24419388.229    24419391.888
 -21455926.25849 -16664776.56947  20351725.813    20351725.793    20351727.571
     19944.36949     46095.16145  24677397.187    24677396.364    24677404.391
 -14877290.33049 -11024906.58746  21791080.860    21791080.769    21791085.018
  -6635312.44449  -5139595.60745  23046823.307    23046823.266    23046824.801
   1998037.53849   1586704.29144  24728160.979    24728161.690    24728163.579
 08  9 25  3  2 30.0000000  0 10G19G23G 6G31G25G16G32G 3G13G20
  -3968718.01649  -2532976.77545  24536899.267    24536897.579    24536902.048
 -19053897.71849 -14796304.29347  21100260.672    21100260.853    21100261.190
 -16161473.02649 -12073724.06547  21350618.624    21350618.704    21350622.311
 -20214439.33649 -15721181.06747  21974484.460    21974484.861    21974486.840
  -3618929.21949  -2781180.52345  24403226.292    24403227.107    24403228.603
 -21431115.24449 -16645443.31247  20356447.189    20356446.955    20356449.224
    100958.04549    109222.64445  24692813.760    24692812.771    24692819.727
 -14975074.25449 -11101101.84646  21772473.224    21772472.771    21772477.339
  -6725538.68249  -5209901.75945  23029653.797    23029652.893    23029657.249
   2075760.79749   1647267.79844  24742951.481    24742949.552    24742953.554
 08  9 25  3  3  0.0000000  0 10G19G23G 6G31G25G16G32G 3G13G20
  -4084250.10349  -2623001.73745  24514914.235    24514912.749    24514915.834
 -19096200.78749 -14829267.72847  21092210.702    21092210.646    21092210.959
 -16229960.02949 -12127090.55647  21337585.980    21337585.827    21337589.492
 -20158026.44649 -15677222.99847  21985219.523    21985220.129    21985221.853
  -3703859.36349  -2847359.81345  24387064.519    24387064.217    24387069.194
 -21405964.46949 -16625845.30647  20361233.233    20361233.082    20361235.129
    181966.05249    172345.66944  24708229.088    24708228.699    24708233.672
 -15072522.45149 -11177035.49846  21753929.422    21753929.168    21753933.153
  -6815422.19949  -5279940.84745  23012549.439    23012550.123    23012552.682
   2153581.36849   1707907.13744  24757760.240    24757759.840    24757766.689
 08  9 25  3  3 30.0000000  0 10G19G23G 6G31G25G16G32G 3G13G20
  -4199761.83949  -2713010.85145  24492933.028    24492931.756    24492935.546
 -19137931.03149 -14861784.80047  21084269.708    21084269.474    21084270.317
 -16298017.14949 -12180122.06447  21324635.043    21324634.942    21324638.919
 -20101365.14149 -15633071.35447  21996001.835    21996002.105    21996004.105
  -3788789.97849  -2913539.50045  24370902.867    24370903.335    24370907.207
 -21380475.85249 -16605984.04847  20366083.585    20366083.244    20366085.461
    262965.22349    235461.80045  24723642.668    24723642.468    24723649.199
 -15169633.03849 -11252706.06846  21735449.751    21735449.811    21735454.012
  -6904960.71449  -5349711.09945  22995510.906    22995510.879    22995514.101
   2231495.76049   1768619.60044  24772586.906    24772586.735    24772593.670
 08  9 25  3  4  0.0000000  0 10G19G23G 6G31G25G16G32G 3G13G20
  -4315252.20049  -2803003.28945  24470955.977    24470954.930    24470958.898
 -19179088.02149 -14893855.19047  21076437.816    21076437.666    21076438.240
 -16365643.88849 -12232818.22547  21311766.069    21311766.021    21311769.592
 -20044456.65649 -15588727.10447  22006831.173    22006831.418    22006833.216
  -3873721.60649  -2979719.93645  24354740.855    24354740.984    24354745.150
 -21354652.26749 -16585861.77347  20370997.650    20370997.262    20370999.621
    343951.13549    298567.60544  24739053.858    24739054.349    24739059.330
 -15266404.57049 -11328112.44746  21717034.683    21717034.490    21717038.678
  -6994152.89949  -5419211.48045  22978538.181    22978538.009    22978540.079
   2309499.41549   1829401.59244  24787430.494    24787432.128    24787432.430
 08  9 25  3  4 30.0000000  0 10G19G23G 6G31G25G16G32G 3G13G20
  -4430717.62449  -2892976.30245  24448983.640    24448982.991    24448985.748
 -19219669.08049 -14925476.79947  21068715.491    21068715.102    21068715.943
 -16432837.12149 -12285176.57447  21298979.654    21298979.783    21298983.434
 -19987299.95149 -15544189.43247  22017707.705    22017707.858    22017710.053
  -3958652.60449  -3045899.89145  24338579.044    24338579.292    24338583.955
 -21328494.34449 -16565478.98047  20375975.336    20375974.956    20375977.086
    424922.16848    361661.83044  24754462.072    24754460.234    24754467.680
 -15362833.68249 -11403252.00646  21698684.755    21698684.523    21698688.190
  -7082994.84149  -5488438.94645  22961631.989    22961631.543    22961634.485
   2387590.15349   1890251.43044  24802290.869    24802291.101    24802298.463
 08  9 25  3  5  0.0000000  0 10G19G23G 6G31G25G16G32G 3G13G20
  -4546156.28949  -2982928.45045  24427016.421    24427015.309    24427019.039
 -19259673.41449 -14956649.01247  21061102.887    21061102.592    21061103.384
 -16499596.09449 -12337196.54847  21286275.886    21286276.228    21286279.398
 -19929895.89549 -15499459.03447  22028631.291    22028632.115    22028634.000
  -4043582.83249  -3112079.25245  24322417.328    24322416.671    24322421.887
 -21302004.43549 -16544837.49247  20381016.175    20381015.936    20381017.890
    505874.53749    424741.52144  24769866.619    24769866.748    24769872.759
 -15458918.56049 -11478123.33246  21680400.439    21680400.691    21680404.040
  -7171484.54049  -5557391.94445  22944792.905    22944793.700    22944795.923
   2465764.41649   1951166.35444  24817167.031    24817166.263    24817171.489
 08  9 25  3  5 30.0000000  0 10G19G23G 6G31G25G16G32G 3G13G20
  -4661566.48549  -3072858.39645  24405054.592    24405053.353    24405057.037
 -19299099.79949 -14987370.86747  21053600.290    21053600.106    21053600.649
 -16565918.88149 -12388876.63047  21273655.058    21273654.875    21273658.790
 -19872245.20349 -15454536.44647  22039601.891    22039602.181    22039604.285
  -4128511.97349  -3178257.73645  24306255.835    24306255.999    24306259.920
 -21275184.72449 -16523939.01747  20386119.769    20386119.453    20386121.609
    586805.07749    487804.19744  24785267.092    24785268.556    24785273.188
 -15554656.65349 -11552724.42446  21662182.058    21662181.854    21662186.049
  -7259619.73049  -5626068.69245  22928021.411    22928022.320    22928024.048
   2544018.38349   2012143.39644  24832058.410    24832058.963    24832062.810
 08  9 25  3  6  0.0000000  0 10G19G23G 6G31G25G16G32G 3G13G20
  -4776944.65649  -3162763.41045  24383098.755    24383096.973    24383100.796
 -19337945.54449 -15017640.28847  21046208.203    21046208.063    21046208.253
 -16631803.31549 -12440215.14247  21261117.630    21261117.615    21261121.026
 -19814347.22249 -15409421.16147  22050619.453    22050619.584    22050621.981
  -4213438.35849  -3244434.09245  24290094.938    24290094.637    24290099.396
 -21248035.62049 -16502783.87147  20391286.088    20391285.807    20391287.963
    667711.79049    550848.30544  24800663.397    24800664.577    24800669.666
 -15650045.12749 -11627053.09946  21644030.225    21644030.499    21644033.827
  -7347396.81949  -5694466.40445  22911318.003    22911318.035    22911321.642
   2622349.97049   2073180.92644  24846964.361    24846963.145    24846968.588
 08  9 25  3  6 30.0000000  0 10G19G23G 6G31G25G16G32G 3G13G20
  -4892288.70349  -3252641.80045  24361149.364    24361149.377    24361152.682
 -19376209.74849 -15047456.54947  21038926.776    21038926.554    21038927.041
 -16697247.56549 -12491210.64447  21248664.011    21248663.786    21248667.635
 -19756202.11149 -15364113.31347  22061684.057    22061684.354    22061686.788
  -4298361.56849  -3310607.96745  24273934.620    24273934.625    24273939.048
 -21220558.97349 -16481373.49747  20396514.724    20396514.637    20396516.774
    748591.41449    613871.30444  24816054.598    24816053.194    24816058.129
 -15745081.44149 -11701107.34746  21625945.349    21625945.879    21625948.967
  -7434813.59249  -5762583.35945  22894683.059    22894682.761    22894686.793
   2700755.60549   2134276.13244  24861884.469    24861884.056    24861890.150
 08  9 25  3  7  0.0000000  0 10G19G23G 6G31G25G16G32G 3G13G20
  -5007594.40949  -3342490.33745  24339207.415    24339206.698    24339209.594
 -19413889.36849 -15076817.29647  21031756.550    21031756.478    21031756.747
 -16762248.73249 -12541860.89547  21236294.623    21236294.469    21236298.350
 -19697808.69049 -15318611.96947  22072796.060    22072796.581    22072798.290
  -4383279.48649  -3376777.73645  24257775.327    24257775.392    24257778.677
 -21192755.02949 -16459708.09047  20401805.633    20401805.494    20401807.454
    829442.44148    676872.06144  24831439.857    24831437.733    24831446.394
 -15839761.53149 -11774884.02547  21607928.437    21607928.322    21607931.475
  -7521865.80649  -5830416.22745  22878117.541    22878117.998    22878120.363
   2779233.55849   2195427.72044  24876818.448    24876817.977    24876824.451
 08  9 25  3  7 30.0000000  0 10G19G23G 6G31G25G16G32G 3G13G20
  -5122863.83049  -3432310.60345  24317272.306    24317270.164    24317274.904
 -19450986.68249 -15105724.29847  21024697.189    21024697.205    21024697.719
 -16826808.71549 -12592167.36347  21224009.314    21224009.334    21224012.757
 -19639171.26749 -15272920.49847  22083954.409    22083955.036    22083956.657
  -4468195.33849  -3442945.87845  24241616.373    24241616.698    24241618.804
 -21164629.68049 -16437792.23347  20407157.734    20407157.479    20407159.470
    910258.05148    739845.18644  24846818.415    24846818.436    24846826.368
 -15934086.94249 -11848384.32847  21589978.876    21589979.178    21589982.876
  -7608555.00149  -5897966.22745  22861621.159    22861620.929    22861623.678
   2857776.63749   2256630.07844  24891764.659    24891762.242    24891769.739
 08  9 25  3  8  0.0000000  0 10G19G23G 6G31G25G16G32G 3G13G20
  -5238089.22049  -3522096.53145  24295345.629    24295345.712    24295347.613
 -19487495.31949 -15134172.59247  21017749.881    21017749.964    21017750.220
 -16890920.96049 -12642124.94547  21211809.186    21211809.130    21211812.822
 -19580285.01249 -15227035.13647  22095160.173    22095160.888    22095162.700
  -4553103.34449  -3509107.91045  24225458.810    24225458.784    24225461.995
 -21136179.43949 -16415623.21647  20412571.652    20412571.401    20412573.461
    991040.45649    802792.37744  24862190.859    24862189.604    24862195.182
 -16028050.57249 -11921602.73047  21572098.208    21572098.207    21572102.652
  -7694873.32949  -5965227.24745  22845195.324    22845195.600    22845198.390
   2936386.90649   2317884.78844  24906723.611    24906724.493    24906728.436
 08  9 25  3  8 30.0000000  0 10G19G23G 6G31G25G16G32G 3G13G20
  -5353269.62249  -3611847.45645  24273427.483    24273426.297    24273429.426
 -19523415.47949 -15162162.33747  21010914.536    21010914.547    21010914.752
 -16954585.37149 -12691733.56747  21199694.207    21199694.337    21199697.623
 -19521151.39449 -15180957.01747  22106413.028    22106413.508    22106415.310
  -4638004.12649  -3575264.33045  24209302.674    24209302.698    24209306.291
 -21107407.23849 -16393203.31947  20418046.802    20418046.630    20418048.629
   1071785.09649    865710.18244  24877556.164    24877556.816    24877561.689
 -16121650.98949 -11994538.10347  21554286.660    21554286.548    21554290.949
  -7780819.47249  -6032198.23845  22828840.256    22828841.052    22828843.183
   3015059.47648   2379188.05744  24921694.486    24921691.692    24921701.127
 08  9 25  3  9  0.0000000  0 10G19G23G 6G31G25G16G32G 3G13G20
  -5468403.02449  -3701561.71645  24251518.143    24251516.864    24251521.319
 -19558746.08649 -15189692.68847  21004191.352    21004191.251    21004191.935
 -17017800.56749 -12740992.14647  21187664.740    21187664.595    21187668.380
 -19461771.30549 -15134686.85347  22117712.674    22117713.406    22117714.556
  -4722897.56349  -3641415.01545  24193147.952    24193148.442    24193151.318
 -21078315.29249 -16370534.26747  20423582.810    20423582.388    20423584.598
   1152488.73349    928596.05544  24892913.717    24892912.485    24892920.175
 -16214886.41849 -12067189.08247  21536544.506    21536544.830    21536548.220
  -7866391.38049  -6098877.62745  22812556.475    22812556.326    22812559.662
   3093790.79049   2440537.07444  24936676.755    24936676.188    24936681.566
 08  9 25  3  9 30.0000000  0 10G19G23G 6G31G25G16G32G 3G13G20
  -5583485.57549  -3791236.36245  24229618.530    24229617.685    24229621.018
 -19593484.24649 -15216761.39047  20997580.840    20997580.498    20997581.101
 -17080563.16649 -12789898.05147  21175721.366    21175721.343    21175725.344
 -19402143.11949 -15088223.35847  22129059.528    22129059.321    22129062.275
  -4807781.12849  -3707558.00045  24176995.048    24176994.725    24176997.708
 -21048903.61249 -16347616.07547  20429179.606    20429179.303    20429181.569
   1233150.09249    991448.98744  24908263.077    24908264.377    24908270.619
 -16307752.51749 -12139552.27047  21518872.717    21518872.425    21518876.495
  -7951585.06249  -6165262.29945  22796344.663    22796344.719    22796347.571
   3172579.47549   2501930.80044  24951669.962    24951668.389    24951675.413
 08  9 25  3 10  0.0000000  0 10G19G23G 6G31G25G16G32G 3G13G20
  -5698514.95749  -3880869.57445  24207729.191    24207728.608    24207731.368
 -19627628.65849 -15243367.42747  20991083.356    20991083.066    20991083.744
 -17142872.23849 -12838450.56747  21163864.344    21163864.551    21163868.095
 -19342267.62849 -15041567.17447  22140453.397    22140453.833    22140455.439
  -4892654.35749  -3773692.94345  24160844.126    24160844.905    24160847.556
 -21019174.03249 -16324450.16947  20434836.965    20434836.627    20434838.858
   1313766.05049   1054266.59444  24923603.851    24923602.779    24923609.441
 -16400247.64049 -12211626.38047  21501271.404    21501271.489    21501275.221
  -8036397.83349  -6231350.14946  22780205.396    22780205.182    22780208.335
   3251422.18348   2563366.60244  24966673.041    24966672.462    24966677.999
 08  9 25  3 10 30.0000000  0 10G19G23G 6G31G25G16G32G 3G13G20
  -5813490.53749  -3970460.86645  24185850.056    24185849.395    24185852.755
 -19661179.77849 -15269511.16347  20984698.750    20984698.805    20984699.149
 -17204727.21649 -12886649.23447  21152093.779    21152093.950    21152097.431
 -19282146.09649 -14994719.25347  22151894.257    22151894.453    22151896.854
  -4977518.07149  -3839820.45945  24144695.141    24144694.606    24144699.164
 -20989129.84049 -16301039.10747  20440554.191    20440554.239    20440556.099
   1394332.08649   1117045.22344  24938935.084    24938934.555    24938940.522
 -16492370.82549 -12283410.67147  21483740.962    21483740.916    21483744.878
  -8120828.73149  -6297140.44145  22764138.680    22764138.705    22764141.734
   3330313.68048   2624840.44744  24981685.475    24981683.101    24981691.192
 08  9 25  3 11  0.0000000  0 10G19G23G 6G31G25G16G32G 3G13G20
  -5928407.20949  -4060006.24945  24163982.118    24163980.794    24163984.354
 -19694133.90349 -15295189.70947  20978427.767    20978427.717    20978428.251
 -17266124.57049 -12934491.31447  21140410.233    21140410.139    21140414.035
 -19221777.18349 -14947678.56447  22163382.091    22163382.440    22163384.469
  -5062369.19549  -3905938.17245  24128548.427    24128547.874    24128552.171
 -20958770.28749 -16277382.30847  20446331.414    20446331.209    20446333.390
   1474847.76949   1179784.60944  24954256.866    24954256.738    24954263.287
 -16584117.01349 -12354901.19247  21466282.233    21466281.962    21466285.690
  -8204872.92949  -6362629.40846  22748145.552    22748145.107    22748147.834
   3409253.45248   2686351.90444  24996707.217    24996708.099    24996712.579
 08  9 25  3 11 30.0000000  0 10G19G23G 6G31G25G16G32G 3G13G20
  -6043263.59249  -4149504.65045  24142125.512    24142124.845    24142128.227
 -19726490.27849 -15320402.47947  20972270.601    20972270.159    20972270.958
 -17327063.45349 -12981976.15247  21128813.950    21128813.807    21128817.564
 -19161161.59549 -14900445.68447  22174916.903    22174917.224    22174919.428
  -5147207.73149  -3972046.07145  24112404.160    24112404.260    24112407.616
 -20928097.87049 -16253481.72347  20452168.181    20452167.749    20452170.136
   1555309.11349   1242481.66144  24969568.459    24969569.866    24969572.374
 -16675484.81249 -12426096.86747  21448895.559    21448895.379    21448899.600
  -8288528.63449  -6427815.66046  22732226.350    22732227.117    22732228.574
   3488237.60248   2747897.92644  25011737.335    25011735.886    25011744.689
 08  9 25  3 12  0.0000000  0 10G19G23G 6G31G25G16G32G 3G13G20
  -6158056.96049  -4238953.97645  24120281.086    24120280.497    24120283.185
 -19758247.96049 -15345148.73547  20966227.282    20966226.943    20966227.486
 -17387541.82149 -13029102.13647  21117305.280    21117305.404    21117309.078
 -19100299.17249 -14853020.45047  22186498.684    22186498.866    22186500.828
  -5232032.54049  -4038143.28745  24096262.502    24096262.924    24096266.501
 -20897114.10549 -16229338.53047  20458064.182    20458063.917    20458066.060
   1635713.71649   1305134.53144  24984869.009    24984869.055    24984876.976
 -16766471.60849 -12496995.64647  21431581.328    21431581.285    21431585.186
  -8371792.81149  -6492696.80946  22716381.719    22716382.036    22716384.708
   3567263.26149   2809476.29144  25026775.519    25026774.315    25026780.476
 08  9 25  3 12 30.0000000  0 10G19G23G 6G31G25G16G32G 3G13G20
  -6272784.10649  -4328351.70545  24098449.203    24098448.621    24098450.609
 -19789404.71449 -15369426.73547  20960298.331    20960298.247    20960298.571
 -17447557.64849 -13075867.70047  21105884.609    21105884.240    21105888.295
 -19039189.81149 -14805402.79147  22198127.335    22198127.726    22198130.007
  -5316842.28849  -4104228.76145  24080123.706    24080123.118    24080127.119
 -20865819.97949 -16204953.49847  20464019.223    20464018.994    20464020.962
   1716059.31549   1367741.46044  25000158.422    25000156.971    25000162.891
 -16857074.32749 -12567595.14747  21414340.239    21414340.551    21414343.527
  -8454662.45149  -6557270.53846  22700612.169    22700612.743    22700615.808
   3646328.07749   2871085.15944  25041821.423    25041822.337    25041826.942
 08  9 25  3 13  0.0000000  0 10G19G23G 6G31G25G16G32G 3G13G20
  -6387442.71849  -4417696.02745  24076630.289    24076629.696    24076631.970
 -19819959.18349 -15393235.41947  20954484.050    20954483.953    20954484.865
 -17507109.14949 -13122271.45547  21094552.310    21094552.355    21094555.438
 -18977833.41549 -14757592.64647  22209803.116    22209804.043    22209805.380
  -5401635.97749  -4170301.74345  24063987.938    24063987.538    24063991.759
 -20834216.96849 -16180327.77747  20470033.168    20470033.041    20470035.097
   1796343.21549   1430300.29744  25015435.802    25015436.194    25015440.822
 -16947290.79149 -12637893.67147  21397172.666    21397172.576    21397176.310
  -8537134.99049  -6621534.83546  22684918.116    22684918.038    22684920.088
   3725428.67649   2932721.90244  25056873.745    25056873.597    25056877.577
 08  9 25  3 13 30.0000000  0 10G19G23G 6G31G25G16G32G 3G13G20
  -6502029.60649  -4506984.45745  24054825.100    24054824.561    24054826.859
 -19849909.65049 -15416573.45447  20948784.721    20948784.448    20948784.989
 -17566194.34349 -13168311.85247  21083308.712    21083308.609    21083312.108
 -18916229.78149 -14709589.84547  22221525.899    22221526.347    22221528.280
  -5486412.27949  -4236361.14845  24047855.477    24047855.856    24047858.974
 -20802305.51749 -16155461.71647  20476105.760    20476105.697    20476107.656
   1876563.27249   1492809.34244  25030701.318    25030699.437    25030706.125
 -17037118.07149 -12707888.93347  21380079.127    21380078.739    21380082.421
  -8619207.20449  -6685487.19446  22669300.239    22669300.800    22669302.857
   3804562.70249   2994384.74244  25071932.487    25071931.903    25071935.751
 08  9 25  3 14  0.0000000  0 10G19G23G 6G31G25G16G32G 3G13G20
  -6616543.74249  -4596216.20945  24033033.756    24033033.157    24033035.293
 -19879256.36749 -15439441.03447  20943200.272    20943200.454    20943200.778
 -17624813.38849 -13213989.01647  21072153.832    21072154.021    21072157.544
 -18854380.71949 -14661395.79647  22233295.426    22233295.600    22233297.475
  -5571171.88149  -4302407.55245  24031726.233    24031726.572    24031729.553
 -20770090.03749 -16130358.74747  20482236.101    20482235.733    20482238.040
   1956714.85449   1555265.05844  25045953.722    25045953.267    25045958.671
 -17126555.07949 -12777580.08447  21363059.741    21363059.312    21363063.012
  -8700877.76349  -6749126.57446  22653758.938    22653758.929    22653762.043
   3883725.17549   3056069.76444  25086996.720    25086995.844    25087002.585
 08  9 25  3 14 30.0000000  0 10G19G23G 6G31G25G16G32G 3G13G20
  -6730982.19949  -4685389.00345  24011256.927    24011256.443    24011258.343
 -19907997.69749 -15461836.88347  20937730.987    20937730.831    20937731.633
 -17682963.70349 -13259300.93547  21061088.251    21061088.052    21061091.888
 -18792285.86149 -14613010.22947  22245111.769    22245111.500    22245114.265
  -5655913.13649  -4368439.66545  24015600.567    24015600.646    24015603.093
 -20737571.10349 -16105019.32247  20488424.257    20488423.929    20488426.331
   2036795.92749   1617665.85345  25061192.748    25061192.977    25061199.456
 -17215598.43949 -12846964.50947  21346115.284    21346114.922    21346118.753
  -8782143.34749  -6812450.39446  22638294.584    22638294.615    22638297.030
   3962913.73349   3117775.07244  25102065.801    25102065.122    25102070.509
 08  9 25  3 15  0.0000000  0  9G19G23G 6G31G25G16G 3G13G20
  -6845340.50649  -4774499.37945  23989495.304    23989494.029    23989496.469
 -19936130.42149 -15483758.49147  20932377.511    20932377.137    20932378.152
 -17740642.06349 -13304245.09847  21050112.430    21050112.800    21050115.964
 -18729943.50149 -14564431.79647  22256975.027    22256975.247    22256977.677
  -5740633.36149  -4434455.37745  23999478.830    23999477.537    23999482.250
 -20704748.18449 -16079443.02247  20494670.206    20494670.045    20494672.190
 -17304244.26049 -12916039.16147  21329246.466    21329246.170    21329250.296
  -8862999.67849  -6875455.30346  22622908.020    22622908.067    22622910.832
   4042127.41449   3179499.93544  25117139.737    25117140.635    25117145.200
 08  9 25  3 15 30.0000000  0  9G19G23G 6G31G25G16G 3G13G20
  -6959619.18249  -4863547.67645  23967748.697    23967747.923    23967751.164
 -19963656.52549 -15505207.40847  20927139.382    20927139.313    20927140.024
 -17797850.25149 -13348822.88647  21039226.083    21039225.987    21039229.451
 -18667356.99249 -14515663.12147  22268884.874    22268885.102    22268887.780
  -5825334.75949  -4500456.40545  23983360.597    23983359.975    23983364.089
 -20671625.96149 -16053633.50747  20500973.151    20500973.152    20500975.132
 -17392493.45949 -12984804.76547  21312453.180    21312452.786    21312456.763
  -8943447.20549  -6938141.68746  22607599.348    22607600.124    22607602.177
   4121359.96649   3241239.54844  25132217.314    25132215.969    25132222.944
 08  9 25  3 16  0.0000000  0  9G19G23G 6G31G25G16G 3G13G20
  -7073812.73649  -4952529.64345  23946018.318    23946017.677    23946020.334
 -19990571.96449 -15526180.48747  20922017.585    20922017.149    20922018.227
 -17854583.57449 -13393030.66147  21028430.108    21028430.101    21028433.626
 -18604523.39849 -14466701.90447  22280841.740    22280842.174    22280844.798
  -5910013.34949  -4566439.68145  23967246.665    23967246.461    23967250.149
 -20638202.92749 -16027589.59247  20507333.320    20507332.859    20507335.237
 -17480340.46549 -13053256.96547  21295736.475    21295736.089    21295740.295
  -9023480.30549  -7000505.12046  22592369.474    22592369.558    22592372.279
   4200611.33049   3302993.80044  25147298.361    25147296.609    25147302.929
 08  9 25  3 16 30.0000000  0  9G19G23G 6G31G25G16G 3G13G20
  -7187918.65249  -5041443.32545  23924304.543    23924304.009    23924306.849
 -20016875.27949 -15546676.58347  20917012.200    20917012.054    20917012.824
 -17910840.41949 -13436867.13947  21017724.807    21017724.422    21017728.427
 -18541443.06249 -14417548.42047  22292845.504    22292845.804    22292848.509
  -5994668.19849  -4632404.44845  23951137.353    23951137.622    23951141.908
 -20604480.76649 -16001312.58347  20513750.429    20513750.336    20513752.444
 -17567782.62249 -13121393.69147  21279096.803    21279096.588    21279100.343
  -9103096.48949  -7062543.68646  22577219.014    22577219.456    22577223.154
   4279878.71649   3364760.52644  25162382.428    25162382.105    25162386.702
 08  9 25  3 17  0.0000000  0  9G19G23G 6G31G25G16G 3G13G20
  -7301934.52849  -5130286.83845  23902608.088    23902606.890    23902610.279
 -20042565.81549 -15566695.19447  20912123.432    20912123.518    20912123.834
 -17966619.87449 -13480331.63547  21007110.302    21007109.850    21007113.920
 -18478116.50849 -14368203.08647  22304896.151    22304897.101    22304899.060
  -6079298.51849  -4698350.11245  23935032.715    23935032.622    23935036.457
 -20570461.11249 -15974803.77047  20520224.144    20520223.935    20520226.249
 -17654817.79749 -13189213.29347  21262534.563    21262534.014    21262538.073
  -9182293.27549  -7124255.44846  22562148.366    22562148.050    22562150.938
   4359158.69949   3426537.08844  25177469.071    25177467.362    25177472.907
 08  9 25  3 17 30.0000000  0  9G19G23G 6G31G25G16G 3G13G20
  -7415858.93849  -5219059.09645  23880929.061    23880927.578    23880931.267
 -20067643.15949 -15586235.97947  20907351.414    20907351.122    20907351.881
 -18021920.78549 -13523423.24247  20996586.843    20996586.656    20996590.484
 -18414544.85649 -14318666.75747  22316993.390    22316993.697    22316995.983
  -6163904.32749  -4764276.68145  23918932.798    23918933.017    23918936.392
 -20536146.74449 -15948065.30247  20526753.972    20526753.834    20526756.029
 -17741444.89449 -13256714.92147  21246049.974    21246050.016    21246053.814
  -9261068.87049  -7185639.02346  22547157.826    22547158.397    22547160.335
   4438447.46649   3488320.46444  25192557.267    25192556.756    25192561.091
 08  9 25  3 18  0.0000000  0  9G19G23G 6G31G25G16G 3G13G20
  -7529687.45749  -5307756.61945  23859268.194    23859267.393    23859270.746
 -20092105.15349 -15605297.28547  20902696.475    20902696.514    20902696.983
 -18076740.59149 -13566139.96347  20986154.988    20986154.597    20986158.525
 -18350726.60149 -14268938.28747  22329137.628    22329138.679    22329140.312
  -6248482.93849  -4830182.03445  23902837.832    23902837.460    23902841.692
 -20501537.34349 -15921096.94147  20533339.916    20533339.705    20533341.919
 -17827659.73349 -13323895.29747  21229643.871    21229643.634    21229647.969
  -9339418.97949  -7246691.04746  22532248.275    22532248.159    22532251.613
   4517743.80049   3550109.77245  25207646.938    25207645.070    25207652.626
 08  9 25  3 18 30.0000000  0  9G19G23G 6G31G25G16G 3G13G20
  -7643418.52749  -5396378.21145  23837625.863    23837624.656    23837627.605
 -20115951.49549 -15623878.86047  20898158.633    20898158.436    20898159.043
 -18131078.69049 -13608481.32447  20975814.774    20975814.606    20975818.237
 -18286663.22649 -14219018.79747  22341328.596    22341328.990    22341331.302
  -6333034.47849  -4896066.30645  23886748.332    23886748.288    23886752.121
 -20466635.82049 -15893900.95047  20539981.479    20539981.067    20539983.322
 -17913461.57349 -13390753.85447  21213316.321    21213316.247    21213319.984
  -9417342.15049  -7307410.38146  22517420.017    22517419.975    22517422.650
   4597043.35849   3611901.57644  25222737.156    25222737.432    25222741.996
 08  9 25  3 19  0.0000000  0  9G19G23G 6G31G25G16G 3G13G20
  -7757048.94449  -5484921.37645  23816002.630    23816001.705    23816004.497
 -20139180.61549 -15641979.48047  20893738.241    20893738.026    20893738.729
 -18184932.89249 -13650445.62947  20965566.651    20965566.530    20965570.133
 -18222354.15649 -14168907.85947  22353566.262    22353566.518    22353569.238
  -6417557.29249  -4961928.18645  23870664.057    23870663.913    23870667.471
 -20431442.86049 -15866477.86647  20546678.445    20546678.401    20546680.486
 -17998846.72849 -13457287.72447  21197068.044    21197067.735    21197071.632
  -9494835.32549  -7367794.65146  22502673.489    22502673.603    22502675.393
   4676343.79549   3673694.07744  25237827.558    25237826.826    25237833.076
 08  9 25  3 19 30.0000000  0  8G19G23G 6G31G25G16G 3G13
  -7870577.45949  -5573385.13345  23794398.839    23794398.241    23794400.827
 -20161792.39349 -15659599.05947  20889435.376    20889435.285    20889435.953
 -18238303.17349 -13692032.84247  20955410.573    20955410.431    20955414.250
 -18157800.45149 -14118606.30647  22365850.419    22365851.054    22365853.479
  -6502051.29949  -5027767.63545  23854585.323    23854584.964    23854588.683
 -20395961.14249 -15838829.77547  20553430.395    20553430.326    20553432.304
 -18083813.80849 -13523495.82447  21180899.342    21180898.969    21180902.903
  -9571896.48049  -7427842.29246  22488009.322    22488009.675    22488011.137
 08  9 25  3 20  0.0000000  0  8G19G23G 6G31G25G16G 3G13
  -7983999.88649  -5661766.20345  23772815.149    23772814.533    23772817.647
 -20183784.50449 -15676735.77647  20885250.432    20885250.422    20885251.131
 -18291186.51249 -13733240.63047  20945347.227    20945347.388    20945350.632
 -18093001.29449 -14068113.48447  22378181.439    22378181.907    22378183.650
  -6586514.21249  -5093582.85345  23838512.547    23838512.251    23838516.206
 -20360190.62249 -15810956.64447  20560237.338    20560237.234    20560239.365
 -18168359.15749 -13589375.29947  21164810.805    21164810.247    21164814.726
  -9648522.00549  -7487550.49246  22473427.984    22473427.500    22473429.967
 08  9 25  3 20 30.0000000  0  8G19G23G 6G31G25G16G 3G13
  -8097314.06549  -5750062.93545  23751252.115    23751251.781    23751254.903
 -20205156.09749 -15693388.97547  20881183.590    20881183.497    20881184.156
 -18343581.47749 -13774067.86647  20935376.820    20935376.860    20935380.192
 -18027957.07049 -14017429.70947  22390558.972    22390559.528    22390561.274
  -6670944.96449  -5159373.00645  23822445.799    23822445.774    23822448.930
 -20324133.04549 -15782859.83147  20567098.895    20567098.584    20567101.099
 -18252481.06649 -13654924.82347  21148802.864    21148802.798    21148806.528
  -9724709.21949  -7546917.13946  22458929.899    22458930.316    22458932.250
 08  9 25  3 21  0.0000000  0  8G19G23G 6G31G25G16G 3G13
  -8210517.29749  -5838273.21445  23729710.282    23729709.444    23729713.323
 -20225906.48049 -15709558.11647  20877234.903    20877234.871    20877235.552
 -18395487.28449 -13814513.92947  20925499.415    20925499.688    20925503.028
 -17962668.04049 -13966555.16947  22402983.112    22402983.557    22402986.011
  -6755342.81949  -5225137.53345  23806385.412    23806385.802    23806388.804
 -20287790.06849 -15754540.63247  20574014.708    20574014.556    20574016.758
 -18336177.10149 -13720142.49747  21132875.984    21132875.485    21132879.518
  -9800455.95849  -7605940.56046  22444515.734    22444515.935    22444518.665
 08  9 25  3 21 30.0000000  0  8G19G23G 6G31G25G16G 3G13
  -8323607.15649  -5926395.14545  23708189.968    23708188.752    23708192.038
 -20246034.70949 -15725242.46547  20873404.642    20873404.423    20873404.936
 -18446902.32749 -13854577.58847  20915715.512    20915715.511    20915718.920
 -17897134.70149 -13915490.26347  22415453.762    22415454.084    22415456.578
  -6839706.82749  -5290875.69445  23790331.506    23790330.987    23790335.028
 -20251163.31149 -15726000.30347  20580984.554    20580984.371    20580986.747
 -18419445.50349 -13785026.94847  21117030.495    21117030.164    21117034.528
  -9875759.64949  -7664618.74046  22430185.940    22430186.725    22430188.393
 08  9 25  3 22  0.0000000  0  8G19G23G 6G31G25G16G 3G13
  -8436580.27949  -6014426.12445  23686691.757    23686690.605    23686694.237
 -20265539.27049 -15740440.83647  20869693.033    20869693.202    20869693.752
 -18497824.62049 -13894257.27847  20906025.283    20906025.260    20906028.707
 -17831356.33349 -13864234.41647  22427971.007    22427971.289    22427973.599
  -6924035.21449  -5356586.07845  23774284.226    23774284.415    23774287.699
 -20214253.80949 -15697239.65347  20588008.174    20588008.059    20588009.965
 -18502282.65849 -13849575.36447  21101267.117    21101267.047    21101270.765
  -9950616.95449  -7722949.09046  22415941.162    22415941.067    22415942.563
 08  9 25  3 22 30.0000000  0  8G19G23G 6G31G25G16G 3G13
  -8549434.68849  -6102364.58845  23665216.289    23665216.052    23665219.320
 -20284419.89849 -15755153.03047  20866100.177    20866099.920    20866100.985
 -18548253.50349 -13933552.50747  20896428.974    20896428.813    20896432.122
 -17765333.95949 -13812788.45147  22440534.623    22440534.991    22440537.526
  -7008327.29449  -5422268.19445  23758243.873    23758244.260    23758247.858
 -20177063.69449 -15668260.34147  20595085.237    20595085.139    20595087.140
 -18584687.35249 -13913786.80047  21085586.087    21085586.162    21085589.822
 -10025026.01549  -7780930.16946  22401781.550    22401781.359    22401783.904
 08  9 25  3 23  0.0000000  0  8G19G23G 6G31G25G16G 3G13
  -8662167.44249  -6190208.25445  23643763.991    23643763.713    23643767.031
 -20302675.28849 -15769378.02147  20862626.309    20862625.925    20862626.967
 -18598187.02849 -13972461.73147  20886926.916    20886926.891    20886930.317
 -17699067.08149 -13761151.96547  22453144.778    22453145.401    22453147.169
  -7092581.70649  -5487920.95845  23742210.834    23742210.580    23742214.537
 -20139593.77149 -15639063.00447  20602215.557    20602215.313    20602217.384
 -18666656.39449 -13977658.76647  21069987.923    21069987.901    21069991.633
 -10098983.50549  -7838559.39046  22387707.960    22387707.992    22387709.798
 08  9 25  3 23 30.0000000  0  8G19G23G 6G31G25G16G 3G13
  -8774777.36349  -6277956.19945  23622335.047    23622334.968    23622337.314
 -20320306.31949 -15783116.50447  20859271.216    20859271.067    20859271.902
 -18647625.75349 -14010985.39947  20877519.044    20877519.104    20877522.558
 -17632558.12149 -13709326.83646  22465801.035    22465801.649    22465803.324
  -7176798.80649  -5553544.62445  23726184.839    23726184.005    23726188.238
 -20101847.16649 -15609650.06647  20609398.512    20609398.370    20609400.570
 -18748189.74149 -14041191.22447  21054472.626    21054472.232    21054476.286
 -10172488.67349  -7895836.12146  22373720.455    22373720.306    22373722.976
 08  9 25  3 24  0.0000000  0  8G19G23G 6G31G25G16G 3G13
  -8887260.10349  -6365605.05145  23600930.361    23600929.427    23600932.759
 -20337310.03649 -15796366.16747  20856035.543    20856035.587    20856035.857
 -18696566.40849 -14049120.96547  20868205.941    20868205.872    20868209.570
 -17565805.00249 -13657311.45846  22478503.677    22478503.976    22478506.061
  -7260975.51349  -5619136.84145  23710166.601    23710167.143    23710169.525
 -20063823.57249 -15580021.29647  20616634.205    20616633.891    20616636.130
 -18829282.60149 -14104380.45647  21039041.181    21039041.045    21039045.342
 -10245537.07549  -7952756.94946  22359819.787    22359820.518    22359822.658
