     2              OBSERVATION DATA                        RINEX VERSION / TYPE
CRN, Geodetics, Inc.                    20010304 00:37:54UTCPGM / RUN BY / DATE 
HKSL Siu Lang Shui                                          MARKER NAME         
                                                            REC # / TYPE / VERS 
                                                            ANT # / TYPE        
 -2393382.4830  5393861.1466  2412592.3620                  APPROX POSITION XYZ 
        0.1183        0.0000        0.0000                  ANTENNA: DELTA H/E/N
     1     1                                                WAVELENGTH FACT L1/2
     4    L1    L2    P2    C1                              # / TYPES OF OBSERV 
  2001    03    04    00    01    0.000000                  TIME OF FIRST OBS   
                                                            END OF HEADER       
 01 03 04 00 01  0.0000000  0 10 28 03 25 29 20 22 13 01 31 19
 111610433.02848  86969139.84148  21238749.729    21238756.916  
 107972144.42048  84134119.40949  20546413.287    20546419.026  
 115818777.83648  90248389.60048  22039571.083    22039575.939  
 127860914.68846  99631886.98446  24331127.452    24331125.537  
 125394404.47447  97709887.29547  23861768.746    23861773.146  
 109402736.12648  85248860.61448  20818636.889    20818643.346  
 126818303.05847  98819442.28547  24132716.740    24132722.273  
 114845381.77448  89489876.17448  21854347.712    21854353.605  
 120111541.41848  93593370.20547  22856463.995    22856468.146  
 129736551.83447 101093402.36746  24688041.582    24688046.217  
 01 03 04 00 01  5.0000000  0 10 28 03 25 29 20 22 13 01 31 19
 111609912.09448  86968733.91448  21238650.613    21238657.786  
 107964620.28648  84128256.44049  20544981.506    20544987.243  
 115823397.84648  90251989.58648  22040450.267    22040455.110  
 127879099.73046  99646057.08946  24334587.998    24334586.119  
 125402331.69947  97716064.31247  23863277.283    23863281.682  
 109410799.74648  85255143.95048  20820171.359    20820177.801  
 126802287.62447  98806962.73447  24129669.091    24129674.637  
 114833843.75048  89480885.50148  21852152.114    21852157.992  
 120093645.66848  93579425.47947  22853058.535    22853062.686  
 129723695.93546 101083384.75546  24685595.209    24685599.857  
 01 03 04 00 01 10.0000000  0 10 28 03 25 29 20 22 13 01 31 19
 111609397.47148  86968332.89648  21238552.696    21238559.868  
 107957110.42548  84122404.59749  20543552.426    20543558.164  
 115828024.39948  90255594.70048  22041330.657    22041335.514  
 127897287.04746  99660228.94946  24338048.926    24338047.110  
 125410264.29547  97722245.53547  23864786.831    23864791.217  
 109418867.61949  85261430.59148  20821706.636    20821713.078  
 126786277.68847  98794487.40047  24126622.563    24126628.083  
 114822316.61048  89471903.31448  21849958.572    21849964.450  
 120075755.01447  93565484.72947  22849654.031    22849658.196  
 129710836.70747 101073364.52746  24683148.213    24683152.863  
 01 03 04 00 01 15.0000000  0 10 28 03 25 29 20 22 13 01 31 19
 111608889.93248  86967937.43048  21238456.088    21238463.275  
 107949615.64548  84116564.50049  20542126.214    20542131.954  
 115832658.33748  90259205.53948  22042212.491    22042217.346  
 127915477.43546  99674403.20946  24341510.394    24341508.625  
 125418203.07247  97728431.56347  23866297.568    23866301.940  
 109426940.55448  85267721.19448  20823242.850    20823249.307  
 126770274.08347  98782017.07346  24123577.167    24123582.686  
 114810801.15948  89462930.24648  21847767.242    21847773.133  
 120057870.27848  93551548.58347  22846250.667    22846254.832  
 129697974.89446 101063342.42146  24680700.575    24680705.270  
 01 03 04 00 01 20.0000000  0 10 28 03 25 29 20 22 13 01 31 19
 111608389.07548  86967547.14548  21238360.792    21238367.965  
 107942135.53248  84110735.85749  20540702.785    20540708.524  
 115837299.23248  90262821.79148  22043095.648    22043100.503  
 127933670.50146  99688579.56846  24344972.406    24344970.675  
 125426147.58747  97734622.08847  23867809.373    23867813.743  
 109435018.16248  85274015.42848  20824779.982    20824786.425  
 126754276.39047  98769551.38847  24120532.858    24120538.391  
 114799296.99148  89453965.95448  21845578.085    21845583.962  
 120039991.01848  93537616.67847  22842848.384    22842852.522  
 129685110.12847 101053317.84847  24678252.578    24678257.246  
 01 03 04 00 01 25.0000000  0 10 28 03 25 29 20 22 13 01 31 19
 111607895.45648  86967162.49048  21238266.886    21238274.044  
 107934670.69448  84104919.08849  20539282.286    20539288.025  
 115841947.70448  90266443.95848  22043980.248    22043985.102  
 127951866.75646  99702758.43146  24348435.060    24348433.307  
 125434098.41747  97740817.50247  23869322.402    23869326.771  
 109443100.96248  85280313.70348  20826318.100    20826324.530  
 126738285.23947  98757090.70147  24117489.892    24117495.412  
 114787804.70248  89445010.90948  21843391.187    21843397.064  
 120022117.85848  93523689.52747  22839447.247    22839451.384  
 129672242.93847 101043291.53646  24675803.959    24675808.653  
 01 03 04 00 01 30.0000000  0 10 28 03 25 29 20 22 13 01 31 19
 111607408.80848  86966783.29748  21238174.268    21238181.438  
 107927220.84248  84099114.00549  20537864.625    20537870.365  
 115846603.47048  90270071.81748  22044866.209    22044871.077  
 127970065.91746  99716939.45146  24351898.378    24351896.575  
 125442055.24947  97747017.60447  23870836.561    23870840.929  
 109451188.66148  85286615.80248  20827857.137    20827863.568  
 126722300.35347  98744634.93147  24114448.081    24114453.601  
 114776324.01748  89436064.93948  21841206.475    21841212.351  
 120004250.47148  93509766.90747  22836047.170    22836051.310  
 129659373.10347 101033263.06646  24673354.950    24673359.641  
 01 03 04 00 01 35.0000000  0 10 28 03 25 29 20 22 13 01 31 19
 111606928.72148  86966409.20948  21238082.896    21238090.069  
 107919785.59748  84093320.30449  20536449.759    20536455.485  
 115851266.14848  90273705.06748  22045753.500    22045758.355  
 127988267.60646  99731122.59346  24355362.046    24355360.289  
 125450017.70647  97753222.12447  23872351.768    23872356.135  
 109459280.86948  85292921.39648  20829397.058    20829403.476  
 126706321.33747  98732183.76047  24111407.363    24111412.883  
 114764854.56748  89427127.68348  21839023.936    21839029.799  
 119986388.51648  93495848.51047  22832648.140    22832652.281  
 129646500.20547 101023232.29146  24670905.271    24670909.962  
 01 03 04 00 01 40.0000000  0 10 28 03 25 29 20 22 13 01 31 19
 111606455.49348  86966040.44548  21237992.871    21238000.028  
 107912365.24349  84087538.21049  20535037.713    20535043.438  
 115855935.98848  90277343.88648  22046642.153    22046647.020  
 128006472.01047  99745307.65246  24358826.411    24358824.650  
 125457986.00747  97759431.18347  23873868.099    23873872.452  
 109467377.85848  85299230.72948  20830937.877    20830944.294  
 126690348.43847  98719737.37647  24108367.783    24108373.330  
 114753396.61548  89418199.40448  21836843.559    21836849.435  
 119968532.27148  93481934.58047  22829250.186    22829254.327  
 129633624.51347 101013199.19146  24668455.223    24668459.871  
 01 03 04 00 01 45.0000000  0 10 28 03 25 29 20 22 13 01 31 19
 111605989.01648  86965676.95648  21237904.103    21237911.273  
 107904959.70749  84081767.66249  20533628.486    20533634.212  
 115860612.95048  90280988.26648  22047532.163    22047537.016  
 128024679.20747  99759495.08546  24362291.112    24362289.400  
 125465960.09447  97765644.68147  23875385.590    23875389.930  
 109475479.54949  85305543.72848  20832479.576    20832486.006  
 126674381.61747  98707295.62647  24105329.457    24105335.004  
 114741950.10148  89409280.06548  21834665.335    21834671.212  
 119950681.70548  93468025.02047  22825853.360    22825857.501  
 129620745.92947 101003163.97046  24666004.489    24666009.122  
 01 03 04 00 01 50.0000000  0 10 28 03 25 29 20 22 13 01 31 19
 111605528.58048  86965318.18548  21237816.472    21237823.643  
 107897568.28748  84076008.10449  20532221.943    20532227.671  
 115865296.31748  90284637.62748  22048423.389    22048428.243  
 128042888.25346  99773683.83146  24365756.316    24365754.597  
 125473939.20447  97771862.21647  23876903.915    23876908.268  
 109483585.18748  85311859.79848  20834022.055    20834028.470  
 126658420.18347  98694858.18547  24102292.076    24102297.609  
 114730514.32548  89400369.06248  21832489.192    21832495.068  
 119932836.09648  93454119.36847  22822457.427    22822461.571  
 129607863.78147 100993125.90446  24663553.152    24663557.766  
 01 03 04 00 01 55.0000000  0 10 28 03 25 29 20 22 13 01 31 19
 111605075.20148  86964964.88448  21237730.223    21237737.379  
 107890192.04148  84070260.38049  20530818.291    20530824.018  
 115869987.08748  90288292.77148  22049316.013    22049320.867  
 128061100.40347  99787875.06946  24369222.023    24369220.278  
 125481924.41847  97778084.39447  23878423.526    23878427.863  
 109491695.79048  85318179.73848  20835565.464    20835571.866  
 126642465.19147  98682425.70647  24099255.953    24099261.487  
 114719090.33648  89391467.24348  21830315.292    21830321.167  
 119914996.51048  93440218.41147  22819062.641    22819066.798  
 129594979.06747 100983085.83746  24661101.311    24661105.923  
 01 03 04 00 02  0.0000000  0 10 28 03 25 29 20 22 13 01 31 19
 111604628.98548  86964617.17348  21237645.324    21237652.479  
 107882831.07249  84064524.55449  20529417.559    20529423.273  
 115874685.43548  90291953.77048  22050210.127    22050214.968  
 128079315.56346  99802068.69746  24372688.267    24372686.532  
 125489915.81447  97784311.43147  23879944.262    23879948.587  
 109499811.50948  85324503.66548  20837109.832    20837116.248  
 126626516.77547  98669998.43147  24096221.024    24096226.556  
 114707678.27248  89382574.70848  21828143.660    21828149.535  
 119897163.04648  93426322.18347  22815669.070    22815673.203  
 129582091.97146 100973043.97446  24658648.924    24658653.566  
 01 03 04 00 02  5.0000000  0 10 28 03 25 29 20 22 13 01 31 19
 111604189.96048  86964275.07148  21237561.779    21237568.935  
 107875485.40049  84058800.66049  20528019.710    20528025.438  
 115879391.37348  90295620.73848  22051105.638    22051110.479  
 128097533.85647  99816264.55146  24376155.329    24376153.488  
 125497913.38847  97790543.26947  23881466.171    23881470.511  
 109507932.34848  85330831.58448  20838655.190    20838661.592  
 126610574.98147  98657576.16947  24093187.488    24093192.981  
 114696278.13848  89373691.51248  21825974.262    21825980.138  
 119879335.75748  93412430.79947  22812276.637    22812280.771  
 129569202.43447 100963000.17646  24656196.111    24656200.757  
 01 03 04 00 02 10.0000000  0 10 28 03 25 29 20 22 13 01 31 19
 111603757.08748  86963937.76848  21237479.406    21237486.563  
 107868154.02748  84053087.90649  20526624.597    20526630.312  
 115884103.86148  90299292.80348  22052002.394    22052007.235  
 128115754.21846  99830462.20746  24379622.572    24379620.720  
 125505916.11647  97796779.13647  23882989.064    23882993.403  
 109516057.24348  85337162.66948  20840201.305    20840207.708  
 126594638.73047  98645158.29147  24090154.931    24090160.426  
 114684888.94048  89364816.80448  21823806.983    21823812.858  
 119861513.62248  93398543.42547  22808885.199    22808889.331  
 129556309.53247 100952953.71246  24653742.723    24653747.331  
 01 03 04 00 02 15.0000000  0 10 28 03 25 29 20 22 13 01 31 19
 111603330.95248  86963605.70148  21237398.327    21237405.484  
 107860837.54649  84047386.74449  20525232.330    20525238.044  
 115888823.50648  90302970.44248  22052900.511    22052905.365  
                                                                
 125513924.58447  97803019.49147  23884513.038    23884517.364  
 109524186.83148  85343497.40848  20841748.328    20841754.730  
 126578708.65247  98632745.28947  24087123.503    24087128.997  
 114673511.27948  89355951.09048  21821641.900    21821647.761  
 119843697.24348  93384660.55547  22805494.829    22805498.963  
 129543413.79347 100942905.11746  24651288.708    24651293.318  
 01 03 04 00 02 20.0000000  0 10 28 03 25 29 20 22 13 01 31 19
 111602910.96248  86963278.44548  21237318.393    21237325.550  
 107853535.33349  84041696.70849  20523842.765    20523848.467  
 115893549.69948  90306653.17548  22053799.887    22053804.742  
                                                                
 125521938.15747  97809263.78947  23886038.020    23886042.332  
 109532320.48748  85349835.30348  20843296.138    20843302.525  
 126562784.17947  98620336.58947  24084093.187    24084098.682  
 114662144.57548  89347093.91848  21819478.888    21819484.749  
 119825886.07348  93370781.71347  22802105.490    22802109.622  
 129530514.66147 100932853.84446  24648834.084    24648838.683  
 01 03 04 00 02 25.0000000  0 10 28 03 25 29 20 22 13 01 31 19
 111602343.37848  86962836.17448  21237210.386    21237217.543  
 107846093.68749  84035898.02349  20522426.667    20522432.369  
 115898128.72748  90310221.25448  22054671.248    22054676.102  
                                                                
 125529803.11947  97815392.30247  23887534.696    23887539.008  
 109540304.41948  85356056.53548  20844815.441    20844821.828  
 126546711.62047  98607812.48847  24081034.704    24081040.200  
 114650635.09148  89338125.48248  21817288.705    21817294.579  
 119807926.32948  93356787.08447  22798687.874    22798692.009  
 129517458.35347 100922680.07346  24646349.576    24646354.162  
 01 03 04 00 02 30.0000000  0 10 28 03 25 29 20 22 13 01 31 19
 111601937.46048  86962519.87348  21237133.142    21237140.299  
 107838821.86849  84030231.67149  20521042.886    20521048.588  
 115902869.85848  90313915.61348  22055573.479    22055578.333  
                                                                
 125537828.71347  97821646.00147  23889061.929    23889066.240  
 109548447.94748  85362402.13348  20846365.116    20846371.490  
 126530800.21447  98595414.07647  24078006.778    24078012.289  
 114639292.10848  89329286.77648  21815130.233    21815136.093  
 119790127.30748  93342917.74847  22795300.810    22795304.943  
 129504554.18147 100912624.91946  24643893.943    24643898.532  
 01 03 04 00 02 35.0000000  0 10 28 03 25 29 20 22 13 01 31 19
 111601691.66048  86962328.31748  21237086.392    21237093.549  
 107831718.36349  84024696.46249  20519691.147    20519696.847  
 115907771.56748  90317735.10248  22056506.268    22056511.121  
                                                                
 125546013.37247  97828023.63347  23890619.442    23890623.752  
 109556749.53248  85368870.88848  20847944.868    20847951.241  
 126515048.49447  98583139.93347  24075009.399    24075014.895  
 114628114.10748  89320576.65648  21813003.117    21813008.978  
 119772487.51548  93329172.45947  22791944.055    22791948.203  
 129491800.58447 100902687.04046  24641467.027    24641471.603  
 01 03 04 00 02 40.0000000  0 10 28 03 25 29 20 22 13 01 31 19
 111601298.84748  86962022.21948  21237011.655    21237018.799  
 107824476.07748  84019053.13149  20518312.973    20518318.674  
 115912526.73848  90321440.41848  22057411.159    22057416.012  
 128225150.68557                                  24400435.428  
 125554049.96147  97834285.90547  23892148.768    23892153.064  
 109564902.02448  85375223.48148  20849496.236    20849502.609  
 126499149.27547  98570750.95547  24071983.853    24071989.351  
 114616794.01248  89311755.79148  21810848.987    21810854.848  
 119754699.84848  93315311.96047  22788559.148    22788563.310  
 129478890.46847 100892627.19746  24639010.311    24639014.901  
 01 03 04 00 02 45.0000000  0 10 28 03 25 29 20 22 13 01 31 19
 111600912.14348  86961720.88748  21236938.067    21236945.223  
 107817248.13149  84013420.96649  20516937.540    20516943.242  
 115917288.51548  90325150.89348  22058317.295    22058322.148  
 128243388.40946                                  24403905.785  
 125562091.63447  97840552.11747  23893679.071    23893683.368  
 109573058.57748  85381579.22448  20851048.388    20851054.749  
 126483255.71447  98558366.38447  24068959.384    24068964.883  
 114605484.92548  89302943.53648  21808696.914    21808702.776  
 119736917.41648  93301455.50548  22785175.276    22785179.438  
 129465976.96947 100882564.77446  24636552.918    24636557.509  
 01 03 04 00 02 50.0000000  0 10 28 03 25 29 20 22 13 01 31 19
 111600531.97648  86961424.66348  21236865.711    21236872.868  
 107810034.93149  84007800.28949  20515564.914    20515570.616  
 115922057.27648  90328866.78448  22059224.784    22059229.625  
 128261628.50946                                  24407376.677  
 125570138.76647  97846822.55547  23895210.437    23895214.733  
 109581219.56048  85387938.41448  20852601.398    20852607.757  
 126467368.25247  98545986.51847  24065936.140    24065941.623  
 114594187.28348  89294140.16948  21806547.057    21806552.918  
 119719140.69248  93287603.49547  22781792.504    22781796.652  
 129453060.51647 100872499.97946  24634095.023    24634099.589  
 01 03 04 00 02 55.0000000  0 10 28 03 25 29 20 22 13 01 31 19
 111600159.33248  86961134.29548  21236794.800    21236801.956  
 107802837.50648  84002191.88649  20514195.315    20514201.003  
 115926834.06448  90332588.96248  22060133.778    22060138.618  
 128279871.94847                                  24410848.027  
 125578192.35347  97853098.07947  23896742.985    23896747.280  
 109589386.01648  85394301.88748  20854155.423    20854161.781  
 126451487.94347  98533612.22547  24062914.257    24062919.713  
 114582902.10948  89285346.51448  21804399.572    21804405.433  
 119701370.68448  93273756.75347  22778410.958    22778415.120  
 129440142.07046 100862433.64646  24631636.752    24631641.291  
 01 03 04 00 03  0.0000000  0 10 28 03 25 29 20 22 13 01 31 19
 111599793.17848  86960848.98848  21236725.110    21236732.279  
 107795654.81648  83996594.98849  20512828.480    20512834.183  
 115931617.83348  90336316.53948  22061044.121    22061048.950  
 128298117.80847                                  24414320.003  
 125586251.40347  97859377.85547  23898276.570    23898280.878  
 109597556.87448  85400668.78748  20855710.285    20855716.644  
 126435613.73347  98521242.72947  24059893.485    24059898.939  
 114571628.38948  89276561.78148  21802254.266    21802260.127  
 119683606.36148  93259914.41647  22775030.533    22775034.681  
 129427220.65447 100852364.94746  24629177.934    24629182.451  
 01 03 04 00 03  5.0000000  0 10 28 03 25 29 20 22 13 01 31 19
 111599433.93148  86960569.04648  21236656.760    21236663.917  
 107788487.31448  83991009.92449  20511464.550    20511470.252  
 115936409.04948  90340049.93548  22061955.885    22061960.712  
 128316366.35846  99986780.41356  24417792.679    24417791.719  
 125594316.26147  97865662.10747  23899811.310    23899815.617  
 109605732.59048  85407039.45348  20857266.098    20857272.455  
 126419746.05847  98508878.32947  24056873.941    24056879.409  
 114560366.54248  89267786.33148  21800111.196    21800117.057  
 119665848.13248  93246076.83147  22771651.253    22771655.403  
 129414296.64747 100842294.34347  24626718.529    24626723.047  
 01 03 04 00 03 10.0000000  0 10 28 03 25 29 20 22 13 01 31 19
 111599081.85648  86960294.70348  21236589.763    21236596.919  
 107781335.29348  83985436.92149  20510103.566    20510109.268  
 115941207.98348  90343789.36048  22062869.091    22062873.919  
 128334618.01746 100001002.39346  24421266.320    24421264.692  
 125602387.21047  97871951.20147  23901347.109    23901351.444  
 109613913.41548  85413414.11948  20858822.856    20858829.214  
 126403885.19647  98496519.21147  24053855.719    24053861.188  
 114549116.87448  89259020.35348  21797970.455    21797976.328  
 119648096.32648  93232244.27747  22768273.172    22768277.335  
 129401370.41447 100832221.96746  24624258.752    24624263.254  
 01 03 04 00 03 15.0000000  0 10 28 03 25 29 20 22 13 01 31 19
 111598736.39848  86960025.50948  21236524.023    21236531.193  
 107774198.19248  83979875.55049  20508745.407    20508751.111  
 115946014.10648  90347534.39548  22063783.666    22063788.494  
 128352872.09246 100015226.25046  24424740.343    24424738.755  
 125610463.70047  97878244.49347  23902884.087    23902888.408  
 109622098.77248  85419792.30548  20860380.490    20860386.848  
 126388030.63447  98484164.96547  24050838.731    24050844.188  
 114537878.83348  89250263.43148  21795831.940    21795837.800  
 119630350.39148  93218416.28047  22764896.218    22764900.395  
 129388441.32147 100822147.29947  24621798.476    24621802.965  
 01 03 04 00 03 20.0000000  0 10 28 03 25 29 20 22 13 01 31 19
 111598397.20348  86959761.19748  21236459.491    21236466.646  
 107767075.66948  83974325.53749  20507390.037    20507395.740  
 115950827.03948  90351284.69348  22064699.573    22064704.400  
 128371128.23647 100029451.76246  24428214.740    24428213.009  
 125618545.35147  97884541.83047  23904422.038    23904426.331  
 109630288.30548  85426173.75148  20861938.919    20861945.276  
 126372182.00547  98471815.37347  24047822.850    24047828.306  
 114526652.07548  89241515.30448  21793695.558    21793701.419  
 119612609.99848  93204592.58747  22761520.347    22761524.511  
 129375509.04347 100812070.16946  24619337.569    24619342.059  
 01 03 04 00 03 25.0000000  0 10 28 03 25 29 20 22 13 01 31 19
 111597910.89248  86959382.25548  21236366.934    21236374.104  
 107759814.36848  83968667.36849  20506008.270    20506013.960  
 115955493.42148  90354920.82448  22065587.569    22065592.395  
 128389233.18646 100043559.51946  24431660.029    24431658.493  
 125626478.76047  97890723.70047  23905931.729    23905936.021  
 109638328.65048  85432438.94948  20863468.960    20863475.303  
 126356186.00447  98459350.98647  24044778.889    24044784.345  
 114515283.23648  89232656.47948  21791532.127    21791538.001  
 119594721.77548  93190653.72147  22758116.318    22758120.495  
 129362420.22847 100801871.11846  24616846.826    24616851.316  
 01 03 04 00 03 30.0000000  0 10 28 03 25 29 20 22 13 01 31 19
 111597585.28448  86959128.53548  21236304.973    21236312.143  
 107752722.09948  83963140.92949  20504658.657    20504664.346  
 115960321.10648  90358682.63848  22066506.273    22066511.097  
 128407494.56547 100057788.98446  24435135.040    24435133.839  
 125634571.78247  97897029.90347  23907471.829    23907476.107  
 109646527.60848  85438827.74148  20865029.168    20865035.524  
 126340350.41847  98447011.62647  24041765.415    24041770.886  
 114504080.16048  89223926.80148  21789400.266    21789406.127  
 119576993.54448  93176839.52848  22754742.736    22754746.913  
 129349482.69247 100791789.88346  24614384.915    24614389.420  
 01 03 04 00 03 35.0000000  0 10 28 03 25 29 20 22 13 01 31 19
 111597265.76548  86958879.54248  21236244.182    21236251.353  
 107745644.29548  83957625.75549  20503311.795    20503317.485  
 115965155.50648  90362449.67848  22067426.253    22067431.076  
 128425757.96046 100072020.14946  24438610.421    24438609.402  
 125642669.79747  97903340.02747  23909012.841    23909017.132  
 109654730.57749  85445219.65748  20866590.154    20866596.497  
 126324520.69447  98434676.75047  24038753.143    24038758.613  
 114492888.27548  89215205.85348  21787270.522    21787276.382  
 119559270.75948  93163029.53648  22751370.225    22751374.415  
 129336541.86847 100781706.15247  24611922.335    24611926.852  
 01 03 04 00 03 40.0000000  0 10 28 03 25 29 20 22 13 01 31 19
 111596952.89548  86958635.76448  21236184.633    21236191.804  
 107738581.50148  83952122.25949  20501967.801    20501973.492  
 115969997.15348  90366222.39748  22068347.574    22068352.411  
 128444023.76246 100086253.23446  24442086.347    24442085.340  
 125650773.29447  97909654.39547  23910554.935    23910559.200  
 109662938.10748  85451615.11948  20868152.007    20868158.350  
 126308697.37847  98422346.91147  24035742.055    24035747.524  
 114481708.13048  89206494.04648  21785143.009    21785148.883  
 119541553.97948  93149224.27347  22747998.824    22748003.012  
 129323598.27747 100771620.14347  24609459.351    24609463.839  
 01 03 04 00 03 45.0000000  0 10 28 03 25 29 20 22 13 01 31 19
 111596492.20648  86958276.76348  21236096.977    21236104.149  
 107731379.25648  83946510.13549  20500597.247    20500602.938  
 115974691.57648  90369880.36848  22069240.919    22069245.742  
 128462137.57647 100100367.75946  24445533.319    24445532.308  
 125658727.85547  97915852.76647  23912068.625    23912072.903  
 109670995.69648  85457893.75948  20869685.315    20869691.670  
 126292726.02047  98409901.68547  24032702.834    24032708.276  
 114470385.25848  89197671.02848  21782988.338    21782994.212  
 119523688.75148  93135303.32247  22744599.170    22744603.372  
 129310497.45047 100761411.79646  24606966.261    24606970.764  
 01 03 04 00 03 50.0000000  0 10 28 03 25 29 20 22 13 01 31 19
 111596192.94348  86958043.56548  21236040.043    21236047.213  
 107724346.84148  83941030.32349  20499259.037    20499264.726  
 115979548.07248  90373664.63948  22070165.092    22070169.914  
 128480408.61946 100114604.87146  24449010.167    24449009.196  
 125666842.72747  97922176.04947  23913612.820    23913617.111  
 109679212.61148  85464296.52748  20871248.982    20871255.309  
 126276915.94747  98397582.13047  24029694.303    24029699.731  
 114459228.96048  89188977.80048  21780865.378    21780871.239  
 119505984.34448  93121507.69247  22741230.121    22741234.324  
 129297548.66747 100751321.78846  24604502.239    24604506.728  
 01 03 04 00 03 55.0000000  0 10 28 03 25 29 20 22 13 01 31 19
 111595900.28148  86957815.53348  21235984.340    21235991.498  
 107717329.41848  83935562.19849  20497923.665    20497929.355  
 115984411.82048  90377454.55348  22071090.642    22071095.467  
 128498682.01346 100128843.78546  24452487.578    24452486.507  
 125674963.05147  97928503.47547  23915158.149    23915162.429  
 109687434.01048  85470702.81048  20872813.462    20872819.801  
 126261112.23347  98385267.56847  24026686.946    24026692.372  
 114448084.39848  89180293.71548  21778744.651    21778750.511  
 119488285.93048  93107716.71348  22737862.223    22737866.439  
 129284597.10146 100741229.61846  24602037.674    24602042.163  
 01 03 04 00 04  0.0000000  0 10 28 03 25 29 20 22 13 01 31 19
 111595768.44648  86957712.79448  21235959.250    21235966.422  
 107710481.24148  83930225.95649  20496620.500    20496626.190  
 115989437.00048  90381370.27048  22072046.916    22072051.739  
 128517112.10246 100143204.81346  24455994.809    24455993.601  
 125683243.05447  97934955.42947  23916733.782    23916738.061  
 109695814.13648  85477232.77248  20874408.160    20874414.486  
 126245469.19347  98373078.17847  24023710.188    24023715.613  
 114437105.81948  89171738.98148  21776655.498    21776661.357  
 119470747.75148  93094050.59948  22734524.818    22734529.035  
 129271797.00647 100731255.52246  24599601.898    24599606.374  
 01 03 04 00 04  5.0000000  0 10 28 03 25 29 20 22 13 01 31 19
 111595489.37748  86957495.32548  21235906.157    21235913.329  
 107703494.29749  83924781.59049  20495290.915    20495296.619  
 115994315.61948  90385171.78348  22072975.299    22072980.121  
 128535390.79847 100157447.90446  24459473.255    24459471.897  
 125691374.69847  97941291.75747  23918281.194    23918285.473  
 109704044.91148  85483646.35248  20875974.437    20875980.763  
 126229678.80947  98360773.96447  24020705.404    24020710.826  
 114425985.22148  89163073.58948  21774539.306    21774545.166  
 119453061.82148  93080269.37347  22731159.272    22731163.502  
 129258840.30947 100721159.39047  24597136.319    24597140.808  
 01 03 04 00 04 10.0000000  0 10 28 03 25 29 20 22 13 01 31 19
 111595216.41948  86957282.61048  21235854.240    21235861.399  
 107696521.91148  83919348.55649  20493964.128    20493969.818  
 115999201.06548  90388978.61148  22073904.966    22073909.802  
 128553671.32346 100171692.32646  24462952.224    24462950.684  
 125699511.26147  97947631.90447  23919829.568    23919833.834  
 109712279.67548  85490063.05348  20877541.461    20877547.786  
 126213894.37347  98348474.39947  24017701.740    24017707.160  
 114414875.92948  89154416.99048  21772425.291    21772431.150  
 119435381.46048  93066492.47448  22727794.812    22727799.041  
 129245880.37047 100711060.77747  24594670.089    24594674.566  
 01 03 04 00 04 15.0000000  0 10 28 03 25 29 20 22 13 01 31 19
 111594796.41448  86956955.35148  21235774.290    21235781.451  
 107689410.96448  83913807.56049  20492610.960    20492616.650  
 116003940.14848  90392671.41048  22074806.785    22074811.608  
 128571800.63846 100185818.98546  24466402.343    24466400.673  
 125707499.60647  97953856.58947  23921349.684    23921353.965  
 109720365.29048  85496363.51548  20879080.129    20879086.439  
 126197962.78447  98336060.18347  24014670.061    24014675.467  
 114403624.82948  89145649.89448  21770284.276    21770290.137  
 119417553.55248  93052600.61848  22724402.249    22724406.491  
 129232764.02947 100700840.16546  24592174.218    24592178.681  
 01 03 04 00 04 20.0000000  0 10 28 03 25 29 20 22 13 01 31 19
 111594537.68148  86956753.72548  21235725.081    21235732.227  
 107682469.75948  83908398.82549  20491290.091    20491295.782  
 116008841.22248  90396490.40648  22075739.453    22075744.263  
 128590086.90547 100200068.05946  24469882.188    24469880.422  
 125715648.06747  97960205.98947  23922900.349    23922904.602  
 109728610.05248  85502787.99648  20880649.068    20880655.377  
 126182192.43547  98323771.59847  24011669.063    24011674.482  
 114392540.25048  89137012.56048  21768174.951    21768180.811  
 119399886.40948  93038834.01148  22721040.318    22721044.558  
 129219799.67247 100690738.07047  24589707.199    24589711.646  
 01 03 04 00 04 25.0000000  0 10 28 03 25 29 20 22 13 01 31 19
 111594438.77048  86956676.64448  21235706.257    21235713.405  
 107675696.83848  83903121.22749  20490001.248    20490006.939  
 116013902.79248  90400434.46448  22076702.648    22076707.471  
 128608528.82646 100214438.17846  24473391.900    24473390.005  
 125723955.16747  97966679.01247  23924481.173    23924485.426  
 109737012.49748  85509335.34848  20882247.998    20882254.309  
 126166581.86347  98311607.53447  24008698.444    24008703.865  
 114381620.72148  89128503.82148  21766097.046    21766102.906  
 119382378.61548  93025191.56747  22717708.694    22717712.935  
 129206985.76947 100680753.17447  24587268.846    24587273.265  
 01 03 04 00 04 30.0000000  0 10 28 03 25 29 20 22 13 01 31 19
 111594192.11748  86956484.47148  21235659.296    21235666.457  
 107668784.67349  83897735.10749  20488685.918    20488691.609  
 116018817.35648  90404263.98848  22077637.872    22077642.682  
 128626818.68646 100228690.09546  24476872.379    24476870.438  
 125732113.32147  97973036.02347  23926033.605    23926037.871  
 109745265.06049  85515765.91448  20883818.423    20883824.732  
 126150823.52647  98299328.34047  24005699.709    24005705.141  
 114370558.71048  89119884.08548  21763992.018    21763997.863  
 119364722.64948  93011433.65447  22714348.902    22714353.129  
 129194014.84747 100670645.99047  24584800.538    24584804.968  
 01 03 04 00 04 35.0000000  0 10 28 03 25 29 20 22 13 01 31 19
 111593952.17848  86956297.48348  21235613.662    21235620.810  
 107661887.74149  83892360.88149  20487373.462    20487379.155  
 116023739.38548  90408099.30748  22078574.527    22078579.337  
 128645111.21347 100242943.85746  24480353.583    24480351.497  
 125740277.03547  97979397.32547  23927587.130    23927591.398  
 109753522.27148  85522200.08848  20885389.730    20885396.039  
 126135071.90247  98287054.28747  24002702.352    24002707.754  
 114359508.72348  89111273.70748  21761889.276    21761895.121  
 119347072.94948  92997680.67448  22710990.237    22710994.479  
 129181041.30547 100660536.72147  24582331.782    24582336.197  
 01 03 04 00 04 40.0000000  0 10 28 03 25 29 20 22 13 01 31 19
 111593718.55648  86956115.42448  21235569.217    21235576.365  
 107655005.65248  83886998.21249  20486063.858    20486069.537  
 116028668.43948  90411940.11748  22079512.507    22079517.316  
 128663405.66846 100257199.29846  24483834.892    24483832.852  
 125748445.82347  97985762.59247  23929141.609    23929145.890  
 109761783.63248  85528637.51648  20886961.815    20886968.123  
 126119326.57447  98274785.19647  23999706.114    23999711.518  
 114348470.35248  89102672.36448  21759788.755    21759794.600  
 119329429.13748  92983932.25848  22707632.719    22707636.973  
 129168064.77347 100650425.12247  24579862.457    24579866.869  
 01 03 04 00 04 45.0000000  0 10 28 03 25 29 20 22 13 01 31 19
 111593337.70948  86955818.66948  21235496.731    21235503.880  
 107647984.83149  83881527.43749  20484727.839    20484733.519  
 116033450.99248  90415666.77948  22080422.596    22080427.406  
 128681548.64247 100271336.54546  24487287.474    24487285.452  
 125756466.13747  97992012.10647  23930667.896    23930672.165  
 109769895.62248  85534958.53048  20888505.487    20888511.796  
 126103434.00847  98262401.37747  23996681.859    23996687.275  
 114337290.04348  89093960.43048  21757661.212    21757667.058  
 119311637.66948  92970068.76048  22704247.141    22704251.381  
 129154931.69546 100640191.57347  24577363.304    24577367.716  
 01 03 04 00 04 50.0000000  0 10 28 03 25 29 20 22 13 01 31 19
 111593116.43048  86955646.23548  21235454.636    21235461.784  
 107641132.14548  83876187.68449  20483423.817    20483429.496  
 116038393.86948  90419518.35348  22081363.205    22081368.016  
 128699847.02246 100285594.82846  24490769.661    24490767.708  
 125764644.80547  97998385.11047  23932224.233    23932228.502  
 109778165.07248  85541402.24148  20890079.137    20890085.432  
 126087701.03147  98250141.93447  23993687.948    23993693.377  
 114326274.63448  89085376.99848  21755565.050    21755570.884  
 119294005.42448  92956329.34948  22700891.837    22700896.076  
 129141948.93247 100630075.11147  24574892.807    24574897.202  
 01 03 04 00 04 55.0000000  0 10 28 03 25 29 20 22 13 01 31 19
 111592747.52748  86955358.77948  21235384.436    21235391.584  
 107634140.41048  83870739.58249  20482093.335    20482099.013  
 116043189.88648  90423255.49048  22082275.882    22082280.668  
 128717993.42347 100299734.89346  24494222.733    24494220.830  
 125772674.59847  98004642.04847  23933752.287    23933756.556  
 109786284.81948  85547729.33048  20891624.262    20891630.556  
 126071820.44847  98237767.43047  23990665.998    23990671.415  
 114315116.96648  89076682.72048  21753441.803    21753447.650  
 119276225.18348  92942474.63448  22697508.344    22697512.585  
 129128809.25547 100619836.38847  24572392.421    24572396.816  
 01 03 04 00 05  0.0000000  0 10 28 03 25 29 20 22 13 01 31 19
 111592540.18948  86955197.21948  21235344.982    21235352.129  
 107627318.78449  83865424.01749  20480795.235    20480800.913  
 116048148.25748  90427119.15548  22083219.429    22083224.214  
 128736297.12646 100313997.43546  24497705.913    24497704.039  
 125780864.71247  98011023.98747  23935310.791    23935315.059  
 109794563.95548  85554180.57548  20893199.752    20893206.035  
 126056101.47747  98225518.90447  23987674.752    23987680.182  
 114304126.20548  89068118.46948  21751350.356    21751356.190  
 119258606.13848  92928745.50648  22694155.550    22694159.792  
 129115821.84747 100609716.31547  24569921.011    24569925.407  
 01 03 04 00 05  5.0000000  0 10 28 03 25 29 20 22 13 01 31 19
 111592493.38448  86955160.73248  21235336.087    21235343.222  
 107620666.28748  83860240.26349  20479529.294    20479534.973  
 116053267.97648  90431108.52148  22084193.703    22084198.488  
 128754757.08947 100328381.80246  24501218.753    24501216.913  
 125789214.15747  98017530.00447  23936899.673    23936903.941  
 109803001.53048  85560755.29748  20894805.382    20894811.664  
 126040543.09747  98213395.51347  23984714.066    23984719.497  
 114293301.38348  89059683.55548  21749290.449    21749296.283  
 119241147.33448  92915141.25148  22690833.252    22690837.492  
 129102985.74947 100599714.17747  24567478.372    24567482.767  
 01 03 04 00 05 10.0000000  0 10 28 03 25 29 20 22 13 01 31 19
 111592299.04948  86955009.29148  21235299.118    21235306.254  
 107613874.85048  83854948.23249  20478236.926    20478242.617  
 116058240.94948  90434983.53848  22085140.052    22085144.825  
 128773065.30546 100342647.83146  24504702.846    24504700.970  
 125797414.83947  98023920.11747  23938460.234    23938464.503  
 109811289.41048  85567213.37948  20896382.527    20896388.807  
 126024837.28847  98201157.19447  23981725.374    23981730.805  
 114282334.43348  89051137.84648  21747203.530    21747209.366  
 119223540.71848  92901421.81848  22687482.811    22687487.053  
 129089992.87747 100589589.87847  24565005.899    24565010.293  
 01 03 04 00 05 15.0000000  0 10 28 03 25 29 20 22 13 01 31 19
 111591957.34948  86954743.01348  21235234.121    21235241.242  
 107606944.69148  83849548.10449  20476918.159    20476923.852  
 116063067.42248  90438744.41648  22086058.513    22086063.273  
 128791221.90546 100356795.77946  24508158.026    24508156.103  
 125805466.92147  98030194.40447  23939992.571    23939996.811  
 109819427.84448  85573555.01648  20897931.219    20897937.500  
 126008984.25847  98188804.17347  23978708.655    23978714.085  
 114271225.57248  89042481.61448  21745089.559    21745095.396  
 119205786.46748  92887587.33648  22684104.289    22684108.531  
 129076843.42047 100579343.47847  24562503.715    24562508.094  
 01 03 04 00 05 20.0000000  0 10 28 03 25 29 20 22 13 01 31 19
 111591776.04948  86954601.73748  21235199.620    21235206.742  
 107600183.56248  83844279.69949  20475631.561    20475637.240  
 116068055.11848  90442630.90448  22087007.663    22087012.424  
 128809534.52147 100371065.32946  24511642.857    24511640.914  
 125813678.10947  98036592.74247  23941555.080    23941559.336  
 109827724.55048  85580019.98548  20899510.016    20899516.310  
 125993291.72147  98176576.24847  23975722.440    23975727.883  
 114260282.52348  89033954.55148  21743007.179    21743013.015  
 119188192.34248  92873877.62448  22680756.253    22680760.480  
 129063845.12847 100569214.90547  24560030.260    24560034.625  
 01 03 04 00 05 25.0000000  0 10 28 03 25 29 20 22 13 01 31 19
 111591755.71548  86954585.90648  21235195.739    21235202.873  
 107593592.08648  83839143.47949  20474377.244    20474382.935  
 116073204.65848  90446643.52848  22087987.587    22087992.348  
                                                                
 125822049.04547  98043115.48647  23943148.092    23943152.320  
 109836180.09748  85586608.69348  20901119.091    20901125.371  
 125977760.33247  98164473.88047  23972766.903    23972772.346  
 114249505.95048  89025557.21148  21740956.478    21740962.301  
 119170758.97948  92860293.19148  22677438.781    22677443.010  
 129050998.61647 100559204.66047  24557585.626    24557590.003  
 01 03 04 00 05 30.0000000  0 10 28 03 25 29 20 22 13 01 31 19
 111591588.11148  86954455.30548  21235163.845    21235170.979  
 107586861.99148  83833899.25449  20473096.551    20473102.229  
 116078207.78148  90450542.05048  22088939.661    22088944.423  
                                                                
 125830271.39647  98049522.51647  23944712.739    23944716.981  
 109844486.30948  85593081.06648  20902699.711    20902705.991  
 125962081.85747  98152256.85647  23969783.427    23969788.855  
 114238587.58848  89017049.40748  21738878.770    21738884.606  
 119153178.11048  92846593.82748  22674093.241    22674097.482  
 129037995.57147 100549072.39647  24555111.269    24555115.630  
 01 03 04 00 05 35.0000000  0 10 28 03 25 29 20 22 13 01 31 19
 111591427.02948  86954329.78748  21235133.192    21235140.326  
 107580147.09548  83828666.85249  20471818.760    20471824.439  
 116083218.27448  90454446.31848  22089893.138    22089897.888  
                                                                
 125838499.01247  98055933.62547  23946278.428    23946282.656  
 109852796.88448  85599556.83448  20904281.159    20904287.441  
 125946410.07047  98140045.09147  23966801.174    23966806.601  
 114227681.25948  89008550.94748  21736803.375    21736809.212  
 119135603.58248  92832899.38848  22670748.934    22670753.160  
 129024989.94847 100538938.17647  24552636.358    24552640.719  
 01 03 04 00 05 40.0000000  0 10 28 03 25 29 20 22 13 01 31 19
 111591272.35848  86954209.26148  21235103.758    21235110.893  
 107573447.29848  83823446.23049  20470543.831    20470549.510  
 116088236.05548  90458356.26948  22090848.004    22090852.740  
                                                                
 125846731.77547  98062348.72847  23947845.107    23947849.335  
 109861111.73648  85606035.92448  20905863.450    20905869.716  
 125930744.88947  98127838.43747  23963820.200    23963825.640  
 114216786.86448  89000061.81048  21734730.240    21734736.078  
 119118035.27248  92819209.81048  22667405.784    22667410.010  
 129011981.54047 100528801.75747  24550160.941    24550165.301  
 01 03 04 00 05 45.0000000  0 10 28 03 25 29 20 22 13 01 31 19
 111590970.14748  86953973.75248  21235046.275    21235053.408  
 107566608.64848  83818117.41549  20469242.480    20469248.158  
 116093107.19048  90462151.93748  22091774.975    22091779.710  
                                                                
 125854815.70747  98068647.84747  23949383.477    23949387.691  
 109869276.93848  85612398.41148  20907417.234    20907423.515  
 125914932.45947  98115517.03847  23960811.219    23960816.658  
 114205750.46548  88991462.00248  21732630.095    21732635.933  
 119100319.27848  92805405.13948  22664034.542    22664038.769  
 128998816.41247 100518543.14546  24547655.790    24547660.120  
 01 03 04 00 05 50.0000000  0 10 28 03 25 29 20 22 13 01 31 19
 111590674.37048  86953743.27048  21234990.004    21234997.123  
 107559785.12749  83812800.40749  20467943.981    20467949.673  
 116097985.65948  90465953.32748  22092703.329    22092708.064  
                                                                
 125862904.77547  98074951.02447  23950922.777    23950926.978  
 109877446.44748  85618764.25748  20908971.839    20908978.120  
 125899126.67047  98103200.83447  23957803.491    23957808.917  
 114194726.03448  88982871.55148  21730532.204    21730538.041  
 119082609.55448  92791605.33448  22660664.504    22660668.732  
 128985648.54447 100508282.49446  24545150.004    24545154.334  
 01 03 04 00 05 55.0000000  0 10 28 03 25 29 20 22 13 01 31 19
 111590539.03748  86953637.82448  21234964.238    21234971.370  
 107553130.78748  83807615.18749  20466677.728    20466683.406  
 116103025.48548  90469880.46948  22093662.377    22093667.099  
                                                                
 125871152.96547  98081378.14947  23952492.393    23952496.592  
 109885774.29349  85625253.46448  20910556.600    20910562.881  
 125883481.58747  98091009.86647  23954826.317    23954831.757  
 114183867.63348  88974410.43448  21728465.943    21728471.768  
 119065060.17348  92777930.52248  22657324.945    22657329.172  
 128972631.99946 100498139.71647  24542673.065    24542677.368  
 01 03 04 00 06  0.0000000  0 10 28 03 25 29 20 22 13 01 31 19
 111590564.24048  86953657.46148  21234969.034    21234976.166  
 107546645.68348  83802561.85749  20465443.653    20465449.332  
 116108226.74548  90473933.37348  22094652.168    22094656.889  
                                                                
 125879560.36247  98087929.34247  23954092.292    23954096.479  
 109894260.49448  85631866.09948  20912171.457    20912177.739  
 125867997.28747  98078944.20647  23951879.729    23951885.169  
 114173175.35148  88966078.78148  21726431.268    21726437.107  
 119047671.20148  92764380.67948  22654015.920    22654020.149  
 128959766.85047 100488114.95147  24540224.884    24540229.199  
 01 03 04 00 06  5.0000000  0 10 28 03 25 29 20 22 13 01 31 19
 111590441.94248  86953562.15748  21234945.775    21234952.894  
 107540021.83248  83797400.41949  20464183.178    20464188.855  
 116113281.39848  90477872.06348  22095614.036    22095618.758  
                                                                
 125887818.97847  98094364.60047  23955663.893    23955668.065  
 109902597.01648  85638362.07648  20913757.857    20913764.138  
 125852365.82947  98066763.86947  23948905.136    23948910.589  
 114162341.15948  88957636.56548  21724369.577    21724375.417  
 119030134.63348  92750715.80148  22650678.847    22650683.063  
 128946745.06747 100477968.05647  24537746.970    24537751.272  
 01 03 04 00 06 10.0000000  0 10 28 03 25 29 20 22 13 01 31 19
 111590326.20948  86953471.96948  21234923.765    21234930.870  
 107533413.31648  83792250.91749  20462925.632    20462931.296  
 116118343.57948  90481816.59248  22096577.361    22096582.083  
                                                                
 125896082.85547  98100803.92647  23957236.503    23957240.664  
 109910937.99248  85644861.52248  20915345.118    20915351.385  
 125836741.31647  98054588.92447  23945931.875    23945937.343  
 114151519.16348  88949203.84348  21722310.221    21722316.059  
 119012604.58348  92737056.03648  22647342.978    22647347.193  
 128933720.72747 100467819.26747  24535268.471    24535272.787  
 01 03 04 00 06 15.0000000  0 10 28 03 25 29 20 22 13 01 31 19
 111590217.11648  86953386.94848  21234903.017    21234910.123  
 107526820.24548  83787113.46449  20461670.998    20461676.677  
 116123413.36348  90485767.05148  22097542.134    22097546.854  
                                                                
 125904352.06247  98107247.43247  23958810.104    23958814.265  
 109919283.47648  85651364.49848  20916933.196    20916939.478  
 125821123.80047  98042419.41547  23942959.971    23942965.440  
 114140709.43948  88940780.65548  21720253.223    21720259.049  
 118995081.13348  92723401.41048  22644008.364    22644012.592  
 128920693.93147 100457668.49947  24532789.565    24532793.882  
 01 03 04 00 06 20.0000000  0 10 28 03 25 29 20 22 13 01 31 19
 111589960.24848  86953186.79248  21234854.137    21234861.242  
 107520088.15548  83781867.67149  20460389.937    20460395.603  
 116128336.29848  90489603.07448  22098478.960    22098483.681  
 129029301.85856                                  24553462.734  
 125912472.15447  98113574.79547  23960355.280    23960359.456  
 109927479.00748  85657750.61848  20918492.767    20918499.048  
 125805358.85747  98030135.05947  23939959.991    23939965.460  
 114129757.59448  88932246.75048  21718169.156    21718174.982  
 118977409.89848  92709631.62148  22640645.640    22640649.856  
 128907510.24047 100447395.49747  24530280.793    24530285.109  
 01 03 04 00 06 25.0000000  0 10 28 03 25 29 20 22 13 01 31 19
 111589863.41848  86953111.33348  21234835.724    21234842.828  
 107513524.92448  83776753.48149  20459140.985    20459146.649  
 116133420.26248  90493564.60848  22099446.392    22099451.128  
                                                                
 125920750.94347  98120025.78247  23961930.692    23961934.869  
 109935832.45448  85664259.78248  20920082.387    20920088.668  
 125789754.35847  98017975.68047  23936990.577    23936996.046  
 114118971.47248  88923841.99548  21716116.614    21716122.439  
 118959898.70048  92695986.53548  22637313.371    22637317.586  
 128894477.49447 100437240.09747  24527800.771    24527805.072  
 01 03 04 00 06 30.0000000  0 10 28 03 25 29 20 22 13 01 31 19
 111589772.50548  86953040.49448  21234818.425    21234825.516  
 107506976.43648  83771650.76749  20457894.850    20457900.514  
 116138511.17848  90497531.53848  22100415.188    22100419.909  
                                                                
 125929034.32447  98126480.32947  23963506.989    23963511.167  
 109944189.65048  85670771.88148  20921672.708    20921678.989  
 125774156.20947  98005821.31247  23934022.310    23934027.793  
 114108196.99048  88915446.28448  21714066.311    21714072.136  
 118942393.47548  92682346.11348  22633982.225    22633986.440  
 128881441.61147 100427082.25747  24525320.123    24525324.426  
 01 03 04 00 06 35.0000000  0 10 28 03 25 29 20 22 13 01 31 19
 111589533.94348  86952854.58848  21234773.040    21234780.131  
 107500289.11148  83766439.84749  20456622.305    20456627.970  
 116143455.41848  90501384.18848  22101356.044    22101360.778  
                                                                
 125937168.70847  98132818.76747  23965054.961    23965059.125  
 109952397.06248  85677167.25148  20923234.538    20923240.820  
 125758410.83047  97993552.17647  23931026.078    23931031.547  
 114097280.56948  88906939.97548  21711988.983    21711994.810  
 118924740.62048  92668590.66248  22630622.973    22630627.190  
 128868248.99647 100416802.28247  24522809.663    24522813.967  
 01 03 04 00 06 40.0000000  0 10 28 03 25 29 20 22 13 01 31 19
 111589610.81448  86952914.51048  21234787.643    21234794.747  
 107493926.04848  83761481.61549  20455411.454    20455417.119  
 116148716.09948  90505483.39948  22102357.144    22102361.864  
                                                                
 125945617.16247  98139401.93447  23966662.684    23966666.848  
 109960917.72648  85683806.74148  20924855.954    20924862.236  
 125742981.36147  97981529.23847  23928089.907    23928095.405  
 114086685.27648  88898683.91648  21709972.754    21709978.581  
 118907403.24748  92655081.01448  22627323.779    22627328.009  
 128855362.72447 100406761.08047  24520357.438    24520361.767  
 01 03 04 00 06 45.0000000  0 10 28 03 25 29 20 22 13 01 31 19
 111589540.00248  86952859.30848  21234774.193    21234781.284  
 107487424.13448  83756415.18949  20454174.181    20454179.846  
 116153830.12648  90509468.31148  22103330.346    22103335.067  
                                                                
 125953916.53047  98145868.95947  23968242.012    23968246.177  
 109969288.54048  85690329.43748  20926448.878    20926455.161  
 125727404.63747  97969391.50947  23925125.781    23925131.265  
 114075948.03848  88890317.23448  21707929.540    21707935.352  
 118889918.26948  92641456.33648  22623996.524    22624000.740  
 128842319.68647 100396597.63147  24517875.481    24517879.783  
 01 03 04 00 06 50.0000000  0 10 28 03 25 29 20 22 13 01 31 19
 111589475.22648  86952808.83448  21234761.866    21234768.957  
 107480937.12148  83751360.37449  20452939.744    20452945.408  
 116158951.25848  90513458.81448  22104304.852    22104309.586  
 129139403.94357                                  24574411.967  
 125962220.58747  98152339.65247  23969822.222    23969826.387  
 109977663.22748  85696855.15648  20928042.541    20928048.811  
 125711834.42147  97957258.84547  23922162.891    23922168.375  
 114065222.59748  88881959.74148  21705888.555    21705894.381  
 118872439.45148  92627836.50648  22620670.392    22620674.608  
 128829273.66347 100386431.87547  24515392.945    24515397.231  
 01 03 04 00 06 55.0000000  0 10 28 03 25 29 20 22 13 01 31 19
 111589263.10548  86952643.55448  21234721.488    21234728.592  
 107474311.64448  83746197.66449  20451678.957    20451684.622  
 116163926.08648  90517335.29848  22105251.544    22105256.264  
 129157603.56546                                  24577875.252  
 125970375.90647  98158694.42447  23971374.137    23971378.316  
 109985888.36948  85703264.33148  20929607.772    20929614.027  
 125696117.33347  97945011.79147  23919172.004    23919177.489  
 114054355.57248  88873491.91848  21703820.641    21703826.466  
 118854813.38448  92614101.91348  22617316.249    22617320.479  
 128816071.23247 100376144.24647  24512880.632    24512884.904  
 01 03 04 00 07  0.0000000  0 10 28 03 25 29 20 22 13 01 31 19
 111589211.58648  86952603.41048  21234711.700    21234718.788  
 107467855.64448  83741167.00349  20450450.433    20450456.098  
 116169062.56848  90521337.74048  22106228.997    22106233.716  
 129175959.41747                                  24581368.266  
 125978690.44347  98165173.22747  23972956.404    23972960.567  
 109994271.99748  85709797.04048  20931203.111    20931209.367  
 125680561.41547  97932890.31647  23916211.801    23916217.284  
 114043654.96048  88865153.77148  21701784.396    21701790.208  
 118837348.03448  92600492.55748  22613992.705    22613996.933  
 128803020.39447 100365974.79047  24510397.116    24510401.388  
 01 03 04 00 07  5.0000000  0 10 28 03 25 29 20 22 13 01 31 19
 111589012.57548  86952448.32048  21234673.841    21234680.930  
 107461261.00148  83736028.32449  20449195.516    20449201.179  
 116174052.59048  90525226.05948  22107178.579    22107183.286  
                                                                
 125986856.09247  98171536.03047  23974510.311    23974514.474  
 110002505.97048  85716213.11048  20932769.996    20932776.240  
 125664858.51047  97920654.24547  23913223.673    23913229.156  
 114032812.64648  88856705.21648  21699721.172    21699726.984  
 118819735.33748  92586768.36648  22610641.133    22610645.349  
 128789813.01447 100355683.29547  24507883.874    24507888.143  
 01 03 04 00 07 10.0000000  0 10 28 03 25 29 20 22 13 01 31 19
 111589127.97548  86952538.24748  21234695.801    21234702.890  
 107454989.70948  83731141.60049  20448002.128    20448007.792  
 116179358.15648  90529360.25448  22108188.192    22108192.901  
                                                                
 125995334.76347  98178142.76347  23976123.758    23976127.936  
 110011052.18348  85722872.50348  20934396.273    20934402.530  
 125649470.57847  97908663.69347  23910295.397    23910300.895  
 114022290.60248  88848506.22248  21697718.894    21697724.706  
 118802437.24948  92573289.31848  22607349.427    22607353.656  
 128776911.05547 100345629.84347  24505428.688    24505432.958  
 01 03 04 00 07 15.0000000  0 10 28 03 25 29 20 22 13 01 31 19
 111589094.72748  86952512.33748  21234689.474    21234696.563  
 107448578.67848  83726146.00149  20446782.151    20446787.802  
 116184516.17248  90533379.46148  22109169.769    22109174.463  
                                                                
 126003663.38547  98184632.57447  23977708.666    23977712.832  
 110019447.55748  85729414.32448  20935993.883    20936000.140  
 125633934.58247  97896557.67747  23907339.046    23907344.517  
 114011625.75748  88840195.94648  21695689.440    21695695.253  
 118784990.73048  92559694.67948  22604029.416    22604033.658  
 128763851.44246 100335453.52447  24502943.527    24502947.796  
 01 03 04 00 07 20.0000000  0 10 28 03 25 29 20 22 13 01 31 19
 111588914.04748  86952371.53248  21234655.103    21234662.192  
 107442029.14948  83721042.47849  20445535.804    20445541.468  
 116189527.87648  90537284.66048  22110123.489    22110128.182  
                                                                
 126011843.16647  98191006.41747  23979265.239    23979269.404  
 110027693.37148  85735839.63448  20937563.009    20937569.267  
 125618251.72747  97884337.31847  23904354.648    23904360.133  
 114000819.32348  88831775.34248  21693633.058    21693638.869  
 118767396.98148  92545985.27048  22600681.439    22600685.667  
 128750635.40147 100325155.23847  24500428.672    24500432.927  
 01 03 04 00 07 25.0000000  0 10 28 03 25 29 20 22 13 01 31 19
 111588894.43348  86952356.26148  21234651.359    21234658.448  
 107435649.62548  83716071.40849  20444321.833    20444327.497  
 116194701.78948  90541316.26548  22111108.064    22111112.757  
                                                                
 126020182.57047  98197504.59847  23980852.222    23980856.375  
 110036098.09748  85742388.76348  20939162.389    20939168.633  
 125602730.56347  97872242.87547  23901401.092    23901406.577  
 113990179.81548  88823484.81048  21691608.441    21691614.238  
 118749964.49848  92532401.49348  22597364.172    22597368.399  
 128737571.42747 100314975.56547  24497942.630    24497946.900  
 01 03 04 00 07 30.0000000  0 10 28 03 25 29 20 22 13 01 31 19
 111588881.15848  86952345.90148  21234648.859    21234655.934  
 107429285.38448  83711112.25849  20443110.773    20443116.422  
 116199883.13548  90545353.66248  22112094.052    22112098.746  
                                                                
 126028526.87147  98204006.60647  23982440.140    23982444.279  
 110044506.96348  85748941.11948  20940762.541    20940768.798  
 125587216.35247  97860153.86947  23898448.848    23898454.333  
 113979552.55148  88815203.82548  21689586.139    21689591.937  
 118732538.62448  92518822.92048  22594048.100    22594052.342  
 128724504.79647 100304793.79046  24495456.122    24495460.391  
 01 03 04 00 07 35.0000000  0 10 28 03 25 29 20 22 13 01 31 19
 111588720.45548  86952220.68448  21234618.265    21234625.353  
 107422782.66948  83706045.19449  20441873.360    20441879.008  
 116204918.17948  90549277.07848  22113052.191    22113056.872  
                                                                
 126036722.29547  98210392.70047  23983999.629    23984003.781  
 110052766.26548  85755376.92948  20942334.247    20942340.491  
 125571555.34647  97847950.49747  23895468.645    23895474.143  
 113968783.76948  88806812.55548  21687536.921    21687542.717  
 118714965.60448  92505129.66148  22590704.066    22590708.308  
 128711281.76047 100294490.03346  24492939.946    24492944.214  
 01 03 04 00 07 40.0000000  0 10 28 03 25 29 20 22 13 01 31 19
 111588873.61348  86952340.02648  21234647.409    21234654.498  
 107416602.80548  83701229.72849  20440697.358    20440703.007  
 116210268.19848  90553445.88848  22114070.303    22114074.970  
 129322721.96657                                  24609295.192  
 126045230.14847  98217022.12747  23985618.694    23985622.831  
 110061337.26649  85762055.62148  20943965.252    20943971.511  
 125556208.85447  97835992.15447  23892548.341    23892553.826  
 113958334.79648  88798670.48948  21685548.545    21685554.344  
 118697706.75548  92491681.20948  22587419.817    22587424.058  
 128698363.64747 100284423.94446  24490481.734    24490485.990  
 01 03 04 00 07 45.0000000  0 10 28 03 25 29 20 22 13 01 31 19
 111588724.70648  86952223.99848  21234619.074    21234626.162  
 107410129.91248  83696185.91049  20439465.607    20439471.257  
 116215317.29348  90557380.23848  22115031.126    22115035.793  
 129340940.79346                                  24612762.631  
 126053434.52147  98223415.11447  23987179.957    23987184.095  
 110069604.07649  85768497.29148  20945538.373    20945544.632  
 125540560.99947  97823799.03347  23889570.626    23889576.127  
 113947589.73148  88790297.72548  21683503.815    21683509.614  
 118680146.17348  92477997.62648  22584078.162    22584082.402  
 128685134.54346 100274115.58547  24487964.297    24487968.552  
 01 03 04 00 07 50.0000000  0 10 28 03 25 29 20 22 13 01 31 19
 111588736.69548  86952233.33548  21234621.369    21234628.455  
 107403826.94148  83691274.50049  20438266.205    20438271.841  
 116220528.49848  90561440.90448  22116022.798    22116027.464  
 129359316.07947                                  24616259.236  
 126061798.29747  98229932.32647  23988771.557    23988775.680  
 110078029.59548  85775062.63448  20947141.697    20947147.943  
 125525074.78747  97811731.88547  23886623.675    23886629.187  
 113937011.53548  88782054.96048  21681490.863    21681496.662  
 118662746.81248  92464439.71048  22580767.134    22580771.390  
 128672057.39247 100263925.58347  24485475.810    24485480.065  
 01 03 04 00 07 55.0000000  0 10 28 03 25 29 20 22 13 01 31 19
 111588755.57548  86952248.03048  21234624.973    21234632.060  
 107397539.85148  83686375.47349  20437069.798    20437075.448  
 116225747.79248  90565507.87748  22117016.009    22117020.663  
 129377693.79946                                  24619756.579  
 126070167.47447  98236453.74647  23990364.170    23990368.293  
 110086459.82848  85781631.62148  20948745.941    20948752.187  
 125509596.17747  97799670.63147  23883678.194    23883683.705  
 113926446.18748  88773822.22548  21679480.345    21679486.143  
 118645354.67048  92450887.39748  22577457.521    22577461.775  
 128658978.17047 100253733.99346  24482986.889    24482991.160  
 01 03 04 00 08  0.0000000  0 10 28 03 25 29 20 22 13 01 31 19
 111588626.32448  86952147.33648  21234600.352    21234607.441  
 107391113.68648  83681368.06649  20435846.953    20435852.601  
 116230820.19648  90569460.37648  22117981.280    22117985.933  
 129395918.95746                                  24623224.794  
 126078387.05847  98242858.52947  23991928.390    23991932.500  
 110094739.78448  85788083.52648  20950321.562    20950327.810  
 125493970.18147  97787494.51847  23880704.662    23880710.189  
 113915738.73148  88765478.74048  21677442.796    21677448.594  
 118627814.78648  92437219.95148  22574119.791    22574124.046  
 128645741.93047 100243420.11247  24480468.043    24480472.327  
 01 03 04 00 08  5.0000000  0 10 28 03 25 29 20 22 13 01 31 19
 111588811.40348  86952291.53348  21234635.597    21234642.684  
 107385010.89248  83676612.64549  20434685.631    20434691.266  
 116236208.09248  90573658.69248  22119006.613    22119011.251  
 129414454.03546                                  24626752.021  
 126086919.49947  98249507.18047  23993552.074    23993556.169  
 110103331.89948  85794778.66948  20951956.600    20951962.847  
 125478659.23347  97775563.92047  23877791.073    23877796.600  
 113905351.58948  88757384.84648  21675466.200    21675471.999  
 118610589.59748  92423797.72548  22570841.946    22570846.202  
 128632811.07747 100233344.06047  24478007.459    24478011.715  
 01 03 04 00 08 10.0000000  0 10 28 03 25 29 20 22 13 01 31 19
 111588848.99148  86952320.82548  21234642.751    21234649.837  
 107378769.65848  83671749.34249  20433497.962    20433503.610  
 116241449.67148  90577743.04348  22120004.053    22120008.691  
 129432837.08346                                  24630250.223  
 126095302.97147  98256039.73347  23995147.421    23995151.515  
 110111774.35148  85801357.19148  20953563.158    20953569.393  
 125463201.57047  97763518.96147  23874849.602    23874855.129  
 113894822.99448  88749180.74248  21673462.689    21673468.474  
 118593217.29748  92410260.87648  22567536.110    22567540.351  
 128619723.82747 100223146.17646  24475517.063    24475521.318  
 01 03 04 00 08 15.0000000  0 10 28 03 25 29 20 22 13 01 31 19
 111588738.14148  86952234.45848  21234621.644    21234628.731  
 107372389.09248  83666777.47349  20432283.781    20432289.429  
 116246544.05248  90581712.68048  22120973.479    22120978.131  
 129451067.29746                                  24633719.353  
 126103536.55847  98262455.48047  23996714.257    23996718.338  
 110120066.20748  85807818.37648  20955141.045    20955147.280  
 125447596.28047  97751359.03747  23871879.963    23871885.505  
 113884152.05248  88740865.71248  21671432.089    21671437.861  
 118575697.01448  92396608.72248  22564202.099    22564206.340  
 128606479.26647 100212825.81747  24472996.619    24473000.903  
 01 03 04 00 08 20.0000000  0 10 28 03 25 29 20 22 13 01 31 19
 111588787.48648  86952272.89948  21234631.047    21234638.132  
 107366177.77448  83661937.48749  20431101.807    20431107.443  
 116251799.84548  90585808.08948  22121973.650    22121978.287  
 129469453.22746                                  24637218.103  
 126111928.81947  98268994.88447  23998311.277    23998315.356  
 110128516.07848  85814402.68548  20956749.016    20956755.249  
 125432151.94747  97739324.45247  23868941.055    23868946.582  
 113873647.35148  88732680.25248  21669433.086    21669438.871  
 118558337.35948  92383081.71948  22560898.651    22560902.908  
 128593386.01247 100202623.24347  24470505.107    24470509.363  
 01 03 04 00 08 25.0000000  0 10 28 03 25 29 20 22 13 01 31 19
 111588689.08648  86952196.20148  21234612.332    21234619.431  
 107359827.79048  83656989.46149  20429893.433    20429899.069  
 116256909.12148  90589789.33948  22122945.912    22122950.550  
 129487686.90846                                  24640687.976  
 126120171.82847  98275417.97347  23999879.907    23999883.972  
 110136816.03548  85820870.16848  20958328.456    20958334.678  
 125416560.73247  97727175.44147  23865974.158    23865979.672  
 113863001.00048  88724384.38248  21667407.165    21667412.950  
 118540830.41248  92369439.93948  22557567.204    22557571.447  
 128580136.15347 100192298.72147  24467983.692    24467987.975  
 01 03 04 00 08 30.0000000  0 10 28 03 25 29 20 22 13 01 31 19
 111588905.10348  86952364.53548  21234653.440    21234660.526  
 107353801.32348  83652293.48149  20428746.658    20428752.294  
 116262334.05348  90594016.52948  22123978.266    22123982.904  
 129506230.63247                                  24644216.634  
 126128727.73547  98282084.84247  24001508.116    24001512.167  
 110145428.18848  85827580.93048  20959967.308    20959973.529  
 125401284.81647  97715272.17747  23863067.199    23863072.726  
 113852675.15848  88716338.26948  21665442.222    21665448.007  
 118523638.34848  92356043.52248  22554295.663    22554299.918  
 128567191.82347 100182212.14946  24465520.555    24465524.810  
 01 03 04 00 08 35.0000000  0 10 28 03 25 29 20 22 13 01 31 19
 111588972.83248  86952417.29948  21234666.341    21234673.426  
 107347635.70049  83647489.10549  20427573.380    20427579.015  
 116267611.96748  90598129.18848  22124982.634    22124987.257  
 129524621.48546                                  24647716.523  
 126137133.82047  98288635.08947  24003107.692    24003111.756  
 110153889.86048  85834174.44048  20961577.511    20961583.731  
 125385861.46047  97703253.93247  23860132.266    23860137.795  
 113842207.18448  88708181.40248  21663450.247    21663456.018  
 118506298.48348  92342531.98348  22550995.946    22551000.215  
 128554090.38047 100172003.26547  24463027.396    24463031.653  
 01 03 04 00 08 40.0000000  0 10 28 03 25 29 20 22 13 01 31 19
 111588892.86048  86952354.98748  21234651.109    21234658.208  
 107341331.49748  83642576.72549  20426373.742    20426379.377  
 116272743.45848  90602127.73548  22125959.136    22125963.760  
                                                                
 126145390.67747  98295068.94147  24004678.981    24004683.031  
 110162201.61348  85840651.11448  20963159.196    20963165.417  
 125370291.29547  97691121.35447  23857169.351    23857174.879  
 113831597.64048  88699914.20648  21661431.328    21661437.101  
 118488811.45148  92328905.70448  22547668.300    22547672.556  
 128540832.38547 100161672.32647  24460504.520    24460508.764  
 01 03 04 00 08 45.0000000  0 10 28 03 25 29 20 22 13 01 31 19
 111588973.16048  86952417.58048  21234666.379    21234673.477  
 107335196.71548  83637796.39349  20425206.321    20425211.955  
 116278036.50848  90606252.18048  22126966.383    22126971.005  
 129561277.77256                                  24654690.983  
 126153806.32047  98301626.58147  24006280.439    24006284.475  
 110170671.51148  85847251.02148  20964770.976    20964777.185  
 125354882.37947  97679114.40347  23854237.131    23854242.660  
 113821154.53948  88691776.72048  21659444.071    21659449.845  
 118471485.26148  92315404.78348  22544371.222    22544375.479  
 128527725.85647 100151459.46347  24458010.420    24458014.651  
 01 03 04 00 08 50.0000000  0 10 28 03 25 29 20 22 13 01 31 19
 111588905.20648  86952364.60148  21234653.472    21234660.570  
 107328922.82148  83632907.62949  20424012.450    20424018.085  
 116283182.59448  90610262.09748  22127945.676    22127950.285  
                                                                
 126162072.13847  98308067.38547  24007853.456    24007857.479  
 110178990.92948  85853733.67848  20966354.122    20966360.318  
 125339326.07147  97666992.61347  23851276.851    23851282.381  
 113810569.32548  88683528.49248  21657429.785    21657435.557  
 118454011.34648  92301788.74948  22541046.047    22541050.304  
 128514462.24747 100141124.17247  24455486.467    24455490.682  
 01 03 04 00 08 55.0000000  0 10 28 03 25 29 20 22 13 01 31 19
 111589151.34348  86952556.38448  21234700.322    21234707.420  
 107322972.20448  83628270.79649  20422880.073    20422885.708  
 116288644.06448  90614517.76548  22128984.968    22128989.580  
                                                                
 126170650.53447  98314751.85547  24009485.872    24009489.881  
 110187622.22548  85860459.35948  20967996.602    20968002.799  
 125324084.77647  97655116.22747  23848376.593    23848382.107  
 113800304.40648  88675529.86948  21655476.424    21655482.196  
 118436852.11248  92288417.91748  22537780.754    22537785.010  
 128501503.88047 100131026.78947  24453020.521    24453024.751  
 01 03 04 00 09  0.0000000  0 10 28 03 25 29 20 22 13 01 31 19
 111589095.85048  86952513.16948  21234689.738    21234696.836  
 107316729.13848  83623406.06349  20421692.070    20421697.692  
 116293805.23148  90618539.42948  22129967.131    22129971.729  
                                                                
 126178925.74747  98321200.08847  24011060.581    24011064.590  
 110195949.69948  85866948.29148  20969581.281    20969587.476  
 125308542.86447  97643005.67547  23845419.042    23845424.555  
 113789744.05648  88667301.02848  21653466.857    21653472.617  
 118419391.86748  92274812.55348  22534458.154    22534462.412  
 128488235.07047 100120687.37147  24450495.637    24450499.840  
 01 03 04 00 09  5.0000000  0 10 28 03 25 29 20 22 13 01 31 19
 111589200.58448  86952594.76748  21234709.665    21234716.778  
 107310655.50248  83618673.34949  20420536.309    20420541.930  
 116299127.94748  90622686.98548  22130980.021    22130984.620  
 129634698.26956                                  24668662.535  
 126187359.65347  98327771.92547  24012665.536    24012669.533  
 110204435.24148  85873560.39148  20971196.039    20971202.221  
 125293162.20447  97631020.73647  23842492.197    23842497.725  
 113779350.16548  88659201.86948  21651488.990    21651494.749  
 118402092.49048  92261332.51348  22531166.191    22531170.450  
 128475117.71547 100110466.08247  24447999.463    24448003.666  
 01 03 04 00 09 10.0000000  0 10 28 03 25 29 20 22 13 01 31 19
 111589157.48648  86952561.16248  21234701.489    21234708.589  
 107304443.20548  83613832.60849  20419354.135    20419359.757  
 116304304.13648  90626720.35848  22131965.043    22131969.628  
 129652946.79246                                  24672135.601  
 126195644.13947  98334227.30747  24014242.083    24014246.066  
 110212770.70748  85880055.54548  20972782.237    20972788.408  
 125277634.67347  97618921.39947  23839537.370    23839542.898  
 113768814.67148  88650992.40248  21649484.140    21649489.899  
 118384645.88348  92247737.75748  22527846.212    22527850.471  
 128461843.72147 100100122.71747  24445473.492    24445477.709  
 01 03 04 00 09 15.0000000  0 10 28 03 25 29 20 22 13 01 31 19
 111589428.95248  86952772.71048  21234753.136    21234760.247  
 107298554.72748  83609244.18249  20418233.594    20418239.217  
 116309796.29148  90630999.93948  22133010.175    22133014.762  
                                                                
 126204241.67547  98340926.65247  24015878.177    24015882.146  
 110221418.57448  85886794.13548  20974427.869    20974434.054  
 125262422.78747  97607067.94947  23836642.667    23836648.197  
 113758600.03448  88643032.95748  21647540.346    21647546.118  
 118367514.52748  92234388.63648  22524586.236    22524590.483  
 128448875.55647 100090017.63047  24443005.758    24443009.973  
 01 03 04 00 09 20.0000000  0 10 28 03 25 29 20 22 13 01 31 19
 111589398.27948  86952748.79748  21234747.312    21234754.422  
 107292373.32048  83604427.50649  20417057.313    20417062.934  
 116314987.68348  90635045.16948  22133998.077    22134002.652  
                                                                
 126212535.50047  98347389.30947  24017456.500    24017460.468  
 110229762.09348  85893295.56248  20976015.615    20976021.785  
 125246909.78847  97594979.89847  23833690.641    23833696.171  
 113748089.49948  88634842.91448  21645540.270    21645546.042  
 118350081.71148  92220804.64548  22521268.856    22521273.116  
 128435596.49647 100079670.30847  24440478.836    24440483.064  
 01 03 04 00 09 25.0000000  0 10 28 03 25 29 20 22 13 01 31 19
 111589528.64448  86952850.37648  21234772.118    21234779.230  
 107286362.19548  83599743.50249  20415913.447    20415919.067  
 116320341.52248  90639216.96348  22135016.902    22135021.477  
                                                                
 126220988.79947  98353976.31547  24019065.084    24019069.065  
 110238264.45948  85899920.78648  20977633.547    20977639.719  
 125231558.87747  97583018.16147  23830769.447    23830774.978  
 113737746.29848  88626783.27148  21643572.038    21643577.796  
 118332810.65948  92207346.68048  22517982.284    22517986.544  
 128422469.72947 100069441.73647  24437980.807    24437985.064  
 01 03 04 00 09 30.0000000  0 10 28 03 25 29 20 22 13 01 31 19
 111589665.11848  86952956.72248  21234798.089    21234805.200  
 107280366.41949  83595071.45649  20414772.500    20414778.121  
 116325702.83248  90643394.58848  22136037.151    22136041.712  
 129726563.22556                                  24686146.507  
 126229446.58447  98360566.75247  24020674.582    24020678.564  
 110246770.71348  85906549.02248  20979252.245    20979258.417  
 125216215.14547  97571061.99247  23827849.644    23827855.175  
 113727415.51348  88618733.30648  21641606.154    21641611.913  
 118315546.44248  92193894.06548  22514697.002    22514701.249  
 128409340.33247 100059210.98747  24435482.415    24435486.670  
 01 03 04 00 09 35.0000000  0 10 28 03 25 29 20 22 13 01 31 19
 111589807.60748  86953067.73848  21234825.215    21234832.326  
 107274385.94248  83590411.35949  20413634.427    20413640.062  
 116331071.59948  90647578.04848  22137058.780    22137063.355  
 129744974.81047                                  24689650.353  
 126237908.80247  98367160.67547  24022284.900    24022288.883  
 110255280.81548  85913180.25948  20980871.676    20980877.848  
 125200878.52547  97559111.38847  23824931.169    23824936.713  
 113717097.08148  88610692.97048  21639642.622    21639648.393  
 118298288.99748  92180446.69748  22511413.018    22511417.279  
 128396208.19447 100048978.08047  24432983.526    24432987.755  
 01 03 04 00 09 40.0000000  0 10 28 03 25 29 20 22 13 01 31 19
 111589801.84348  86953063.25848  21234824.106    21234831.218  
 107268266.47948  83585642.94449  20412469.946    20412475.567  
 116336293.51348  90651647.03448  22138052.514    22138057.076  
                                                                
 126246221.17147  98373637.79947  24023866.741    24023870.698  
 110263640.47648  85919694.28548  20982462.468    20982468.639  
 125185394.73447  97547046.12647  23821984.679    23821990.222  
 113706636.74348  88602542.05348  21637652.085    21637657.856  
 118280884.05248  92166884.41648  22508100.955    22508105.216  
 128382919.06747 100038622.94346  24430454.666    24430458.907  
 01 03 04 00 09 45.0000000  0 10 28 03 25 29 20 22 13 01 31 19
 111589956.28548  86953183.57448  21234853.519    21234860.631  
 107262316.52949  83581006.61349  20411337.707    20411343.341  
 116341677.02748  90655841.95548  22139077.002    22139081.548  
                                                                
 126254692.11847  98380238.50647  24025478.732    24025482.689  
 110272158.15248  85926331.42748  20984083.341    20984089.498  
 125170072.27647  97535106.51347  23819068.949    23819074.479  
 113696342.96448  88594520.92348  21635693.258    21635699.016  
 118263640.09248  92153447.57748  22504819.526    22504823.799  
 128369781.44447 100028385.83647  24427954.644    24427958.900  
 01 03 04 00 09 50.0000000  0 11 28 03 25 29 20 22 13 01 31 19 15
 111590116.87048  86953308.71848  21234884.065    21234891.177  
 107256382.00048  83576382.29649  20410208.417    20410214.037  
 116347068.11648  90660042.79148  22140102.904    22140107.450  
 129800065.23657                                  24700132.309  
 126263167.61147  98386842.70647  24027091.652    24027095.581  
 110280679.79448  85932971.65448  20985704.967    20985711.125  
 125154757.15147  97523172.63747  23816154.590    23816160.119  
 113686061.72748  88586509.56348  21633736.802    21633742.573  
 118246403.08748  92140016.13848  22501539.447    22501543.706  
 128356641.27747 100018146.74047  24425454.167    24425458.409  
                                                                
 01 03 04 00 09 55.0000000  0 11 28 03 25 29 20 22 13 01 31 19 15
 111590283.40048  86953438.46348  21234915.766    21234922.879  
 107250462.73248  83571769.87649  20409082.017    20409087.650  
 116352466.60548  90664249.39948  22141130.201    22141134.748  
 129818482.79446                                  24703638.183  
 126271647.43347  98393450.44247  24028705.221    24028709.166  
 110289205.17748  85939614.79748  20987327.306    20987333.463  
 125139449.14247  97511244.32447  23813241.574    23813247.102  
 113675792.82348  88578507.81748  21631782.694    21631788.466  
 118229172.83848  92126589.96248  22498260.638    22498264.911  
 128343498.37747 100007905.49947  24422953.167    24422957.410  
                                                                
 01 03 04 00 10  0.0000000  0 11 28 03 25 29 20 22 13 01 31 19 15
 111590302.13548  86953453.05548  21234919.329    21234926.444  
 107244404.97848  83567049.54449  20407929.279    20407934.898  
 116357718.73648  90668341.94648  22142129.673    22142134.220  
 129836747.89147                                  24707114.166  
 126279977.83747  98399941.58647  24030290.532    24030294.449  
 110297580.54548  85946141.06248  20988921.071    20988927.243  
 125123994.53647  97499201.79647  23810300.635    23810306.176  
 113665382.52148  88570395.89748  21629801.680    21629807.451  
 118211795.59248  92113049.26248  22494953.845    22494958.119  
 128330198.98047  99997542.28647  24420422.426    24420426.655  
                                                                
 01 03 04 00 10  5.0000000  0 11 28 03 25 29 20 22 13 01 31 19 15
 111590480.79448  86953592.27648  21234953.328    21234960.442  
 107238516.47648  83562461.10749  20406808.720    20406814.353  
 116363132.24648  90672560.25148  22143159.857    22143164.388  
 129855168.43247                                  24710619.621  
 126288466.52247  98406556.10847  24031905.912    24031909.828  
 110306113.67948  85952790.24448  20990544.900    20990551.044  
 125108701.08047  97487284.74647  23807390.461    23807395.976  
 113655138.58448  88562413.61248  21627852.325    21627858.095  
 118194579.13248  92099633.87648  22491677.625    22491681.912  
 128317050.82847  99987296.96947  24417920.415    24417924.657  
                                                                
 01 03 04 00 10 10.0000000  0 11 28 03 25 29 20 22 13 01 31 19 15
 111590511.42248  86953616.14248  21234959.157    21234966.270  
 107232489.30548  83557764.61149  20405661.788    20405667.421  
 116368399.17848  90676664.33948  22144162.132    22144166.664  
 129873436.29746                                  24714096.130  
 126296805.52647  98413054.01747  24033492.798    24033496.687  
 110314496.60848  85959322.40248  20992140.104    20992146.263  
 125093260.80347  97475253.39547  23804452.237    23804457.765  
 113644753.08248  88554320.99048  21625876.039    21625881.811  
 118177215.53748  92086103.79648  22488373.457    22488377.730  
 128303745.98847  99976929.57547  24415388.576    24415392.818  
                                                                
 01 03 04 00 10 15.0000000  0 11 28 03 25 29 20 22 13 01 31 19 15
 111590855.59648  86953884.32448  21235024.649    21235031.764  
 107226785.03848  83553319.72149  20404576.316    20404581.935  
 116373981.11248  90681013.87048  22145224.363    22145228.894  
 129892013.16946                                  24717631.143  
 126305456.41147  98419794.88247  24035139.108    24035142.968  
 110323190.85548  85966097.12448  20993794.591    20993800.734  
 125078135.30147  97463467.29247  23801573.935    23801579.478  
 113634687.56948  88546477.73448  21623960.636    21623966.408  
 118160166.39048  92072818.74848  22485129.097    22485133.397  
 128290746.02547  99966799.75847  24412914.741    24412918.984  
 130561289.79757                                  24844987.384  
 01 03 04 00 10 20.0000000  0 11 28 03 25 29 20 22 13 01 31 19 15
 111591052.83948  86954038.00248  21235062.194    21235069.322  
 107220943.24648  83548767.67949  20403464.645    20403470.279  
 116379417.64848  90685250.12348  22146258.914    22146263.433  
 129910438.53546                                  24721137.612  
 126313958.72347  98426420.10647  24036756.994    24036760.856  
 110331736.00548  85972755.66048  20995420.689    20995426.846  
 125062864.13147  97451567.68947  23798667.915    23798673.471  
 113624481.63848  88538525.05948  21622018.511    21622024.296  
 118142971.24148  92059419.92948  22481856.969    22481861.269  
 128277590.48247  99956548.64147  24410411.374    24410415.603  
 130554114.96747                                  24843621.965  
 01 03 04 00 10 25.0000000  0 11 28 03 25 29 20 22 13 01 31 19 15
 111591101.61448  86954075.99348  21235071.487    21235078.615  
 107214962.37748  83544107.24949  20402326.536    20402332.169  
 116384707.23748  90689371.87148  22147265.487    22147270.020  
 129928710.85647                                  24724614.766  
 126322310.91447  98432928.20747  24038346.461    24038350.296  
 110340130.45648  85979296.78248  20997018.113    20997024.257  
 125047445.80847  97439553.40547  23795733.904    23795739.473  
 113614133.71648  88530461.71848  21620049.392    21620055.163  
 118125628.57848  92045906.18548  22478556.759    22478561.058  
 128264277.85447  99946175.24447  24407877.978    24407882.234  
 130546791.66347                                  24842228.148  
 01 03 04 00 10 30.0000000  0 11 28 03 25 29 20 22 13 01 31 19 15
 111591157.13648  86954119.24848  21235082.066    21235089.181  
 107208997.65848  83539459.41349  20401191.502    20401197.121  
 116390005.11148  90693500.04748  22148273.676    22148278.207  
 129946985.32346                                  24728092.448  
 126330668.17947  98439440.35947  24039936.795    24039940.643  
 110348529.44748  85985841.46148  20998616.375    20998622.532  
 125032035.53447  97427545.45247  23792801.363    23792806.948  
 113603799.04448  88522408.73248  21618082.770    21618088.541  
 118108293.62048  92032398.43248  22475258.013    22475262.313  
 128250963.34347  99935800.27447  24405344.335    24405348.579  
 130539475.09747                                  24840835.805  
 01 03 04 00 10 35.0000000  0 11 28 03 25 29 20 22 13 01 31 19 15
 111591525.88648  86954406.62448  21235152.200    21235159.328  
 107203355.57148  83535062.98749  20400117.835    20400123.467  
 116395617.73148  90697873.50448  22149341.734    22149346.265  
 129965568.53447                                  24731628.680  
 126339337.03347  98446195.32147  24041586.426    24041590.259  
 110357239.51548  85992628.49848  21000273.885    21000280.015  
 125016939.81147  97415782.50347  23789928.792    23789934.363  
 113593784.14248  88514604.92348  21616176.985    21616182.768  
 118091272.84748  92019135.47648  22472019.094    22472023.379  
 128237953.44647  99925662.67447  24402868.660    24402872.902  
 130532471.77146                                  24839503.021  
 01 03 04 00 10 40.0000000  0 11 28 03 25 29 20 22 13 01 31 19 15
 111591747.23548  86954579.05948  21235194.356    21235201.485  
 107197575.52148  83530559.05449  20399017.928    20399023.560  
 116401084.48348  90702133.28548  22150382.047    22150386.578  
 129983999.70846                                  24735136.028  
 126347856.80047  98452834.04247  24043207.746    24043211.564  
 110365799.95448  85999298.97648  21001902.884    21001909.012  
 125001697.99947  97403905.74147  23787028.380    23787033.967  
 113583628.40348  88506691.35748  21614244.412    21614250.195  
 118074105.68448  92005758.48348  22468752.265    22468756.577  
 128224787.55247  99915403.54447  24400363.260    24400367.515  
 130525321.04447                                  24838142.223  
 01 03 04 00 10 45.0000000  0 11 28 03 25 29 20 22 13 01 31 19 15
 111591820.99048  86954636.55748  21235208.368    21235215.496  
 107191657.32348  83525947.46949  20397891.732    20397897.365  
 116406405.20048  90706279.30448  22151394.547    22151399.065  
 130002278.65646                                  24738614.479  
 126356227.28847  98459356.45847  24044800.632    24044804.451  
 110374210.55948  86005852.68148  21003503.381    21003509.509  
 124986309.95447  97391915.09047  23784100.095    23784105.695  
 113573331.63748  88498667.90748  21612285.003    21612290.786  
 118056791.95548  91992267.28548  22465457.561    22465461.872  
 128211465.45347  99905022.61147  24397828.222    24397832.464  
 130518022.82347                                  24836753.263  
 01 03 04 00 10 50.0000000  0 10 28 03 25 29 20 22 13 01 31 19
 111591901.22848  86954699.06448  21235223.648    21235230.777  
 107185755.07448  83521348.29549  20396768.597    20396774.216  
 116411733.98648  90710431.57948  22152408.605    22152413.123  
                                                                
 126364602.56647  98465882.66547  24046394.383    24046398.202  
 110382625.47148  86012409.76748  21005104.673    21005110.802  
 124970929.80847  97379930.54447  23781173.362    23781178.963  
 113563047.96348  88490654.63848  21610328.096    21610333.880  
 118039485.76748  91978781.93048  22462164.315    22462168.626  
 128198141.28247  99894640.28347  24395292.568    24395296.851  
 01 03 04 00 10 55.0000000  0 10 28 03 25 29 20 22 13 01 31 19
 111592295.44148  86955006.23948  21235298.663    21235305.793  
 107180176.24448  83517001.16049  20395706.967    20395712.600  
 116417378.30048  90714829.71548  22153482.705    22153487.223  
                                                                
 126373290.10347  98472652.15747  24048047.578    24048051.397  
 110391352.10648  86019209.70048  21006765.332    21006771.461  
 124955864.98147  97368191.79647  23778306.548    23778312.162  
 113553084.84648  88482891.14248  21608432.202    21608437.985  
 118022494.58748  91965542.06948  22458930.975    22458935.300  
 128185122.49347  99884495.60947  24392815.349    24392819.577  
 01 03 04 00 11  0.0000000  0 10 28 03 25 29 20 22 13 01 31 19
 111592542.37248  86955198.65248  21235345.652    21235352.782  
 107174459.61448  83512546.64149  20394619.128    20394624.761  
 116422876.91748  90719114.32848  22154529.082    22154533.599  
                                                                
 126381828.65047  98479305.48147  24049672.494    24049676.300  
 110399929.24048  86025893.15648  21008397.545    21008403.659  
 124940654.30547  97356339.25247  23775412.112    23775417.714  
 113542981.06148  88475018.07048  21606509.502    21606515.287  
 118005357.20748  91952188.27148  22455669.841    22455674.165  
 128171947.86347  99874229.74747  24390308.214    24390312.457  
 01 03 04 00 11  5.0000000  0 10 28 03 25 29 20 22 13 01 31 19
 111592640.79548  86955275.35248  21235364.383    21235371.512  
 107168603.98048  83507983.81149  20393504.838    20393510.471  
 116428228.62948  90723284.49748  22155547.480    22155551.984  
                                                                
 126390216.99347  98485841.84747  24051268.726    24051272.560  
 110408355.65248  86032459.21548  21010001.014    21010007.128  
 124925296.55647  97344372.17847  23772489.631    23772495.232  
 113532735.42848  88467034.47548  21604559.811    21604565.596  
 117988072.44248  91938719.61748  22452380.674    22452384.983  
 128158616.21447  99863841.38147  24387771.360    24387775.588  
 01 03 04 00 11 10.0000000  0 10 28 03 25 29 20 22 13 01 31 19
 111592899.36348  86955476.81148  21235413.612    21235420.739  
 107162917.97148  83503553.15649  20392422.827    20392428.460  
 116433742.12248  90727580.69948  22156596.687    22156601.191  
                                                                
 126398763.76047  98492501.62847  24052895.158    24052898.992  
 110416939.99748  86039148.29848  21011634.571    21011640.686  
 124910100.41847  97332531.03647  23769597.903    23769603.503  
 113522656.60548  88459180.83048  21602641.886    21602647.672  
 117970948.95048  91925376.66148  22449122.157    22449126.479  
 128145436.16747  99853571.26647  24385263.232    24385267.461  
 01 03 04 00 11 15.0000000  0 10 28 03 25 29 20 22 13 01 31 19
 111593164.57648  86955683.47648  21235464.066    21235471.196  
 107157248.07748  83499135.04149  20391343.894    20391349.527  
 116439263.87048  90731883.33548  22157647.465    22157651.969  
                                                                
 126407315.42847  98499165.24347  24054522.497    24054526.332  
 110425528.76548  86045840.83448  21013268.972    21013275.086  
 124894912.41647  97320696.28047  23766707.673    23766713.286  
 113512591.07348  88451337.55548  21600726.493    21600732.265  
 117953833.21748  91912039.70948  22445865.153    22445869.476  
 128132254.18147  99843299.56147  24382754.808    24382759.036  
 01 03 04 00 11 20.0000000  0 10 28 03 25 29 20 22 13 01 31 19
 111593128.03548  86955655.02948  21235457.089    21235464.230  
 107151285.93048  83494489.22149  20390209.337    20390214.968  
 116444485.49948  90735952.13048  22158641.107    22158645.612  
 130130918.04156                                  24763090.707  
 126415563.61147  98505592.40947  24056092.061    24056095.897  
 110433813.53248  86052296.48948  21014845.524    21014851.637  
 124879424.16547  97308627.47547  23763760.394    23763765.994  
 113502230.45848  88443264.34148  21598754.932    21598760.717  
 117936416.82848  91898468.51448  22442550.913    22442555.235  
 128118761.94447  99832786.15747  24380187.281    24380191.525  
 01 03 04 00 11 25.0000000  0 10 28 03 25 29 20 22 13 01 31 19
 111593405.54648  86955871.23648  21235509.935    21235517.063  
 107145647.35248  83490095.51949  20389136.350    20389141.982  
 116450022.80848  90740266.90448  22159694.834    22159699.338  
 130149363.82846                                  24766600.420  
 126424124.08347  98512262.86047  24057721.099    24057724.936  
 110442410.10148  86058995.10248  21016481.409    21016487.522  
 124864251.50447  97296804.61947  23760873.131    23760878.744  
 113492190.58248  88435441.05448  21596844.421    21596850.192  
 117919315.62048  91885142.90548  22439296.648    22439300.972  
 128105575.23247  99822510.75447  24377677.984    24377682.213  
 01 03 04 00 11 30.0000000  0 10 28 03 25 29 20 22 13 01 31 19
 111593843.60448  86956212.57448  21235593.293    21235600.422  
 107140178.89148  83485834.37649  20388095.736    20388101.380  
 116455722.34348  90744708.06948  22160779.457    22160783.948  
 130167965.54846                                  24770140.114  
 126432843.39247  98519057.14447  24059380.302    24059384.154  
 110451165.04148  86065817.13248  21018147.419    21018153.531  
 124849240.93247  97285108.07847  23758016.701    23758022.316  
 113482318.00248  88427748.13748  21594965.732    21594971.503  
 117902376.20448  91871943.36248  22436073.185    22436077.508  
 128092540.59047  99812353.86447  24375197.598    24375201.815  
 01 03 04 00 11 35.0000000  0 10 28 03 25 29 20 22 13 01 31 19
 111593825.10748  86956198.17748  21235589.762    21235596.903  
 107134263.42848  83481224.91749  20386970.074    20386975.705  
 116460966.98948  90748794.79148  22161777.492    22161781.994  
 130186105.96247                                  24773592.108  
 126441104.38047  98525494.15547  24060952.438    24060956.263  
 110459461.14948  86072281.61948  21019726.143    21019732.240  
 124833775.33547  97273056.95247  23755073.709    23755079.322  
 113471995.61948  88419704.71248  21593001.446    21593007.230  
 117884981.44948  91858389.01748  22432763.075    22432767.384  
 128079040.87247  99801834.63347  24372628.649    24372632.880  
 01 03 04 00 11 40.0000000  0 10 28 03 25 29 20 22 13 01 31 19
 111594119.77548  86956427.75448  21235645.873    21235653.000  
 107128670.67148  83476866.91549  20385905.821    20385911.451  
 116466526.48948  90753126.86248  22162835.443    22162839.932  
 130204555.02746                                  24777103.039  
 126449676.77247  98532173.92747  24062583.722    24062587.546  
 110468068.19948  86078988.38548  21021364.034    21021370.131  
 124818624.48247  97261251.07747  23752190.609    23752196.223  
 113461993.13148  88411910.55548  21591098.048    21591103.820  
 117867901.07948  91845079.64648  22429512.776    22429517.098  
 128065845.84847  99791552.83247  24370117.697    24370121.927  
 01 03 04 00 11 45.0000000  0 10 28 03 25 29 20 22 13 01 31 19
 111594574.68348  86956782.23648  21235732.425    21235739.554  
 107123247.69348  83472641.22949  20384873.850    20384879.480  
 116472247.85348  90757585.04248  22163924.207    22163928.695  
 130223159.52646                                  24780643.298  
 126458407.61747  98538977.14647  24064245.168    24064248.995  
 110476833.21348  86085818.27548  21023031.948    21023038.058  
 124803635.39247  97249571.25547  23749338.277    23749343.906  
 113452157.61848  88404246.50448  21589226.424    21589232.196  
 117850982.18648  91831896.10248  22426293.220    22426297.528  
 128052802.55747  99781389.17747  24367635.690    24367639.907  
 01 03 04 00 11 50.0000000  0 10 28 03 25 29 20 22 13 01 31 19
 111594574.42348  86956782.02148  21235732.388    21235739.516  
 107117379.09748  83468068.29749  20383757.093    20383762.724  
 116477515.70848  90761689.84348  22164926.672    22164931.158  
 130241304.25246                                  24784096.029  
 126466681.48447  98545424.32347  24065819.620    24065823.447  
 110485140.85048  86092291.73448  21024612.863    21024618.972  
 124788192.73447  97237538.05647  23746399.601    23746405.242  
 113441873.69748  88396233.07348  21587269.447    21587275.219  
 117833609.37048  91818358.83648  22422987.296    22422991.591  
 128039295.62047  99770864.29847  24365065.392    24365069.610  
 01 03 04 00 11 55.0000000  0 10 28 03 25 29 20 22 13 01 31 19
 111595042.16748  86957146.48748  21235821.394    21235828.525  
 107111988.14648  83463867.54249  20382731.241    20382736.872  
 116483253.31548  90766160.69548  22166018.514    22166022.989  
                                                                
 126475421.60647  98552234.77647  24067482.832    24067486.661  
 110493914.30748  86099128.19148  21026282.411    21026288.506  
 124773219.75947  97225870.77447  23743550.362    23743556.003  
 113432064.62148  88388589.62248  21585402.853    21585408.626  
 117816705.88548  91805187.28848  22419770.670    22419774.964  
 128026248.27147  99760697.51747  24362582.591    24362586.794  
 01 03 04 00 12  0.0000000  0 10 28 03 25 29 20 22 13 01 31 19
 111595361.90748  86957395.64148  21235882.240    21235889.370  
 107106458.80448  83459558.97549  20381679.030    20381684.661  
 116488844.65048  90770517.55948  22167082.520    22167087.008  
                                                                
 126484011.94347  98558928.48247  24069117.580    24069121.384  
 110502537.52748  86105847.58248  21027923.355    21027929.462  
 124758100.42947  97214089.48147  23740673.250    23740678.890  
 113422114.37648  88380836.17848  21583509.398    21583515.157  
 117799655.72348  91791901.46748  22416526.121    22416530.415  
 128013044.46747  99750408.87147  24360069.952    24360074.170  
 01 03 04 00 12  5.0000000  0 10 28 03 25 29 20 22 13 01 31 19
 111595533.40748  86957529.27048  21235914.889    21235922.005  
 107100790.83848  83455142.36749  20380600.464    20380606.095  
 116494289.48448  90774760.27548  22168118.650    22168123.137  
                                                                
 126492452.26047  98565505.36147  24070723.706    24070727.511  
 110511010.35148  86112449.76748  21029535.707    21029541.798  
 124742834.51347  97202193.95147  23737768.255    23737773.883  
 113412022.71748  88372972.55148  21581589.005    21581594.779  
 117782458.64248  91778501.14448  22413253.625    22413257.919  
 127999683.98547  99739998.05147  24357527.585    24357531.790  
 01 03 04 00 12 10.0000000  0 10 28 03 25 29 20 22 13 01 31 19
 111595865.56748  86957788.09248  21235978.096    21235985.225  
 107095293.16348  83450858.45449  20379554.304    20379559.922  
 116499896.71048  90779129.52948  22169185.682    22169190.169  
                                                                
 126501051.39347  98572205.94747  24072360.103    24072363.907  
 110519641.56048  86119175.38448  21031178.171    21031184.263  
 124727730.92847  97190424.92447  23734894.139    23734899.778  
 113402098.56848  88365239.43748  21579700.515    21579706.288  
 117765423.56048  91765227.05648  22410011.958    22410016.262  
 127986475.73547  99729705.92647  24355014.127    24355018.332  
 01 03 04 00 12 15.0000000  0 10 28 03 25 29 20 22 13 01 31 19
 111596204.12448  86958051.88248  21236042.547    21236049.662  
 107089811.52448  83446587.05749  20378511.170    20378516.801  
 116505512.05848  90783505.10748  22170254.273    22170258.758  
                                                                
 126509655.08847  98578910.12247  24073997.316    24074001.136  
 110528276.93348  86125904.22148  21032821.452    21032827.544  
 124712635.44147  97178662.19647  23732021.576    23732027.214  
 113392187.67248  88357516.66348  21577814.535    21577820.295  
 117748396.21548  91751959.01848  22406771.737    22406776.042  
 127973265.42947  99719412.18247  24352500.290    24352504.494  
 01 03 04 00 12 20.0000000  0 10 28 03 25 29 20 22 13 01 31 19
 111596393.42248  86958199.40748  21236078.543    21236085.661  
 107084190.25848  83442206.83649  20377441.491    20377447.110  
 116510979.88948  90787765.70248  22171294.815    22171299.287  
 130351895.10256                                  24805140.911  
 126518107.71447  98585496.60947  24075605.773    24075609.593  
 110536760.82848  86132515.05248  21034435.885    21034441.975  
 124697392.39647  97166784.48947  23729120.934    23729126.559  
 113382134.41348  88349682.93948  21575901.474    21575907.235  
 117731220.99448  91738575.72048  22403503.414    22403507.719  
 127959897.47847  99708995.58447  24349956.481    24349960.670  
 01 03 04 00 12 25.0000000  0 10 28 03 25 29 20 22 13 01 31 19
 111596742.82048  86958471.63348  21236145.070    21236152.173  
 107078738.78748  83437958.94549  20376404.097    20376409.729  
 116516609.57748  90792152.48348  22172366.097    22172370.569  
 130370356.66447                                  24808654.077  
 126526718.66147  98592206.29847  24077244.531    24077248.309  
 110545402.58048  86139248.88148  21036080.354    21036086.458  
 124682311.18447  97155032.91347  23726251.048    23726256.688  
 113372248.16748  88341979.37448  21574020.185    21574025.945  
 117714207.30148  91725318.30548  22400265.802    22400270.109  
 127946681.24547  99698697.20747  24347441.527    24347445.716  
 01 03 04 00 12 30.0000000  0 10 28 03 25 29 20 22 13 01 31 19
 111597097.98948  86958748.38148  21236212.654    21236219.771  
 107073302.77448  83433723.08449  20375369.672    20375375.290  
 116522246.80248  90796545.09548  22173438.863    22173443.321  
                                                                
 126535333.58147  98598919.21747  24078883.909    24078887.686  
 110554047.92648  86145985.50048  21037725.521    21037731.624  
 124667237.50147  97143287.16147  23723382.646    23723388.286  
 113362374.59948  88334285.66848  21572141.319    21572147.080  
 117697200.77848  91712066.46948  22397029.569    22397033.875  
 127933462.40147  99688396.85347  24344926.015    24344930.218  
 01 03 04 00 12 35.0000000  0 10 28 03 25 29 20 22 13 01 31 19
 111597305.57248  86958910.13148  21236252.171    21236259.272  
 107067728.87348  83429379.77749  20374308.992    20374314.624  
 116527738.26448  90800824.14448  22174483.851    22174488.324  
                                                                
 126543799.07947  98605515.66847  24080494.876    24080498.640  
 110562543.46448  86152605.37348  21039342.207    21039348.295  
 124652018.02247  97131427.86447  23720486.439    23720492.091  
 113352360.38048  88326482.36948  21570235.689    21570241.449  
 117680048.10448  91698700.76248  22393765.511    22393769.818  
 127920087.60847  99677974.86747  24342380.951    24342385.139  
 01 03 04 00 12 40.0000000  0 10 28 03 25 29 20 22 13 01 31 19
 111597674.00348  86959197.22348  21236322.266    21236329.383  
 107062325.51248  83425169.36949  20373280.767    20373286.387  
 116533392.37548  90805229.94048  22175559.806    22175564.265  
                                                                
 126552423.57247  98612236.07647  24082136.037    24082139.815  
 110571197.58348  86159348.84648  21040989.017    21040995.119  
 124636961.18047  97119695.25447  23717621.216    23717626.870  
 113342513.96648  88318809.84048  21568361.979    21568367.727  
 117663057.76348  91685461.53348  22390532.371    22390536.663  
 127906865.30247  99667671.77647  24339864.831    24339869.006  
 01 03 04 00 12 45.0000000  0 10 28 03 25 29 20 22 13 01 31 19
 111598048.05848  86959488.68148  21236393.474    21236400.575  
 107056937.47648  83420970.90049  20372255.458    20372261.078  
 116539053.88348  90809641.47648  22176637.179    22176641.638  
                                                                
 126561051.82447  98618959.38247  24083777.937    24083781.728  
 110579855.12448  86166094.95748  21042636.517    21042642.606  
 124621911.73047  97107968.39947  23714757.413    23714763.066  
 113332680.13048  88311147.10448  21566490.676    21566496.422  
 117646074.52948  91672227.83448  22387300.582    22387304.873  
 127893640.23247  99657366.54247  24337348.172    24337352.359  
 01 03 04 00 12 50.0000000  0 10 28 03 25 29 20 22 13 01 31 19
 111598274.13948  86959664.85448  21236436.482    21236443.597  
 107051411.14948  83416664.66849  20371203.832    20371209.465  
 116544569.22748  90813939.12848  22177686.725    22177691.173  
 130462363.44156                                  24826163.502  
 126569530.22847  98625565.85947  24085391.398    24085395.162  
 110588362.46148  86172724.03348  21044255.435    21044261.523  
 124606716.12747  97096127.70647  23711865.749    23711871.415  
 113322705.30248  88303374.49648  21564592.541    21564598.287  
 117628944.81048  91658880.02348  22384040.880    22384045.172  
 127880258.84047  99646939.52547  24334801.757    24334805.929  
 01 03 04 00 12 55.0000000  0 10 28 03 25 29 20 22 13 01 31 19
 111598660.05048  86959965.54548  21236509.944    21236517.045  
 107046054.40948  83412490.59449  20370184.481    20370190.099  
 116550246.27248  90818362.79348  22178767.044    22178771.479  
                                                                
 126578166.65047  98632295.51847  24087034.865    24087038.631  
 110597027.36448  86179475.89048  21045904.323    21045910.411  
 124591682.23747  97084412.97747  23709004.908    23709010.561  
 113312897.32648  88295731.90448  21562726.157    21562731.903  
 117611976.44548  91645657.92448  22380811.908    22380816.200  
 127867028.96947  99636630.47847  24332284.244    24332288.416  
 01 03 04 00 13  0.0000000  0 10 28 03 25 29 20 22 13 01 31 19
 111599051.36348  86960270.48348  21236584.383    21236591.498  
 107040712.82048  83408328.30549  20369168.023    20369173.640  
 116555930.57048  90822792.09248  22179848.755    22179853.177  
                                                                
 126586806.59147  98639027.91247  24088679.015    24088682.781  
 110605695.46048  86186230.24548  21047553.821    21047559.895  
 124576655.59047  97072703.91947  23706145.406    23706151.074  
 113303101.77748  88288099.02948  21560862.116    21560867.860  
 117595015.02548  91632441.23248  22377584.257    22377588.549  
 127853796.16147  99626319.18847  24329766.137    24329770.308  
 01 03 04 00 13  5.0000000  0 10 28 03 25 29 20 22 13 01 31 19
 111599294.85848  86960460.19348  21236630.757    21236637.857  
 107035233.14648  83404058.42049  20368125.273    20368130.905  
 116561468.90948  90827107.67648  22180902.665    22180907.088  
                                                                
 126595296.81947  98645643.68747  24090294.624    24090298.405  
 110614213.51348  86192867.68148  21049174.750    21049180.838  
 124561483.00647  97060881.07447  23703258.208    23703263.875  
 113293165.42948  88280356.41448  21558971.290    21558977.036  
 117577907.31148  91619110.54848  22374328.768    22374333.059  
 127840407.20447  99615886.24947  24327218.291    24327222.462  
 01 03 04 00 13 10.0000000  0 10 28 03 25 29 20 22 13 01 31 19
 111599698.70948  86960774.88148  21236707.608    21236714.707  
 107029923.61548  83399921.13449  20367114.890    20367120.523  
 116567169.46148  90831549.62448  22181987.479    22181991.902  
                                                                
 126603945.53847  98652382.88847  24091940.467    24091944.250  
 110622889.68448  86199628.34248  21050825.773    21050831.858  
 124546472.70747  97049184.76847  23700401.820    23700407.486  
 113283396.50248  88272744.25348  21557112.338    21557118.083  
 117560961.56748  91605906.09348  22371104.075    22371108.367  
 127827170.29447  99605571.74447  24324699.414    24324703.586  
 01 03 04 00 13 15.0000000  0 10 28 03 25 29 20 22 13 01 31 19
 111599955.05948  86960974.63448  21236756.389    21236763.489  
 107024476.38048  83395676.51149  20366078.340    20366083.960  
 116572724.39148  90835878.12448  22183044.558    22183048.982  
                                                                
 126612444.88847  98659005.75847  24093557.839    24093561.622  
 110631416.08048  86206272.26048  21052448.316    21052454.401  
 124531316.84847  97037374.95447  23697517.819    23697523.457  
 113273487.15748  88265022.68248  21555226.651    21555232.397  
 117543869.91448  91592587.92548  22367851.642    22367855.934  
 127813777.63147  99595135.90247  24322150.875    24322155.059  
 01 03 04 00 13 20.0000000  0 10 28 03 25 29 20 22 13 01 31 19
 111600217.20048  86961178.89348  21236806.271    21236813.373  
 107019044.69648  83391444.03849  20365044.727    20365050.345  
 116578286.96748  90840212.59248  22184103.095    22184107.505  
                                                                
 126620948.11847  98665631.57347  24095176.022    24095179.792  
 110639945.99848  86212918.94148  21054071.519    21054077.591  
 124516168.73347  97025571.25347  23694635.204    23694640.843  
 113263590.67848  88257311.11948  21553343.439    21553349.172  
 117526785.67448  91579275.52348  22364600.633    22364604.911  
 127800382.44347  99584698.12447  24319601.833    24319606.015  
 01 03 04 00 13 25.0000000  0 10 28 03 25 29 20 22 13 01 31 19
 111600639.52748  86961507.94948  21236886.676    21236893.763  
 107013783.00248  83387344.01649  20364043.460    20364049.078  
 116584011.63648  90844673.34348  22185192.487    22185196.886  
                                                                
 126629609.62747  98672380.75647  24096824.303    24096828.058  
 110648633.89948  86219688.69948  21055724.809    21055730.867  
 124501182.80947  97013893.92147  23691783.465    23691789.105  
 113253861.49648  88249729.94648  21551492.024    21551497.770  
 117509863.27048  91566089.23948  22361380.392    22361384.685  
 127787139.16647  99574378.67347  24317081.733    24317085.916  
 01 03 04 00 13 30.0000000  0 10 28 03 25 29 20 22 13 01 31 19
 111601067.58748  86961841.48848  21236968.145    21236975.231  
 107008536.82248  83383256.08949  20363045.131    20363050.763  
 116589743.93448  90849140.06148  22186283.320    22186287.706  
                                                                
 126638274.99647  98679132.96747  24098473.292    24098477.035  
 110657325.28048  86226461.19048  21057378.735    21057384.794  
 124486204.59947  97002222.57547  23688933.218    23688938.858  
 113244145.16948  88242158.76348  21549643.095    21549648.827  
 117492948.24148  91552908.71648  22358161.559    22358165.850  
 127773893.34747  99564057.29747  24314561.101    24314565.296  
 01 03 04 00 13 35.0000000  0 10 28 03 25 29 20 22 13 01 31 19
 111601501.52948  86962179.61348  21237050.734    21237057.820  
 107003306.35149  83379180.38849  20362049.819    20362055.438  
 116595484.01948  90853612.82848  22187375.646    22187380.019  
                                                                
 126646944.31447  98685888.26147  24100123.004    24100126.763  
 110666020.29648  86233236.51748  21059033.355    21059039.400  
 124471234.24047  96990557.35347  23686084.467    23686090.105  
 113234441.86948  88234597.74648  21547796.617    21547802.350  
 117476040.75748  91539734.04248  22354944.184    22354948.463  
 127760645.15247  99553734.00647  24312040.079    24312044.260  
 01 03 04 00 13 40.0000000  0 10 28 03 25 29 20 22 13 01 31 19
 111601787.68948  86962402.60548  21237105.191    21237112.274  
 106997937.94048  83374997.21249  20361028.245    20361033.863  
 116601078.23648  90857971.94848  22188440.203    22188444.563  
 130646527.40956                                  24861206.611  
 126655463.92047  98692526.92647  24101744.219    24101747.979  
 110674565.24248  86239894.92148  21060659.405    21060665.450  
 124456118.09647  96978778.55947  23683207.950    23683213.575  
 113224597.94048  88226927.13748  21545923.406    21545929.136  
 117458987.18548  91526445.54948  22351698.983    22351703.276  
 127747240.90747  99543289.07347  24309489.396    24309493.577  
 01 03 04 00 13 45.0000000  0 10 28 03 25 29 20 22 13 01 31 19
 111602079.62148  86962630.09048  21237160.730    21237167.815  
 106992585.09148  83370826.16049  20360009.631    20360015.250  
 116606680.16148  90862337.04148  22189506.249    22189510.598  
 130664855.80246                                  24864694.365  
 126663987.37847  98699168.50747  24103366.252    24103369.998  
 110683113.71448  86246556.05748  21062286.122    21062292.182  
 124441009.78147  96967005.83947  23680332.947    23680338.570  
 113214766.95348  88219266.60448  21544052.641    21544058.374  
 117441941.09648  91513162.88348  22348455.220    22348459.513  
 127733834.21047  99532842.33647  24306938.135    24306942.332  
 01 03 04 00 13 50.0000000  0 10 28 03 25 29 20 22 13 01 31 19
 111602685.85048  86963102.46848  21237276.104    21237283.189  
 106987556.41748  83366907.70049  20359052.718    20359058.337  
 116612598.36348  90866948.61248  22190632.472    22190636.806  
 130683493.71946                                  24868240.781  
 126672823.21347  98706053.54147  24105047.694    24105051.414  
 110691974.22148  86253460.33448  21063972.232    21063978.292  
 124426217.81447  96955479.61147  23677518.155    23677523.764  
 113205257.46948  88211856.63948  21542243.037    21542248.767  
 117425211.03248  91500126.48148  22345271.583    22345275.888  
 127720733.61547  99522634.02847  24304445.238    24304449.419  
 01 03 04 00 13 55.0000000  0 10 28 03 25 29 20 22 13 01 31 19
 111602989.65148  86963339.20248  21237333.902    21237341.000  
 106982235.20049  83362761.30049  20358040.110    20358045.743  
 116618216.10448  90871326.04648  22191701.517    22191705.851  
 130701824.44046                                  24871729.084  
 126681354.68047  98712701.43247  24106671.177    24106674.910  
 110700530.04148  86260127.20748  21065600.351    21065606.410  
 124411125.49547  96943719.40347  23674646.146    23674651.756  
 113195452.76148  88204216.60848  21540377.263    21540382.993  
 117408180.28348  91486855.76048  22342030.752    22342035.044  
 127707322.36747  99512183.72947  24301893.138    24301897.331  
 01 03 04 00 14  0.0000000  0 10 28 03 25 29 20 22 13 01 31 19
 111603298.95548  86963580.20448  21237392.788    21237399.859  
 106976929.34148  83358626.85649  20357030.452    20357036.071  
 116623841.31848  90875709.31348  22192771.971    22192776.294  
 130720155.75246                                  24875217.488  
 126689889.70647  98719352.05247  24108295.402    24108299.107  
 110709089.12748  86266796.60748  21067229.117    21067235.162  
 124396040.76347  96931965.04647  23671775.627    23671781.239  
 113185660.75448  88196586.45248  21538513.916    21538519.648  
 117391156.79048  91473590.71548  22338791.278    22338795.581  
 127693908.42447  99501731.27347  24299340.572    24299344.767  
 01 03 04 00 14  5.0000000  0  9 28 03 25 20 22 13 01 31 19
 111603767.60248  86963945.37848  21237481.967    21237489.051  
 106971792.69449  83354624.28549  20356052.968    20356058.600  
 116629627.85748  90880218.27848  22193873.137    22193877.459  
 126698582.09047  98726125.31747  24109949.518    24109953.224  
 110717805.29648  86273588.40648  21068887.759    21068893.818  
 124381117.42747  96920336.46647  23668935.809    23668941.422  
 113176035.29848  88189086.07948  21536682.279    21536687.997  
 117374294.38548  91460451.15948  22335582.479    22335586.784  
 127680645.59447  99491396.60747  24296816.726    24296820.934  
 01 03 04 00 14 10.0000000  0  9 28 03 25 20 22 13 01 31 19
 111604088.81148  86964195.64548  21237543.115    21237550.187  
 106966518.54948  83350514.54149  20355049.357    20355054.976  
 116635268.96648  90884613.93848  22194946.617    22194950.926  
 126707125.09947  98732782.16747  24111575.234    24111578.941  
 110726371.77448  86280263.58348  21070517.905    21070523.964  
 124366048.81447  96908594.73947  23666068.299    23666073.913  
 113166269.67848  88181476.50348  21534823.943    21534829.661  
 117357286.37548  91447198.18448  22332345.952    22332350.255  
 127667227.20547  99480940.74347  24294263.266    24294267.488  
 01 03 04 00 14 15.0000000  0  9 28 03 25 20 22 13 01 31 19
 111604723.20448  86964689.99248  21237663.824    21237670.908  
 106961567.49948  83346656.58249  20354107.204    20354112.822  
 116641225.33148  90889255.25248  22196080.073    22196084.397  
 126715979.34947  98739681.54147  24113260.193    24113263.872  
 110735249.22248  86287181.06248  21072207.240    21072213.310  
 124351295.55347  96897098.66647  23663260.871    23663266.484  
 113156824.52648  88174116.64648  21533026.576    21533032.308  
 117340593.38048  91434190.66648  22329169.368    22329173.672  
 127654113.80547  99470722.48347  24291767.893    24291772.102  
 01 03 04 00 14 20.0000000  0  9 28 03 25 20 22 13 01 31 19
 111605055.96748  86964949.28348  21237727.161    21237734.231  
 106956324.73548  83342571.30249  20353109.537    20353115.157  
 116646882.09948  90893663.09548  22197156.559    22197160.868  
 126724530.00247  98746344.38147  24114887.342    24114891.007  
 110743822.80448  86293861.76748  21073838.751    21073844.809  
 124336242.84247  96885369.27647  23660396.434    23660402.049  
 113147085.02448  88166527.41948  21531173.224    21531178.955  
 117323600.60648  91420949.54048  22325935.750    22325940.067  
 127640690.62847  99460262.90047  24289213.526    24289217.733  
 01 03 04 00 14 25.0000000  0  9 28 03 25 20 22 13 01 31 19
 111605548.09548  86965332.74748  21237820.822    21237827.891  
 106951251.25448  83338617.94849  20352144.087    20352149.706  
 116652700.23348  90898196.69348  22198263.725    22198268.034  
 126733237.99447  98753129.77347  24116544.480    24116548.131  
 110752553.51748  86300664.89848  21075500.176    21075506.232  
 124321351.64047  96873765.75647  23657562.721    23657568.335  
 113137512.17048  88159068.03648  21529351.582    21529357.313  
 117306769.05848  91407834.04148  22322732.826    22322737.129  
 127627418.66347  99449921.04247  24286688.015    24286692.222  
 01 03 04 00 14 30.0000000  0  9 28 03 25 20 22 13 01 31 19
 111605892.11148  86965600.82248  21237886.274    21237893.344  
 106946039.58348  83334556.89949  20351152.337    20351157.958  
 116658372.32248  90902616.49048  22199343.100    22199347.408  
 126741795.88747  98759798.22947  24118173.016    24118176.667  
 110761133.84348  86307350.86648  21077132.958    21077139.014  
 124306314.51247  96862048.47147  23654701.286    23654706.889  
 113127798.52748  88151498.96448  21527503.137    21527508.868  
 117289791.29948  91394604.63048  22319502.054    22319506.369  
 127613990.46047  99439457.52347  24284132.701    24284136.896  
 01 03 04 00 14 35.0000000  0  9 28 03 25 20 22 13 01 31 19
 111606242.16748  86965873.58048  21237952.899    21237959.969  
 106940843.90248  83330508.31549  20350163.632    20350169.253  
 116664052.50548  90907042.57948  22200424.027    22200428.323  
 126750357.83447  98766469.85047  24119802.309    24119805.964  
 110769717.98448  86314039.79748  21078766.463    21078772.533  
 124291285.71047  96850337.75847  23651841.349    23651846.967  
 113118098.26548  88143940.29148  21525657.263    21525662.993  
 117272821.51048  91381381.41348  22316272.809    22316277.138  
 127600560.17047  99428992.37247  24281576.989    24281581.196  
 01 03 04 00 14 40.0000000  0  9 28 03 25 20 22 13 01 31 19
 111606906.44648  86966391.20048  21238079.307    21238086.377  
 106935972.38648  83326712.33749  20349236.600    20349242.222  
 116670048.91948  90911715.09048  22201565.117    22201569.415  
 126759231.97847  98773384.72047  24121491.037    24121494.693  
 110778614.10148  86320971.81048  21080459.362    21080465.420  
 124276573.35647  96838873.55547  23649041.719    23649047.323  
 113108719.55548  88136632.20948  21523872.554    21523878.284  
 117256167.86048  91368404.57348  22313103.702    22313108.030  
 127587435.95147  99418765.71647  24279079.536    24279083.729  
 01 03 04 00 14 45.0000000  0  9 28 03 25 20 22 13 01 31 19
 111607114.27948  86966553.12248  21238118.881    21238125.950  
 106930654.42748  83322568.45449  20348224.652    20348230.260  
 116675590.95348  90916033.52248  22202619.768    22202624.052  
 126767647.68647  98779942.39447  24123092.518    24123096.173  
 110787051.51048  86327546.41048  21082064.962    21082071.018  
 124261406.83247  96827055.52047  23646155.573    23646161.206  
 113098891.77148  88128974.18348  21522002.402    21522008.119  
 117239059.72748  91355073.53148  22309848.155    22309852.484  
 127573847.19947  99408177.00547  24276493.756    24276497.935  
 01 03 04 00 14 50.0000000  0  9 28 03 25 20 22 13 01 31 19
 111607635.03748  86966958.92848  21238217.952    21238225.023  
 106925659.40348  83318676.22249  20347274.129    20347279.739  
 116681447.98148  90920597.44148  22203734.324    22203738.608  
 126776374.31747  98786742.34547  24124753.151    24124756.807  
 110795799.61548  86334363.11448  21083729.655    21083735.726  
 124246555.54147  96815483.03347  23643329.515    23643335.135  
 113089384.30648  88121565.76148  21520193.189    21520198.921  
 117222266.49948  91341987.91348  22306652.499    22306656.827  
 127560563.25747  99397825.95447  24273965.832    24273970.025  
 01 03 04 00 14 55.0000000  0  9 28 03 25 20 22 13 01 31 19
 111608161.45848  86967369.10548  21238318.152    21238325.222  
 106920680.03548  83314796.19649  20346326.587    20346332.196  
 116687312.76148  90925167.35948  22204850.405    22204854.674  
 126785104.60347  98793545.12247  24126414.520    24126418.149  
 110804551.13648  86341182.46548  21085395.041    21085401.097  
 124231712.20947  96803916.81847  23640504.896    23640510.531  
 113079889.91648  88114167.52948  21518386.481    21518392.198  
 117205480.89148  91328908.22448  22303458.305    22303462.620  
 127547276.90147  99387472.88547  24271437.598    24271441.763  
