     2              OBSERVATION DATA    G                   RINEX VERSION / TYPE
LEICA GEO OFFICE 1.0                    5-6-8 08:46         PGM / RUN BY / DATE
                                                            OBSERVER / AGENCY
L02102                                                      MARKER NAME
L02102                                                      MARKER NUMBER
462045              LEICA GX1230        2.14                REC # / TYPE / VERS
                    LEIAX1202                               ANT # / TYPE
 -2267735.3806  5009170.7550  3221262.1153                  APPROX POSITION XYZ
        1.5430        0.0000        0.0000                  ANTENNA: DELTA H/E/N
L1PhaOff:   0.0648  L2PhaOff:   0.0622                      COMMENT
     1     1                                                WAVELENGTH FACT L1/2
     6    C1    L1    D1    P2    L2    D2                  # / TYPES OF OBSERV
  2008     6     4     1    33   15.000000                  TIME OF FIRST OBS
  2008     6     4     2    34   15.000000                  TIME OF LAST OBS
    14                                                      LEAP SECONDS
     8                                                      # OF SATELLITES
          C1    P1    L1    D1    P2    L2    D2            COMMENT
   G 1     0     0     0     0     0     0     0            PRN / # OF OBS
   G 2     0     0     0     0     0     0     0            PRN / # OF OBS
   G 3     0     0     0     0     0     0     0            PRN / # OF OBS
   G 4     0     0     0     0     0     0     0            PRN / # OF OBS
   G 5     0     0     0     0     0     0     0            PRN / # OF OBS
   G 6     0     0     0     0     0     0     0            PRN / # OF OBS
   G 7     0     0     0     0     0     0     0            PRN / # OF OBS
   G 8     0     0     0     0     0     0     0            PRN / # OF OBS
   G 9   245     0   245   245   245   245   245            PRN / # OF OBS
   G10   245     0   245   245   245   245   245            PRN / # OF OBS
   G11     0     0     0     0     0     0     0            PRN / # OF OBS
   G12     0     0     0     0     0     0     0            PRN / # OF OBS
   G13     0     0     0     0     0     0     0            PRN / # OF OBS
   G14     0     0     0     0     0     0     0            PRN / # OF OBS
   G15   245     0   245   245   245   245   245            PRN / # OF OBS
   G16     0     0     0     0     0     0     0            PRN / # OF OBS
   G17     0     0     0     0     0     0     0            PRN / # OF OBS
   G18   227     0   227   227   224   224   224            PRN / # OF OBS
   G19     0     0     0     0     0     0     0            PRN / # OF OBS
   G20     0     0     0     0     0     0     0            PRN / # OF OBS
   G21   245     0   245   245   245   245   245            PRN / # OF OBS
   G22     0     0     0     0     0     0     0            PRN / # OF OBS
   G23     0     0     0     0     0     0     0            PRN / # OF OBS
   G24   245     0   245   245   245   245   245            PRN / # OF OBS
   G25     0     0     0     0     0     0     0            PRN / # OF OBS
   G26   245     0   245   245   245   245   245            PRN / # OF OBS
   G27     0     0     0     0     0     0     0            PRN / # OF OBS
   G28     0     0     0     0     0     0     0            PRN / # OF OBS
   G29   208     0   208   208   208   208   208            PRN / # OF OBS
   G30     0     0     0     0     0     0     0            PRN / # OF OBS
   G31     0     0     0     0     0     0     0            PRN / # OF OBS
   G32     0     0     0     0     0     0     0            PRN / # OF OBS
                                                            END OF HEADER
  8  6  4  1 33 15.0000000  0  8G24G29G15G26G21G 9G18G10
  20376359.953   107078493.62059       276.437    20376362.367    83437797.00457
       215.401  
  22639335.387   118970512.44558     -2183.395    22639338.718    92704305.36855
     -1701.348  
  20442819.422   107427741.20559      -987.332    20442821.181    83709935.64558
      -769.352  
  20271022.985   106524944.77159     -1987.382    20271025.216    83006458.41957
     -1548.613  
  22178625.770   116549464.00258      2930.707    22178626.046    90817766.05556
      2283.664  
  23184707.328   121836460.93357      3747.410    23184710.031    94937510.34855
      2920.059  
  23523529.630   123616982.14657      2034.582    23523531.640    96324929.88653
      1585.387  
  23037291.068   121061782.19357     -1976.948    23037294.252    94333867.25256
     -1540.484  
  8  6  4  1 33 30.0000000  0  8G24G29G15G26G21G 9G18G10
  20375580.700   107074398.30449       270.444    20375582.801    83434605.84348
       210.733  
  22645573.382   119003293.23648     -2186.652    22645576.326    92729848.82845
     -1703.886  
  20445644.912   107442590.65949      -991.746    20445646.974    83721506.63948
      -772.793  
  20276704.846   106554802.96249     -1992.668    20276706.715    83029724.55347
     -1552.729  
  22170264.376   116505525.02148      2928.672    22170264.416    90783527.89146
      2282.077  
  23174011.398   121780252.03248      3747.957    23174013.095    94893711.24945
      2920.483  
  23517721.046   123586458.61247      2036.031    23517723.153    96301145.35543
      1586.516  
  23042934.406   121091438.54347     -1976.367    23042937.546    94356976.07046
     -1540.031  
  8  6  4  1 33 45.0000000  0  8G24G29G15G26G21G 9G18G10
  20374822.623   107070415.36149       261.245    20374825.105    83431502.23748
       203.565  
  22651825.008   119036145.75248     -2192.968    22651827.594    92755448.16645
     -1708.808  
  20448488.385   107457533.46149      -999.813    20448490.667    83733150.36748
      -779.077  
  20282406.406   106584764.58349     -2001.280    20282407.994    83053071.27447
     -1559.440  
  22161913.236   116461641.17148      2923.397    22161913.576    90749332.69046
      2277.968  
  23163319.004   121724063.65248      3744.660    23163321.391    94849928.10145
      2917.913  
  23511912.302   123555933.55047      2034.444    23511914.106    96277359.65244
      1585.277  
  23048580.449   121121109.91547     -1979.152    23048583.828    94380096.61746
     -1542.198  
  8  6  4  1 34  0.0000000  0  8G24G29G15G26G21G 9G18G10
  20374086.715   107066548.79549       254.270    20374089.211    83428489.34247
       198.128  
  22658091.128   119069073.71448     -2197.410    22658093.351    92781106.33045
     -1712.270  
  20451350.465   107472573.32349     -1005.499    20451352.561    83744869.75248
      -783.507  
  20288128.165   106614833.06549     -2007.828    20288129.763    83076501.27147
     -1564.542  
  22153573.506   116417816.87148      2920.039    22153574.047    90715183.89946
      2275.351  
  23152631.491   121667899.99048      3743.667    23152633.552    94806164.18845
      2917.140  
  23506104.160   123525411.12247      2034.823    23506105.714    96253575.91244
      1585.573  
  23054230.642   121150800.31947     -1979.964    23054233.825    94403232.00346
     -1542.831  
  8  6  4  1 34 15.0000000  0  8G24G29G15G26G21G 9G18G10
  20373372.304   107062794.91549       246.203    20373374.907    83425564.23348
       191.844  
  22664370.794   119102072.98748     -2202.555    22664373.209    92806820.04645
     -1716.281  
  20454230.242   107487706.21849     -1012.108    20454232.322    83756661.64048
      -788.659  
  20293869.476   106645004.29949     -2015.016    20293871.254    83100011.31147
     -1570.145  
  22145244.585   116374048.87747      2915.668    22145245.366    90681079.03046
      2271.948  
  23141948.179   121611757.64848      3741.902    23141950.083    94762416.92046
      2915.766  
  23500295.718   123494887.29947      2034.480    23500297.495    96229791.16544
      1585.300  
  23059883.444   121180505.83848     -1981.136    23059886.549    94426379.15146
     -1543.746  
  8  6  4  1 34 30.0000000  0  8G24G29G15G26G21G 9G18G10
  20372680.333   107059158.58549       238.519    20372682.831    83422730.73448
       185.854  
  22670664.787   119135147.86748     -2207.511    22670667.288    92832592.65445
     -1720.140  
  20457128.464   107502936.82149     -1018.433    20457130.652    83768529.63048
      -793.585  
  20299631.159   106675282.71149     -2021.996    20299633.054    83123604.85647
     -1575.585  
  22136927.479   116330342.38248      2911.726    22136927.977    90647021.99346
      2268.875  
  23131269.694   121555641.98748      3740.094    23131272.079    94718690.43246
      2914.355  
  23494487.839   123464366.85047      2034.476    23494489.985    96206009.01043
      1585.304  
  23065540.091   121210231.59247     -1982.277    23065543.249    94449542.04746
     -1544.637  
  8  6  4  1 34 45.0000000  0  8G24G29G15G26G21G 9G18G10
  20372010.502   107055638.66249       230.698    20372012.997    83419987.93648
       179.761  
  22676972.746   119168296.66047     -2212.569    22676975.469    92858422.85145
     -1724.082  
  20460045.211   107518263.40049     -1025.026    20460047.303    83780472.42148
      -798.727  
  20305413.081   106705666.50849     -2029.285    20305415.020    83147280.54147
     -1581.266  
  22128621.706   116286696.21848      2907.726    22128622.250    90613011.99246
      2265.758  
  23120596.176   121499551.89848      3738.358    23120598.513    94674983.90246
      2913.004  
  23488680.587   123433848.37647      2034.421    23488682.354    96182228.38544
      1585.262  
  23071200.400   121239976.09047     -1983.805    23071203.244    94472719.56346
     -1545.824  
  8  6  4  1 35  0.0000000  0  8G24G29G15G26G21G 9G18G10
  20371362.719   107052234.50749       223.097    20371365.413    83417335.34648
       173.839  
  22683294.463   119201518.32347     -2217.058    22683297.470    92884309.85945
     -1727.582  
  20462980.018   107533685.03549     -1031.207    20462981.992    83792489.29448
      -803.542  
  20311214.693   106736154.59249     -2035.874    20311216.789    83171037.47447
     -1586.398  
  22120327.377   116243110.09948      2903.796    22120328.157    90579048.78846
      2262.694  
  23109927.325   121443486.98847      3736.890    23109929.978    94631296.97345
      2911.858  
  23482873.558   123403331.23547      2034.519    23482875.025    96158448.84344
      1585.340  
  23076864.038   121269738.64947     -1984.539    23076866.755    94495911.16445
     -1546.398  
  8  6  4  1 35 15.0000000  0  8G24G29G15G26G21G 9G18G10
  20370737.029   107048946.45449       215.352    20370739.716    83414773.22148
       167.804  
  22689629.821   119234812.66847     -2222.090    22689633.199    92910253.51444
     -1731.499  
  20465932.666   107549201.52649     -1037.598    20465934.710    83804580.05748
      -808.520  
  20317036.096   106766746.80049     -2042.940    20317038.219    83194875.56947
     -1591.906  
  22112044.494   116199584.56548      2899.660    22112045.502    90545132.79346
      2259.473  
  23099263.257   121387447.93247      3735.038    23099266.554    94587630.18946
      2910.417  
  23477066.615   123372815.54247      2034.254    23477068.363    96134670.37944
      1585.129  
  23082531.062   121299519.55847     -1986.047    23082533.625    94519117.04846
     -1547.569  
  8  6  4  1 35 30.0000000  0  8G24G29G15G26G21G 9G18G10
  20370133.650   107045775.86149       207.534    20370136.192    83412302.64147
       161.711  
  22695979.500   119268180.61047     -2226.776    22695982.793    92936254.51144
     -1735.156  
  20468903.779   107564814.04949     -1043.937    20468905.528    83816745.65648
      -813.461  
  20322877.777   106797444.10349     -2049.773    20322879.804    83218795.53947
     -1597.230  
  22103773.672   116156121.10448      2895.624    22103774.897    90511265.14446
      2256.327  
  23088604.443   121331436.36147      3733.387    23088607.895    94543984.88746
      2909.132  
  23471260.355   123342302.43947      2034.183    23471261.408    96110893.93044
      1585.073  
  23088201.710   121329319.82847     -1987.417    23088204.251    94542338.03246
     -1548.640  
  8  6  4  1 35 45.0000000  0  8G24G29G15G26G21G 9G18G10
  20369552.330   107042720.69049       199.983    20369554.635    83409921.97947
       155.828  
  22702342.759   119301619.45047     -2231.691    22702345.212    92962310.73945
     -1738.979  
  20471892.604   107580520.18349     -1050.058    20471894.353    83828984.20748
      -818.229  
  20328738.772   106828243.96649     -2056.539    20328740.914    83242795.42847
     -1602.499  
  22095514.043   116112717.80648      2891.542    22095515.533    90477444.42946
      2253.148  
  23077950.365   121275450.49247      3731.687    23077954.411    94500359.52846
      2907.804  
  23465453.945   123311789.82947      2034.421    23465455.037    96087117.90744
      1585.262  
  23093875.757   121359137.58547     -1988.288    23093878.311    94565572.61146
     -1549.319  
  8  6  4  1 36  0.0000000  0  8G24G29G15G26G21G 9G18G10
  20368993.242   107039782.60349       192.129    20368995.649    83407632.55747
       149.707  
  22708719.837   119335130.31647     -2236.249    22708722.105    92988423.08344
     -1742.535  
  20474899.481   107596321.14649     -1056.394    20474900.990    83841296.66348
      -823.168  
  20334619.776   106859147.44549     -2063.390    20334621.679    83266876.05147
     -1607.839  
  22087266.470   116069376.51848      2887.327    22087267.857    90443671.97845
      2249.862  
  23067301.992   121219492.19447      3729.820    23067305.901    94456755.65646
      2906.352  
  23459647.932   123281279.02747      2034.179    23459649.235    96063343.24145
      1585.070  
  23099553.610   121388974.15647     -1989.472    23099556.122    94588821.89146
     -1550.241  
  8  6  4  1 36 15.0000000  0  8G24G29G15G26G21G 9G18G10
  20368456.058   107036959.55449       184.301    20368458.417    83405432.77747
       143.609  
  22715109.981   119368710.83947     -2241.011    22715112.242    93014589.68544
     -1746.250  
  20477923.839   107612214.56749     -1062.816    20477925.518    83853681.13348
      -828.172  
  20340519.948   106890152.15149     -2070.405    20340521.443    83291035.56947
     -1613.309  
  22079030.343   116026095.31548      2883.289    22079031.772    90409946.40146
      2246.715  
  23056658.447   121163559.61247      3727.773    23056662.195    94413171.86546
      2904.753  
  23453841.825   123250768.16647      2034.038    23453843.295    96039568.60844
      1584.965  
  23105234.495   121418827.62447     -1990.769    23105237.372    94612084.31745
     -1551.254  
  8  6  4  1 36 30.0000000  0  8G24G29G15G26G21G 9G18G10
  20367941.172   107034253.99749       176.648    20367943.614    83403324.55647
       137.645  
  22721513.850   119402362.86947     -2245.765    22721516.921    93040812.06045
     -1749.948  
  20480966.256   107628202.60549     -1068.983    20480967.993    83866139.33948
      -832.977  
  20346439.683   106921260.09849     -2076.972    20346441.064    83315275.52247
     -1618.421  
  22070806.293   115982877.17148      2879.055    22070807.491    90376269.94045
      2243.418  
  23046020.316   121107655.70047      3726.007    23046024.272    94369610.38246
      2903.379  
  23448036.151   123220259.54947      2034.090    23448037.605    96015795.68444
      1584.999  
  23110919.086   121448700.38247     -1991.922    23110922.121    94635361.78845
     -1552.148  
  8  6  4  1 36 45.0000000  0  8G24G29G15G26G21G 9G18G10
  20367448.929   107031666.08649       168.745    20367451.089    83401307.99848
       131.488  
  22727931.098   119436086.17146     -2250.688    22727934.652    93067089.90744
     -1753.789  
  20484026.549   107644284.92949     -1075.230    20484028.493    83878671.01148
      -837.843  
  20352378.807   106952470.78349     -2083.977    20352380.258    83339595.53047
     -1623.882  
  22062594.288   115939722.29148      2874.831    22062595.417    90342642.74245
      2240.124  
  23035387.635   121051780.74048      3724.151    23035391.539    94326071.46246
      2901.934  
  23442231.142   123189753.11346      2033.765    23442232.587    95992024.38645
      1584.745  
  23116607.206   121478592.43947     -1993.465    23116610.674    94658654.27445
     -1553.352  
  8  6  4  1 37  0.0000000  0  8G24G29G15G26G21G 9G18G10
  20366978.492   107029194.64449       160.812    20366981.034    83399382.20548
       125.305  
  22734361.363   119469878.97247     -2255.331    22734365.091    93093421.97944
     -1757.410  
  20487104.698   107660460.02349     -1081.351    20487106.167    83891274.97748
      -842.612  
  20358337.164   106983782.56749     -2090.883    20358338.755    83363994.32847
     -1629.262  
  22054394.091   115896629.78248      2870.655    22054395.159    90309064.18145
      2236.871  
  23024760.369   120995933.92548      3722.051    23024764.100    94282554.46846
      2900.296  
  23436426.207   123159247.38347      2033.534    23436427.578    95968253.75145
      1584.570  
  23122298.718   121508502.31647     -1994.558    23122302.079    94681960.65946
     -1554.202  
  8  6  4  1 37 15.0000000  0  8G24G29G15G26G21G 9G18G10
  20366530.512   107026840.21249       153.128    20366532.903    83397547.58648
       119.315  
  22740805.322   119503741.48847     -2259.964    22740808.185    93119808.37144
     -1761.016  
  20490200.351   107676728.10449     -1087.597    20490201.918    83903951.40548
      -847.479  
  20364314.555   107015195.53049     -2097.559    20364316.225    83388471.97347
     -1634.465  
  22046205.992   115853600.24748      2866.688    22046206.802    90275534.66745
      2233.776  
  23014138.883   120940116.10948      3720.230    23014142.201    94239060.07045
      2898.879  
  23430621.581   123128743.14646      2033.929    23430622.948    95944484.16944
      1584.878  
  23127993.662   121538430.57447     -1995.930    23127997.075    94705281.37045
     -1555.273  
  8  6  4  1 37 30.0000000  0  8G24G29G15G26G21G 9G18G10
  20366104.405   107024601.38049       145.379    20366106.936    83395803.04248
       113.277  
  22747262.295   119537671.70247     -2264.273    22747264.741    93146247.48244
     -1764.371  
  20493313.291   107693087.40049     -1093.910    20493314.731    83916698.91748
      -852.402  
  20370310.965   107046707.90849     -2104.207    20370313.124    83413027.05248
     -1639.644  
  22038029.516   115810632.60648      2862.347    22038030.414    90242053.38246
      2230.398  
  23003522.479   120884326.02947      3718.352    23003525.295    94195587.30346
      2897.414  
  23424816.592   123098238.63147      2033.659    23424818.116    95920714.44345
      1584.667  
  23133692.055   121568375.83147     -1997.004    23133695.020    94728615.31645
     -1556.108  
  8  6  4  1 37 45.0000000  0  8G24G29G15G26G21G 9G18G10
  20365700.941   107022481.31849       137.351    20365703.342    83394151.05048
       107.023  
  22753732.591   119571672.21347     -2269.063    22753734.949    93172741.40444
     -1768.105  
  20496444.142   107709540.78849     -1100.027    20496445.750    83929519.72948
      -857.168  
  20376327.165   107078322.37849     -2110.961    20376329.174    83437661.70947
     -1644.906  
  22029865.635   115767730.21648      2858.198    22029866.170    90208622.95045
      2227.164  
  22992911.718   120828567.29348      3716.089    22992914.394    94152138.93646
      2895.652  
  23419011.952   123067736.79047      2033.543    23419013.703    95896946.78045
      1584.573  
  23139394.595   121598341.10047     -1998.348    23139396.705    94751964.85745
     -1557.156  
  8  6  4  1 38  0.0000000  0  8G24G29G15G26G21G 9G18G10
  20365319.984   107020479.28249       129.526    20365322.112    83392591.00847
       100.925  
  22760215.663   119605741.70446     -2273.453    22760218.408    93199289.02344
     -1771.522  
  20499592.719   107726086.95749     -1106.202    20499594.396    83942412.84448
      -861.980  
  20382362.427   107110037.48749     -2117.512    20382364.472    83462374.77948
     -1650.011  
  22021713.867   115724892.44748      2853.797    22021714.413    90175242.86546
      2223.729  
  22982307.081   120772839.20648      3714.038    22982309.611    94108714.46545
      2894.054  
  23413207.893   123037236.72546      2033.339    23413209.757    95873180.52945
      1584.422  
  23145100.376   121628325.49547     -1999.480    23145102.617    94775329.29844
     -1558.038  
  8  6  4  1 38 15.0000000  0  8G24G29G15G26G21G 9G18G10
  20364961.307   107018594.23249       121.723    20364963.325    83391122.14547
        94.843  
  22766711.844   119639878.67847     -2278.155    22766714.580    93225889.28944
     -1775.190  
  20502758.788   107742724.70049     -1112.176    20502760.621    83955377.31948
      -866.632  
  20388416.482   107141851.82149     -2124.219    20388418.759    83487165.16647
     -1655.238  
  22013574.389   115682118.42548      2849.573    22013574.799    90141912.44645
      2220.445  
  22971708.002   120717141.10548      3712.339    22971710.693    94065313.35746
      2892.730  
  23407403.977   123006737.37447      2033.187    23407405.702    95849414.77344
      1584.292  
  23150809.825   121658328.00847     -2000.788    23150811.670    94798707.85245
     -1559.059  
  8  6  4  1 38 30.0000000  0  8G24G29G15G26G21G 9G18G10
  20364624.499   107016824.73649       114.042    20364626.693    83389743.31948
        88.862  
  22773220.815   119674081.27246     -2282.183    22773223.006    93252540.67644
     -1778.327  
  20505942.023   107759452.05449     -1118.145    20505943.737    83968411.61648
      -871.284  
  20394489.075   107173763.60749     -2130.854    20394491.361    83512031.48647
     -1660.409  
  22005446.783   115639406.90848      2845.226    22005447.097    90108630.76945
      2217.054  
  22961114.144   120661471.88348      3710.362    22961116.976    94021934.76145
      2891.187  
  23401600.044   122976237.12947      2033.344    23401601.502    95825648.32544
      1584.418  
  23156522.237   121688346.90547     -2001.930    23156524.456    94822099.19645
     -1559.949  
  8  6  4  1 38 45.0000000  0  8G24G29G15G26G21G 9G18G10
  20364310.304   107015173.12949       106.261    20364312.607    83388456.34648
        82.797  
  22779742.600   119708351.48547     -2287.198    22779744.186    93279244.72644
     -1782.237  
  20509142.601   107776271.04949     -1124.351    20509144.387    83981517.33748
      -876.120  
  20400580.577   107205774.50949     -2137.245    20400583.019    83536975.05648
     -1665.391  
  21997331.600   115596760.86548      2840.827    21997332.110    90075400.06745
      2213.628  
  22950526.675   120605834.20048      3708.305    22950529.443    93978580.73946
      2889.585  
  23395796.276   122945738.12146      2033.129    23395797.518    95801882.91745
      1584.254  
  23162238.435   121718384.35147     -2002.972    23162240.667    94845505.00045
     -1560.762  
  8  6  4  1 39  0.0000000  0  8G24G29G15G26G21G 9G18G10
  20364018.639   107013640.60549        98.387    20364021.090    83387262.16447
        76.660  
  22786277.341   119742689.96546     -2291.441    22786279.093    93306002.01445
     -1785.542  
  20512360.727   107793182.50849     -1130.386    20512362.612    83994695.08648
      -880.824  
  20406691.181   107237885.26349     -2143.749    20406693.468    83561996.41847
     -1670.456  
  21989229.112   115554181.37948      2836.702    21989229.493    90042221.29745
      2210.417  
  22939945.380   120550229.43348      3706.019    22939948.244    93935252.37446
      2887.804  
  23389992.864   122915241.54646      2033.425    23389994.296    95778119.34844
      1584.483  
  23167958.162   121748441.72147     -2004.194    23167960.427    94868926.33644
     -1561.715  
  8  6  4  1 39 15.0000000  0  8G24G29G15G26G21G 9G18G10
  20363749.974   107012228.04549        90.355    20363752.298    83386161.47448
        70.402  
  22792824.967   119777097.16246     -2296.300    22792827.006    93332812.81044
     -1789.327  
  20515596.791   107810187.07649     -1136.476    20515598.536    84007945.40648
      -885.570  
  20412820.865   107270096.47149     -2150.608    20412823.187    83587096.06447
     -1675.801  
  21981139.258   115511669.65848      2832.116    21981139.754    90009095.26545
      2206.839  
  22929370.702   120494658.87248      3703.749    22929373.442    93891950.64246
      2886.034  
  23384190.200   122884748.37347      2032.941    23384191.495    95754358.47344
      1584.105  
  23173681.710   121778519.66847     -2005.676    23173683.910    94892363.66645
     -1562.866  
  8  6  4  1 39 30.0000000  0  8G24G29G15G26G21G 9G18G10
  20363503.349   107010932.89449        82.352    20363505.969    83385152.26848
        64.167  
  22799384.356   119811569.79645     -2300.448    22799387.322    93359674.58445
     -1792.563  
  20518849.728   107827281.74949     -1142.522    20518851.435    84021265.94948
      -890.280  
  20418968.997   107302404.93749     -2157.082    20418971.153    83612271.48747
     -1680.847  
  21973061.940   115469223.31948      2827.546    21973062.355    89976020.22745
      2203.280  
  22918802.210   120439120.16848      3701.608    22918804.814    93848673.74846
      2884.366  
  23378387.530   122854255.76046      2033.144    23378388.858    95730598.02145
      1584.266  
  23179408.839   121808615.65447     -2006.948    23179411.031    94915815.05045
     -1563.858  
  8  6  4  1 39 45.0000000  0  8G24G29G15G26G21G 9G18G10
  20363279.537   107009756.22449        74.422    20363282.162    83384235.37848
        57.987  
  22805956.071   119846108.45544     -2304.972    22805959.844    93386587.86743
     -1796.082  
  20522120.159   107844467.26249     -1148.781    20522121.882    84034657.26048
      -895.155  
  20425135.863   107334811.19249     -2163.777    20425137.907    83637523.12448
     -1686.063  
  21964997.349   115426843.63748      2823.073    21964997.746    89942997.06345
      2199.793  
  22908239.931   120383614.48648      3699.198    22908242.587    93805422.57046
      2882.488  
  23372585.219   122823764.47546      2032.613    23372586.484    95706838.55044
      1583.851  
  23185139.764   121838730.43047     -2008.266    23185141.824    94939281.12945
     -1564.886  
  8  6  4  1 40  0.0000000  0  8G24G29G15G26G21G 9G18G10
  20363078.216   107008698.27349        66.414    20363080.709    83383410.99248
        51.746  
  22812541.315   119880712.98855     -2309.184    22812545.193    93413554.36354
     -1799.367  
  20525407.636   107861743.60349     -1154.941    20525409.307    84048119.34048
      -899.957  
  20431321.164   107367315.04049     -2170.378    20431322.901    83662850.79748
     -1691.207  
  21956945.432   115384530.99448      2818.383    21956945.879    89910026.20346
      2196.137  
  22897683.967   120328142.42648      3696.750    22897686.665    93762197.61746
      2880.581  
  23366783.056   122793274.56045      2032.815    23366784.633    95683080.25443
      1584.007  
  23190874.077   121868864.10147     -2009.843    23190876.076    94962761.90045
     -1566.112  
  8  6  4  1 40 15.0000000  0  7G24G15G26G21G 9G18G10
  20362898.928   107007756.20549        58.894    20362901.456    83382676.91948
        45.886  
  20528711.905   107879107.21549     -1160.453    20528713.355    84061649.42848
      -904.253  
  20437524.315   107399913.16649     -2176.257    20437526.081    83688251.93947
     -1695.788  
  21948905.850   115342282.76748      2814.354    21948906.078    89877105.49945
      2192.999  
  22887133.749   120272701.56348      3694.960    22887136.639    93718996.99246
      2879.188  
  23360980.736   122762783.13145      2033.195    23360982.200    95659320.69543
      1584.304  
  23196611.254   121899013.85947     -2010.659    23196613.780    94986255.18245
     -1566.750  
  8  6  4  1 40 30.0000000  0  7G24G15G26G21G 9G18G10
  20362742.670   107006935.46949        50.477    20362745.266    83382037.37848
        39.328  
  20532033.642   107896563.47049     -1167.046    20532035.070    84075251.70348
      -909.390  
  20443746.107   107432610.77749     -2183.234    20443748.327    83713730.59147
     -1701.227  
  21940879.494   115300104.82648      2809.190    21940879.831    89844239.57845
      2188.977  
  22876590.688   120217297.74648      3692.160    22876593.816    93675825.17846
      2877.004  
  23355178.596   122732293.73956      2032.522    23355180.437    95635562.29353
      1583.776  
  23202353.011   121929185.21747     -2012.433    23202355.257    95009765.31945
     -1568.132  
  8  6  4  1 40 45.0000000  0  7G24G15G26G21G 9G18G10
  20362610.256   107006239.93949        42.690    20362612.781    83381495.40648
        33.261  
  20535373.651   107914115.80449     -1172.824    20535375.032    84088928.84848
      -913.891  
  20449987.642   107465410.86149     -2189.578    20449990.035    83739289.09247
     -1706.167  
  21932867.270   115258001.05548      2804.675    21932867.720    89811431.45045
      2185.457  
  22866055.523   120161934.95548      3690.172    22866058.601    93632685.35846
      2875.457  
  23349378.334   122701814.15945      2032.214    23349380.981    95611812.04944
      1583.547  
  23208099.335   121959381.97747     -2013.304    23208101.363    95033295.25545
     -1568.812  
  8  6  4  1 41  0.0000000  0  8G24G29G15G26G21G 9G18G10
  20362498.964   107005654.62649        35.027    20362501.503    83381039.30248
        27.288  
  22839005.296   120019775.74155     -2325.887    22839009.532    93521914.84654
     -1812.382  
  20538729.121   107931748.85349     -1178.520    20538730.398    84102668.88748
      -918.332  
  20456246.062   107498298.17049     -2195.765    20456248.120    83764915.56047
     -1710.988  
  21924866.353   115215956.64348      2800.823    21924867.001    89778669.62345
      2182.456  
  22855525.373   120106598.54848      3688.074    22855528.424    93589566.07346
      2873.820  
  23343577.534   122671322.09155      2031.969    23343579.906    95588041.83554
      1583.348  
  23213847.614   121989588.91847     -2014.316    23213849.854    95056833.11545
     -1569.605  
  8  6  4  1 41 15.0000000  0  8G24G29G15G26G21G 9G18G10
  20362409.540   107005184.29749        27.312    20362411.947    83380672.80648
        21.276  
  22845651.226   120054696.27744     -2330.188    22845655.899    93549125.60745
     -1815.733  
  20542100.963   107949467.16149     -1184.262    20542102.035    84116475.36448
      -922.804  
  20462521.857   107531277.07249     -2201.874    20462523.806    83790613.41447
     -1715.749  
  21916877.684   115173976.65348      2796.261    21916878.505    89745957.91246
      2178.902  
  22845001.157   120051293.64248      3685.741    22845004.227    93546471.37046
      2872.003  
  23337776.778   122640832.22446      2032.421    23337778.019    95564283.55044
      1583.702  
  23219598.563   122019810.82747     -2015.680    23219600.950    95080382.67646
     -1570.663  
  8  6  4  1 41 30.0000000  0  7G24G15G26G21G 9G18G10
  20362343.677   107004838.55849        18.895    20362346.247    83380403.39848
        14.718  
  20545490.459   107967279.89349     -1190.565    20545491.699    84130355.41148
      -927.719  
  20468816.617   107564356.63749     -2208.859    20468818.487    83816389.70347
     -1721.190  
  21908903.034   115132070.92547      2791.214    21908904.381    89713304.11046
      2174.969  
  22834484.622   119996029.99948      3682.695    22834487.714    93503408.81946
      2869.628  
  23331976.050   122610349.06945      2031.765    23331976.523    95540530.42244
      1583.187  
  23225353.818   122050057.27247     -2017.116    23225356.742    95103951.30846
     -1571.780  
  8  6  4  1 41 45.0000000  0  7G24G15G26G21G 9G18G10
  20362300.801   107004613.33549        10.711    20362303.233    83380227.89147
         8.343  
  20548897.312   107985182.46649     -1196.765    20548898.507    84144305.46948
      -932.547  
  20475129.871   107597532.32149     -2215.026    20475131.633    83842240.88747
     -1726.000  
  21900941.946   115090235.66047      2786.499    21900943.442    89680705.21146
      2171.296  
  22823975.624   119940804.02948      3680.257    22823978.662    93460375.60446
      2867.729  
  23326176.001   122579868.32746      2031.854    23326175.716    95516779.24341
      1583.265  
  23231113.086   122080324.05347     -2018.440    23231116.172    95127535.80445
     -1572.816  
  8  6  4  1 42  0.0000000  0  6G24G15G26G21G 9G10
  20362281.173   107004510.53449         1.609    20362283.561    83380147.80447
         1.250  
  20552321.461   108003176.74049     -1203.777    20552322.674    84158326.98748
      -938.011  
  20481461.606   107630805.65849     -2222.499    20481463.535    83868168.15847
     -1731.820  
  21892994.804   115048473.11448      2780.543    21892996.361    89648163.05246
      2166.664  
  22813473.837   119885617.98648      3676.569    22813477.011    93417373.53446
      2864.854  
  23236876.595   122110612.93348     -2020.891    23236879.979    95151137.56545
     -1574.722  
  8  6  4  1 42 15.0000000  0  6G24G15G26G21G 9G10
  20362284.317   107004527.93149        -3.844    20362286.951    83380161.37247
        -3.000  
  20555762.610   108021259.97249     -1207.136    20555763.736    84172417.80848
      -940.628  
  20487811.256   107664173.88549     -2226.562    20487813.340    83894169.38947
     -1734.987  
  21885061.081   115006781.24548      2778.617    21885062.289    89615675.85745
      2165.152  
  22802979.610   119830469.88848      3676.546    22802982.655    93374400.99746
      2864.840  
  23242644.402   122140921.55948     -2020.108    23242647.629    95174754.65946
     -1574.113  
  8  6  4  1 42 30.0000000  0  6G24G15G26G21G 9G10
  20362309.477   107004659.27249       -12.660    20362311.866    83380263.70848
        -9.867  
  20559219.513   108039425.49849     -1213.941    20559220.636    84186572.76648
      -945.930  
  20494177.799   107697630.20149     -2233.438    20494179.904    83920239.24847
     -1740.343  
  21877139.560   114965153.96548      2773.011    21877140.970    89583239.00446
      2160.784  
  22792491.453   119775353.62948      3673.262    22792494.630    93331453.28546
      2862.277  
  23248414.623   122171243.62147     -2021.792    23248417.857    95198382.21645
     -1575.426  
  8  6  4  1 42 45.0000000  0  7G24G15G26G21G 9G18G10
  20362357.228   107004910.64649       -20.914    20362359.893    83380459.59048
       -16.301  
  20562693.200   108057679.09849     -1219.773    20562694.363    84200796.35148
      -950.477  
  20500561.885   107731180.23749     -2239.918    20500564.318    83946382.13747
     -1745.394  
  21869231.654   114923597.63848      2767.925    21869232.969    89550857.43646
      2156.819  
  22782010.509   119720275.46048      3670.508    22782013.607    93288535.24946
      2860.132  
  23302976.839   122457970.72155      2031.690    23302975.949    95421794.82951
      1583.137  
  23254188.550   122201585.06348     -2023.409    23254191.302    95222024.91445
     -1576.687  
  8  6  4  1 43  0.0000000  0  6G24G15G26G21G 9G10
  20362427.279   107005278.23449       -28.538    20362430.147    83380746.01848
       -22.242  
  20566182.565   108076016.67849     -1225.581    20566183.898    84215085.38148
      -955.004  
  20506963.012   107764819.72949     -2245.879    20506965.578    83972594.72647
     -1750.038  
  21861336.610   114882108.62048      2763.328    21861337.988    89518528.37346
      2153.237  
  22771536.243   119665232.03548      3668.164    22771539.106    93245644.29246
      2858.305  
  23259965.475   122231942.16548     -2024.577    23259967.897    95245679.79545
     -1577.598  
  8  6  4  1 43 15.0000000  0  7G24G15G26G21G 9G18G10
  20362521.174   107005771.40549       -35.858    20362523.957    83381130.30948
       -27.944  
  20569689.743   108094447.49149     -1230.578    20569691.147    84229447.07148
      -958.895  
  20513383.169   107798557.73049     -2251.140    20513385.846    83998884.09147
     -1754.141  
  21853456.300   114840696.59548      2759.570    21853457.788    89486259.26846
      2150.179  
  22761070.325   119610233.26948      3666.366    22761073.227    93202788.11246
      2856.905  
  23291379.185   122397020.66556      2032.530    23291378.521    95374311.48554
      1583.789  
  23265747.174   122262324.60348     -2025.055    23265749.613    95269354.42446
     -1577.968  
  8  6  4  1 43 30.0000000  0  6G24G15G26G21G 9G10
  20362637.847   107006384.30849       -44.562    20362640.444    83381607.90148
       -34.727  
  20573213.202   108112964.92149     -1237.128    20573214.784    84243876.21448
      -963.999  
  20519820.919   107832387.89449     -2258.022    20519823.312    84025245.25047
     -1759.503  
  21845589.526   114799355.75948      2754.086    21845590.990    89454045.60946
      2146.038  
  22750611.713   119555273.35848      3663.078    22750614.734    93159962.24045
      2854.343  
  23271532.662   122292726.14148     -2027.043    23271534.881    95293043.94246
     -1579.516  
  8  6  4  1 43 45.0000000  0  7G24G15G26G21G 9G18G10
  20362777.340   107007117.31749       -54.784    20362780.112    83382179.06648
       -42.690  
  20576753.432   108131569.11449     -1244.969    20576754.861    84258372.98948
      -970.108  
  20526276.062   107866309.93249     -2266.414    20526278.562    84051678.01347
     -1766.039  
  21837736.428   114758086.67148      2747.042    21837737.863    89421887.89746
      2140.551  
  22740160.638   119500353.02748      3658.398    22740163.526    93117167.16546
      2850.694  
  23279780.809   122336077.75755      2029.776    23279785.483    95326834.05751
      1581.629  
  23277321.370   122323146.88248     -2030.499    23277323.925    95316748.38945
     -1582.210  
  8  6  4  1 44  0.0000000  0  6G24G15G26G21G 9G10
  20362938.700   107007965.58349       -58.984    20362941.600    83382840.05148
       -45.965  
  20580309.022   108150254.98949     -1247.008    20580310.802    84272933.41148
      -971.699  
  20532747.654   107900318.59348     -2268.761    20532750.270    84078178.26247
     -1767.871  
  21829896.231   114716885.31248      2745.929    21829897.601    89389782.93246
      2139.684  
  22729716.045   119445467.85047      3659.273    22729719.097    93074399.50346
      2851.379  
  23283113.243   122353582.00248     -2028.116    23283115.400    95340464.07345
     -1580.354  
  8  6  4  1 44 15.0000000  0  6G24G15G26G21G 9G10
  20363123.291   107008935.26949       -68.011    20363125.997    83383595.65648
       -52.999  
  20583881.561   108169028.34049     -1253.828    20583883.212    84287562.01748
      -977.011  
  20539236.952   107934419.80349     -2275.766    20539239.584    84104750.63747
     -1773.328  
  21822069.776   114675757.60748      2740.116    21822071.384    89357735.38146
      2135.124  
  22719279.646   119390624.36148      3655.440    22719282.660    93031664.32146
      2848.395  
  23288908.825   122384037.61748     -2030.418    23288910.588    95364195.71245
     -1582.147  
  8  6  4  1 44 30.0000000  0  6G24G15G26G21G 9G10
  20363331.127   107010027.70549       -77.137    20363333.674    83384446.90447
       -60.108  
  20587470.906   108187890.13349     -1260.625    20587472.316    84302259.52048
      -982.308  
  20545744.159   107968614.31549     -2282.991    20545746.584    84131395.71647
     -1778.957  
  21814257.522   114634704.87348      2734.108    21814259.188    89325746.24146
      2130.473  
  22708851.396   119335824.06847      3651.910    22708854.538    92988962.81146
      2845.641  
  23294708.590   122414515.02647     -2032.570    23294710.275    95387944.33645
     -1583.823  
  8  6  4  1 44 45.0000000  0  6G24G15G26G21G 9G10
  20363562.485   107011243.72149       -85.023    20363565.041    83385394.43848
       -66.253  
  20591077.032   108206840.85649     -1266.120    20591078.639    84317026.31048
      -986.590  
  20552269.023   108002902.52149     -2288.996    20552271.237    84158113.79747
     -1783.637  
  21806459.882   114593728.68948      2729.328    21806461.444    89293816.75247
      2126.745  
  22698431.553   119281068.20548      3649.078    22698434.855    92946295.95146
      2843.433  
  23300512.540   122445015.08348     -2034.277    23300514.296    95411710.61345
     -1585.156  
  8  6  4  1 45  0.0000000  0  6G24G15G26G21G 9G10
  20363816.492   107012578.97049       -93.308    20363819.033    83386434.90047
       -72.711  
  20594699.346   108225875.80849     -1271.976    20594700.816    84331858.73648
      -991.152  
  20558810.698   108037279.56749     -2295.175    20558813.055    84184901.10247
     -1788.452  
  21798676.085   114552824.83848      2724.210    21798677.722    89261943.61947
      2122.809  
  22688019.495   119226352.65848      3646.108    22688023.081    92903660.47646
      2841.121  
  23306319.807   122475533.38247     -2035.555    23306321.936    95435491.08545
     -1586.147  
  8  6  4  1 45 15.0000000  0  6G24G15G26G21G 9G10
  20364093.781   107014035.04349      -101.019    20364096.185    83387569.51147
       -78.718  
  20598338.041   108244996.12349     -1277.332    20598339.346    84346757.68848
      -995.327  
  20565369.562   108071746.50249     -2300.659    20565371.641    84211758.44847
     -1792.726  
  21790906.735   114511995.09648      2719.683    21790908.070    89230128.25546
      2119.198  
  22677615.637   119171679.16948      3643.319    22677618.992    92861057.78646
      2838.949  
  23312130.780   122506071.15847     -2036.429    23312133.087    95459286.74546
     -1586.832  
  8  6  4  1 45 30.0000000  0  7G24G15G26G21G 9G18G10
  20364394.147   107015613.22449      -108.995    20364396.563    83388799.25847
       -84.934  
  20601992.835   108264202.94749     -1282.960    20601994.489    84361724.04648
      -999.715  
  20571945.807   108106304.24949     -2306.570    20571947.588    84238686.57247
     -1797.332  
  21783151.375   114471240.96948      2714.762    21783152.675    89198371.77447
      2115.395  
  22667219.969   119117049.56548      3641.117    22667223.573    92818489.28146
      2837.230  
  23239200.391   122122824.65954      2030.917    23239201.871    95160652.92155
      1582.531  
  23317945.688   122536630.01947     -2037.473    23317948.342    95483098.83646
     -1587.645  
  8  6  4  1 45 45.0000000  0  6G24G15G26G21G 9G10
  20364716.907   107017309.43349      -117.089    20364719.142    83390120.97748
       -91.242  
  20605663.486   108283491.59649     -1288.761    20605665.037    84376754.16948
     -1004.234  
  20578538.321   108140948.36049     -2312.484    20578540.073    84265681.97647
     -1801.938  
  21775410.011   114430559.01448      2709.672    21775411.278    89166671.57746
      2111.448  
  22656832.199   119062460.15348      3637.887    22656835.572    92775952.09246
      2834.714  
  23323763.788   122567205.49647     -2038.941    23323766.843    95506923.87346
     -1588.788  
  8  6  4  1 46  0.0000000  0  8G24G29G15G26G21G 9G18G10
  20365063.059   107019128.07149      -124.999    20365065.330    83391538.09047
       -97.406  
  22974143.458   120729934.70155     -2405.684    22974143.036    94075277.23754
     -1874.563  
  20609350.558   108302866.35349     -1294.210    20609351.892    84391851.38148
     -1008.480  
  20585147.922   108175682.73848     -2318.273    20585150.030    84292747.70847
     -1806.449  
  21767682.951   114389953.38348      2704.934    21767684.187    89135030.80547
      2107.737  
  22646452.792   119007915.68948      3635.141    22646455.822    92733449.93545
      2832.573  
  23227608.893   122061905.42754      2031.031    23227609.175    95113168.04755
      1582.621  
  23329586.256   122597802.05347     -2040.144    23329589.217    95530765.30645
     -1589.727  
  8  6  4  1 46 15.0000000  0  7G24G29G15G26G21G 9G10
  20365432.460   107021069.09649      -131.870    20365434.587    83393050.57247
      -102.761  
  22981018.512   120766060.19746     -2408.797    22981018.894    94103426.94645
     -1876.987  
  20613053.764   108322326.86649     -1298.706    20613055.113    84407015.41848
     -1011.983  
  20591774.759   108210506.81349     -2323.004    20591777.000    84319883.35547
     -1810.136  
  21759970.510   114349424.42048      2701.007    21759971.814    89103449.83347
      2104.679  
  22636081.921   118953416.30148      3633.523    22636084.714    92690982.88945
      2831.312  
  23335412.514   122628419.77647     -2040.238    23335415.646    95554623.24345
     -1589.800  
  8  6  4  1 46 30.0000000  0  8G24G29G15G26G21G 9G18G10
  20365823.335   107023123.03249      -141.078    20365825.509    83394651.05448
      -109.934  
  22987902.333   120802233.23445     -2413.715    22987901.897    94131613.69245
     -1880.824  
  20616771.548   108341863.32849     -1305.331    20616772.760    84422238.62748
     -1017.144  
  20598416.795   108245410.63549     -2329.854    20598418.913    84347081.12847
     -1815.476  
  21752270.819   114308962.92548      2694.714    21752272.320    89071921.41047
      2099.773  
  22625717.748   118898952.73748      3629.371    22625720.432    92648543.76345
      2828.078  
  23216016.692   122000993.52956      2030.304    23216015.639    95065704.98854
      1582.042  
  23341240.997   122659048.91447     -2042.757    23341244.059    95578490.09245
     -1591.761  
  8  6  4  1 46 45.0000000  0  8G24G29G15G26G21G 9G18G10
  20366238.801   107025307.32449      -149.254    20366241.149    83396353.08947
      -116.304  
  22994796.771   120838470.81245     -2417.233    22994797.753    94159850.69645
     -1883.565  
  20620506.855   108361492.84249     -1310.995    20620508.193    84437534.35048
     -1021.558  
  20605077.326   108280411.24249     -2335.741    20605079.229    84374354.32247
     -1820.062  
  21744587.587   114268586.61448      2689.793    21744588.912    89040459.35847
      2095.937  
  22615363.787   118844542.74048      3626.511    22615366.530    92606146.38846
      2825.851  
  23210222.435   121970532.63054      2030.237    23210222.778    95041982.03454
      1581.999  
  23347075.181   122689706.78747     -2043.941    23347078.030    95602379.32045
     -1592.684  
  8  6  4  1 47  0.0000000  0  8G24G29G15G26G21G 9G18G10
  20366676.998   107027610.28149      -157.918    20366679.337    83398147.58447
      -123.055  
  23001701.574   120874761.01546     -2421.421    23001703.907    94188128.77145
     -1886.823  
  20624257.784   108381203.23149     -1317.206    20624259.013    84452893.07948
     -1026.398  
  20611753.837   108315496.67349     -2342.241    20611755.770    84401693.60947
     -1825.128  
  21736918.186   114228283.73148      2683.964    21736919.398    89009054.51346
      2091.397  
  22605017.854   118790175.09047      3622.710    22605020.483    92563781.99446
      2822.886  
  23204427.564   121940080.68945      2029.835    23204428.516    95018253.18645
      1581.688  
  23352912.419   122720381.77347     -2046.070    23352915.076    95626281.89345
     -1594.344  
  8  6  4  1 47 15.0000000  0  8G24G29G15G26G21G 9G18G10
  20367139.049   107030038.75049      -165.211    20367141.458    83400039.89548
      -128.738  
  23008618.035   120911110.01245     -2424.425    23008621.291    94216452.64745
     -1889.168  
  20628025.038   108401000.87849     -1321.891    20628026.193    84468319.83348
     -1030.047  
  20618447.874   108350673.13749     -2347.219    20618449.621    84429103.84047
     -1829.004  
  21729264.115   114188061.50548      2679.664    21729265.206    88977712.53146
      2088.046  
  22594681.153   118735857.07947      3620.438    22594684.255    92521456.27346
      2821.116  
  23198634.471   121909641.21756      2030.206    23198634.241    94994532.66155
      1581.977  
  23358754.239   122751080.80747     -2046.672    23358756.999    95650203.21346
     -1594.813  
  8  6  4  1 47 30.0000000  0  8G24G29G15G26G21G 9G18G10
  20367623.051   107032581.04149      -175.156    20367625.363    83402020.90448
      -136.488  
  23015541.919   120947483.51954     -2429.816    23015544.831    94244820.82351
     -1893.379  
  20631806.580   108420873.95449     -1329.188    20631808.034    84483805.34348
     -1035.734  
  20625156.640   108385928.47249     -2354.789    20625158.625    84456575.52947
     -1834.902  
  21721623.216   114147908.87348      2672.566    21721624.304    88946424.78446
      2082.516  
  22584351.991   118681577.15248      3615.897    22584355.076    92479160.23245
      2817.578  
  23192838.952   121879188.46545      2028.753    23192839.753    94970803.20245
      1580.839  
  23364598.551   122781792.06547     -2049.555    23364601.443    95674134.04646
     -1597.058  
  8  6  4  1 47 45.0000000  0  8G24G29G15G26G21G 9G18G10
  20368130.985   107035250.72649      -181.901    20368133.604    83404101.15848
      -141.746  
  23022481.491   120983938.71446     -2431.851    23022482.744    94273227.38545
     -1894.952  
  20635605.095   108440835.65749     -1333.444    20635606.505    84499359.91248
     -1039.050  
  20631882.903   108421275.84348     -2359.210    20631884.900    84484118.93947
     -1838.347  
  21713998.311   114107839.25848      2668.914    21713999.386    88915201.70947
      2079.671  
  22574032.751   118627349.15248      3613.866    22574035.503    92436904.68346
      2815.996  
  23187044.374   121848742.78246      2029.866    23187045.647    94947079.36844
      1581.710  
  23370447.725   122812529.02447     -2049.538    23370450.471    95698084.93246
     -1597.047  
  8  6  4  1 48  0.0000000  0  8G24G29G15G26G21G 9G18G10
  20368661.095   107038036.50349      -189.887    20368663.559    83406271.89448
      -147.968  
  23029428.372   121020442.00746     -2435.352    23029428.383    94301671.49144
     -1897.680  
  20639418.299   108460874.49249     -1338.652    20639419.730    84514974.58848
     -1043.108  
  20638624.499   108456703.57749     -2364.769    20638626.665    84511724.96447
     -1842.679  
  21706386.928   114067841.91848      2663.687    21706388.145    88884034.94946
      2075.597  
  22563721.355   118573162.21148      3610.949    22563723.990    92394681.10145
      2813.723  
  23181250.257   121818293.40146      2029.754    23181251.205    94923352.56845
      1581.625  
  23376299.618   122843280.36447     -2050.718    23376302.347    95722046.98246
     -1597.965  
  8  6  4  1 48 15.0000000  0  8G24G29G15G26G21G 9G18G10
  20369214.385   107040944.87049      -198.070    20369217.272    83408538.16048
      -154.344  
  23036385.437   121056999.38247     -2439.151    23036385.193    94330157.74641
     -1900.641  
  20643247.277   108480996.59649     -1344.316    20643248.808    84530654.14848
     -1047.522  
  20645382.581   108492217.72449     -2370.534    20645385.070    84539398.31447
     -1847.171  
  21698790.890   114027923.56448      2658.508    21698791.934    88852929.73646
      2071.563  
  22553419.232   118519023.31748      3607.539    22553421.258    92352494.95046
      2811.066  
  23175456.143   121787846.19046      2029.245    23175457.442    94899627.48544
      1581.226  
  23382155.344   122874052.50647     -2052.344    23382158.285    95746025.25745
     -1599.229  
  8  6  4  1 48 30.0000000  0  8G24G29G15G26G21G 9G18G10
  20369791.598   107043978.02049      -206.313    20369794.317    83410901.65948
      -160.766  
  23043352.520   121093612.74547     -2442.710    23043352.658    94358687.63342
     -1903.414  
  20647092.534   108501203.77749     -1350.180    20647093.922    84546399.99948
     -1052.090  
  20652157.560   108527820.04549     -2376.292    20652160.074    84567140.35747
     -1851.660  
  21691210.396   113988086.61548      2653.323    21691211.097    88821887.97346
      2067.522  
  22543126.879   118464935.10148      3604.113    22543128.884    92310348.30546
      2808.398  
  23169662.902   121757403.28147      2029.460    23169664.370    94875905.76044
      1581.398  
  23388015.336   122904847.53847     -2053.765    23388018.273    95770021.39746
     -1600.340  
  8  6  4  1 48 45.0000000  0  8G24G29G15G26G21G 9G18G10
  20370392.078   107047134.62649      -214.480    20370395.013    83413361.34548
      -167.129  
  23050329.860   121130280.00746     -2445.976    23050330.754    94387259.51745
     -1905.956  
  20650953.800   108521494.27349     -1355.319    20650955.206    84562210.78048
     -1056.097  
  20658948.744   108563508.76749     -2382.116    20658951.313    84594949.75247
     -1856.198  
  21683645.046   113948329.80449      2647.948    21683645.632    88790908.66046
      2063.335  
  22532843.774   118410896.36648      3601.121    22532845.706    92268240.22446
      2806.066  
  23163870.238   121726963.47347      2029.227    23163871.775    94852186.36545
      1581.203  
  23393879.306   122935664.19046     -2055.148    23393882.335    95794034.34246
     -1601.417  
  8  6  4  1 49  0.0000000  0  8G24G29G15G26G21G 9G18G10
  20371015.753   107050412.56349      -222.523    20371018.623    83415915.57947
      -173.397  
  23057316.124   121166998.63546     -2449.452    23057317.702    94415871.43443
     -1908.664  
  20654830.251   108541865.75649     -1360.839    20654831.871    84578084.66548
     -1060.397  
  20665756.179   108599281.29948     -2387.648    20665758.717    84622824.43347
     -1860.508  
  21676094.685   113908651.42249      2642.690    21676095.067    88759990.42247
      2059.238  
  22522569.706   118356905.08448      3598.016    22522571.534    92226169.11246
      2803.645  
  23158077.756   121696524.45846      2029.219    23158079.263    94828467.71444
      1581.214  
  23399747.095   122966500.25447     -2056.397    23399750.239    95818062.45946
     -1602.391  
  8  6  4  1 49 15.0000000  0  8G24G29G15G26G21G 9G18G10
  20371663.243   107053814.02149      -230.585    20371665.992    83418566.07347
      -179.680  
  23064313.510   121203770.39747     -2452.867    23064315.169    94444524.73744
     -1911.323  
  20658722.752   108562320.01749     -1366.063    20658724.257    84594023.05848
     -1064.468  
  20672579.729   108635139.45348     -2393.062    20672582.266    84650765.84947
     -1864.727  
  21668559.427   113869053.81148      2637.379    21668560.063    88729135.15346
      2055.097  
  22512304.906   118302963.91848      3594.762    22512307.066    92184137.05146
      2801.108  
  23152285.545   121666088.40446      2029.241    23152287.550    94804751.30344
      1581.219  
  23405619.006   122997357.94947     -2057.569    23405622.322    95842107.37845
     -1603.309  
  8  6  4  1 49 30.0000000  0  8G24G29G15G26G21G 9G18G10
  20372333.149   107057334.46149      -238.585    20372335.929    83421309.25747
      -185.913  
  23071319.899   121240590.21846     -2456.000    23071322.196    94473215.46645
     -1913.769  
  20662629.938   108582852.16749     -1371.426    20662631.434    84610022.13848
     -1068.647  
  20679418.665   108671078.08549     -2398.577    20679421.107    84678769.97847
     -1869.022  
  21661038.782   113829532.68148      2632.246    21661039.296    88698339.46047
      2051.097  
  22502049.107   118249068.67248      3591.480    22502050.917    92142140.77246
      2798.554  
  23146493.334   121635650.60147      2029.227    23146495.346    94781033.54244
      1581.210  
  23411494.630   123028232.62147     -2058.973    23411497.787    95866165.55045
     -1604.398  
  8  6  4  1 49 45.0000000  0  8G24G29G15G26G21G 9G18G10
  20373026.091   107060975.30549      -246.707    20373028.805    83424146.28147
      -192.242  
  23078335.921   121277459.29246     -2459.749    23078338.483    94501944.58145
     -1916.691  
  20666552.200   108603463.35349     -1376.741    20666553.513    84626082.79948
     -1072.789  
  20686273.093   108707098.28549     -2404.128    20686275.538    84706837.66447
     -1873.351  
  21653533.054   113790089.87648      2626.866    21653533.412    88667604.80846
      2046.906  
  22491802.424   118195221.14448      3588.417    22491804.070    92100181.67646
      2796.168  
  23140701.256   121605212.42847      2029.397    23140703.189    94757315.50244
      1581.347  
  23417373.760   123059125.68747     -2060.195    23417376.741    95890238.04145
     -1605.351  
  8  6  4  1 50  0.0000000  0  8G24G29G15G26G21G 9G18G10
  20373742.249   107064738.73849      -254.937    20373744.938    83427078.82248
      -198.656  
  23085361.680   121314379.18247     -2463.085    23085364.486    94530713.29444
     -1919.288  
  20670489.921   108624155.52949     -1382.199    20670491.202    84642206.57448
     -1077.043  
  20693143.270   108743201.77848     -2409.582    20693145.969    84734970.24347
     -1877.598  
  21646042.722   113750727.85148      2621.605    21646043.252    88636933.10746
      2042.805  
  22481564.983   118141423.96748      3584.784    22481566.772    92058261.81046
      2793.336  
  23134909.633   121574776.31047      2029.086    23134911.561    94733599.03545
      1581.102  
  23423256.893   123090039.29347     -2061.515    23423259.297    95914326.53045
     -1606.378  
  8  6  4  1 50 15.0000000  0  8G24G29G15G26G21G 9G18G10
  20374481.654   107068623.96349      -263.223    20374484.433    83430106.27448
      -205.113  
  23092396.717   121351348.74146     -2466.468    23092399.849    94559520.74345
     -1921.926  
  20674442.749   108644927.53049     -1387.601    20674443.974    84658392.54248
     -1081.250  
  20700029.247   108779387.42749     -2415.370    20700031.768    84763166.84447
     -1882.109  
  21638567.759   113711446.09248      2615.883    21638567.949    88606323.95746
      2038.347  
  22471337.234   118087676.75248      3581.195    22471339.048    92016380.86646
      2790.539  
  23129118.241   121544341.33647      2028.796    23129120.058    94709883.48345
      1580.878  
  23429143.613   123120972.56047     -2062.996    23429145.809    95938430.37446
     -1607.531  
  8  6  4  1 50 30.0000000  0  8G24G29G15G26G21G 9G18G10
  20375244.574   107072632.85449      -271.429    20375247.270    83433230.09048
      -211.507  
  23099441.797   121388369.35146     -2469.831    23099444.725    94588367.95744
     -1924.546  
  20678410.863   108665780.89449     -1392.983    20678412.076    84674641.91448
     -1085.445  
  20706930.920   108815656.65049     -2420.660    20706933.562    84791428.57047
     -1886.230  
  21631108.179   113672246.70848      2610.508    21631108.431    88575778.97846
      2034.160  
  22461119.400   118033981.48548      3577.922    22461121.528    91974540.42146
      2787.988  
  23123327.363   121513909.16446      2028.398    23123329.154    94686170.16945
      1580.570  
  23435034.142   123151927.28047     -2064.351    23435036.208    95962550.95046
     -1608.590  
  8  6  4  1 50 45.0000000  0  8G24G29G15G26G21G 9G18G10
  20376030.952   107076765.61449      -279.776    20376033.653    83436450.41548
      -218.011  
  23106496.311   121425440.70147     -2473.426    23106499.457    94617254.71744
     -1927.347  
  20682394.591   108686715.37149     -1398.586    20682395.738    84690954.50148
     -1089.809  
  20713848.655   108852009.12249     -2426.188    20713851.254    84819755.17547
     -1890.538  
  21623664.606   113633130.12248      2604.851    21623664.880    88545298.50646
      2029.749  
  22450911.421   117980338.85048      3574.253    22450913.756    91932740.98946
      2785.128  
  23117536.959   121483479.75847      2028.301    23117538.192    94662458.90043
      1580.491  
  23440928.410   123182903.64647     -2066.069    23440931.105    95986688.35046
     -1609.930  
  8  6  4  1 51  0.0000000  0  8G24G29G15G26G21G 9G18G10
  20376840.728   107081021.79449      -288.098    20376843.462    83439766.91448
      -224.495  
  23113560.391   121462561.84547     -2476.633    23113563.239    94646180.28845
     -1929.848  
  20686393.516   108707730.39349     -1403.987    20686394.671    84707329.83848
     -1094.020  
  20720782.124   108888444.03249     -2431.945    20720784.588    84848146.01847
     -1895.027  
  21616236.567   113594096.01048      2599.496    21616236.971    88514882.33646
      2025.578  
  22440713.323   117926748.67248      3570.714    22440716.285    91890982.42646
      2782.371  
  23111746.941   121453052.85646      2028.292    23111747.986    94638749.69244
      1580.484  
  23446826.788   123213901.30346     -2067.663    23446830.242    96010842.36046
     -1611.172  
  8  6  4  1 51 15.0000000  0  8G24G29G15G26G21G 9G18G10
  20377673.941   107085400.92149      -296.022    20377677.026    83443179.21948
      -230.672  
  23120633.987   121499732.06447     -2479.632    23120636.473    94675144.03045
     -1932.188  
  20690407.683   108728825.13849     -1409.042    20690408.934    84723767.29348
     -1097.957  
  20727730.915   108924960.51949     -2437.277    20727733.355    84876600.40247
     -1899.179  
  21608824.137   113555144.40048      2594.219    21608824.762    88484530.42446
      2021.464  
  22430525.120   117873210.92748      3567.258    22430528.349    91849264.71746
      2779.680  
  23105957.480   121422628.12647      2028.258    23105958.516    94615042.12543
      1580.456  
  23452729.002   123244919.61547     -2068.422    23452732.934    96035012.42946
     -1611.765  
  8  6  4  1 51 30.0000000  0  8G24G29G15G26G21G 9G18G10
  20378530.841   107089903.52249      -304.285    20378533.658    83446687.73448
      -237.108  
  23127716.255   121536951.28747     -2482.886    23127719.013    94704146.00445
     -1934.723  
  20694436.890   108749999.89049     -1414.316    20694438.448    84740267.10648
     -1102.065  
  20734695.189   108961558.71348     -2442.655    20734697.810    84905118.49147
     -1903.371  
  21601427.810   113516276.06548      2588.461    21601428.504    88454243.42146
      2016.979  
  22420347.344   117819726.41848      3564.140    22420350.748    91807588.48946
      2777.249  
  23100168.104   121392205.78147      2028.335    23100169.159    94591336.36144
      1580.519  
  23458635.523   123275959.15746     -2070.089    23458639.528    96059199.10045
     -1613.059  
  8  6  4  1 51 45.0000000  0  8G24G29G15G26G21G 9G18G10
  20379411.217   107094529.05349      -312.315    20379413.988    83450292.03947
      -243.367  
  23134807.625   121574218.72047     -2485.809    23134810.602    94733185.53045
     -1937.000  
  20698481.410   108771253.61048     -1419.352    20698482.835    84756828.44448
     -1105.991  
  20741674.917   108998237.58548     -2448.073    20741677.508    84933699.40847
     -1907.594  
  21594047.144   113477490.80948      2582.796    21594048.120    88424021.13846
      2012.565  
  22410179.759   117766295.02348      3560.352    22410182.991    91765953.62846
      2774.297  
  23094379.277   121361785.34847      2027.980    23094380.277    94567632.20044
      1580.242  
  23464545.750   123307019.54747     -2071.297    23464549.873    96083402.00545
     -1613.999  
  8  6  4  1 52  0.0000000  0  8G24G29G15G26G21G 9G18G10
  20380314.589   107099276.21449      -320.574    20380317.241    83453991.11447
      -249.801  
  23141908.062   121611532.45946     -2489.293    23141911.291    94762261.16345
     -1939.711  
  20702540.594   108792584.76949     -1424.672    20702542.073    84773450.12348
     -1110.136  
  20748669.664   109034995.51148     -2453.238    20748671.956    84962341.94147
     -1911.617  
  21586682.230   113438787.57848      2577.237    21586683.064    88393862.77746
      2008.233  
  22400021.954   117712915.77148      3556.913    22400025.214    91724359.41746
      2771.617  
  23088590.396   121331365.48246      2028.394    23088591.355    94543928.41144
      1580.562  
  23470459.962   123338099.09347     -2072.667    23470463.697    96107619.81445
     -1615.069  
  8  6  4  1 52 15.0000000  0  8G24G29G15G26G21G 9G18G10
  20381241.107   107104145.00749      -328.539    20381243.549    83457784.97548
      -256.007  
  23149017.239   121648892.09247     -2492.113    23149020.394    94791372.53545
     -1941.914  
  20706614.463   108813993.00049     -1429.495    20706615.775    84790131.84848
     -1113.894  
  20755679.299   109071831.95349     -2458.379    20755681.800    84991045.67247
     -1915.624  
  21579332.924   113400166.84048      2571.991    21579333.885    88363768.71046
      2004.148  
  22389874.199   117659588.92948      3553.300    22389877.659    91682806.03446
      2768.801  
  23082801.708   121300946.00146      2028.175    23082802.875    94520224.95744
      1580.391  
  23476378.066   123369197.87747     -2073.800    23476381.559    96131852.59444
     -1615.953  
  8  6  4  1 52 30.0000000  0  8G24G29G15G26G21G 9G18G10
  20382190.646   107109135.86549      -336.702    20382193.368    83461673.94948
      -262.370  
  23156135.065   121686297.54947     -2494.953    23156138.405    94820519.63145
     -1944.124  
  20710703.178   108835478.46649     -1434.706    20710704.393    84806873.77548
     -1117.956  
  20762704.059   109108746.97348     -2463.496    20762706.484    85019810.61147
     -1919.608  
  21571999.382   113361628.81948      2566.605    21572000.521    88333739.09346
      1999.948  
  22379736.825   117606315.19848      3549.379    22379740.093    91641294.04946
      2765.746  
  23077013.145   121270527.27347      2027.961    23077014.969    94496522.10444
      1580.229  
  23482300.086   123400316.24347     -2075.055    23482303.122    96156100.65345
     -1616.930  
  8  6  4  1 52 45.0000000  0  8G24G29G15G26G21G 9G18G10
  20383163.811   107114249.91449      -345.129    20383166.539    83465658.91948
      -268.934  
  23163261.966   121723749.57547     -2498.254    23163265.265    94849702.99444
     -1946.694  
  20714806.588   108857041.93949     -1440.293    20714807.808    84823676.48048
     -1122.309  
  20769744.092   109145741.31448     -2468.718    20769746.326    85048637.36747
     -1923.679  
  21564681.987   113323175.17648      2560.965    21564682.928    88303775.21147
      1995.555  
  22369609.603   117553096.25848      3545.910    22369612.759    91599824.77847
      2763.042  
  23071225.101   121240110.39846      2027.847    23071226.959    94472820.63944
      1580.137  
  23488225.868   123431455.52847     -2076.660    23488228.863    96180365.00845
     -1618.179  
  8  6  4  1 53  0.0000000  0  8G24G29G15G26G21G 9G18G10
  20384160.859   107119488.84049      -353.246    20384163.544    83469741.20748
      -275.262  
  23170397.932   121761249.45446     -2501.194    23170401.345    94878923.67344
     -1948.987  
  20718925.099   108878684.95249     -1445.199    20718926.412    84840541.16048
     -1126.132  
  20776799.315   109182816.19648     -2474.156    20776801.383    85077526.89847
     -1927.918  
  21557380.968   113284808.03648      2555.073    21557381.671    88273878.72246
      1990.965  
  22359493.197   117499934.15248      3542.249    22359496.395    91558399.77346
      2760.191  
  23065437.885   121209697.12246      2027.961    23065439.217    94449121.99144
      1580.227  
  23494155.632   123462617.49546     -2077.883    23494158.572    96204647.02245
     -1619.137  
  8  6  4  1 53 15.0000000  0  8G24G29G15G26G21G 9G18G10
  20385181.154   107124849.90349      -361.190    20385183.654    83473918.64148
      -281.448  
  23177542.203   121798793.91647     -2504.281    23177546.046    94908179.09245
     -1951.391  
  20723058.256   108900404.37149     -1450.266    20723059.413    84857465.39248
     -1130.081  
  20783869.124   109219968.45348     -2479.117    20783871.312    85106476.70147
     -1931.781  
  21550095.649   113246524.67648      2549.758    21550096.622    88244047.56946
      1986.820  
  22349386.962   117446826.40248      3538.995    22349390.354    91517017.12946
      2757.655  
  23059650.635   121179284.72946      2027.737    23059651.701    94425423.98945
      1580.047  
  23500089.431   123493799.12947     -2079.086    23500091.698    96228944.43045
     -1620.070  
  8  6  4  1 53 30.0000000  0  8G24G29G15G26G21G 9G18G10
  20386224.988   107130334.56849      -369.733    20386227.480    83478192.39948
      -288.109  
  23184695.406   121836383.93747     -2507.648    23184699.313    94937470.02445
     -1954.011  
  20727205.945   108922201.21649     -1455.722    20727207.185    84874449.94848
     -1134.332  
  20790953.945   109257199.00248     -2484.578    20790956.227    85135487.52347
     -1936.038  
  21542826.770   113208326.64248      2543.604    21542827.568    88214282.85446
      1982.026  
  22339291.449   117393774.81348      3534.984    22339294.817    91475678.25046
      2754.531  
  23053863.871   121148874.48547      2027.112    23053864.389    94401727.75743
      1579.574  
  23506027.002   123525001.77547     -2080.777    23506029.431    96253258.17244
     -1621.387  
  8  6  4  1 53 45.0000000  0  8G24G29G15G26G21G 9G18G10
  20387291.966   107135941.01249      -377.750    20387294.335    83482561.05747
      -294.355  
  23191857.036   121874017.30747     -2510.491    23191860.715    94966794.70545
     -1956.229  
  20731368.022   108944073.42549     -1460.656    20731369.631    84891493.21948
     -1138.176  
  20798052.977   109294505.82448     -2489.625    20798055.553    85164557.76547
     -1939.973  
  21535573.862   113170212.63948      2538.054    21535574.828    88184583.65947
      1977.703  
  22329206.415   117340777.94748      3531.284    22329209.747    91434382.01346
      2751.647  
  23048076.978   121118464.62546      2027.449    23048077.225    94378031.75542
      1579.827  
  23511968.597   123556223.69347     -2082.183    23511970.290    96277586.90345
     -1622.484  
  8  6  4  1 54  0.0000000  0  8G24G29G15G26G21G 9G18G10
  20388382.252   107141671.03749      -386.027    20388384.596    83487026.02348
      -300.805  
  23199026.966   121911695.51147     -2513.328    23199030.749    94996154.32845
     -1958.440  
  20735544.855   108966022.60849     -1465.761    20735546.378    84908596.48648
     -1142.155  
  20805166.978   109331890.27648     -2494.734    20805169.809    85193688.48747
     -1943.953  
  21528337.296   113132184.75548      2532.495    21528338.439    88154951.53947
      1973.371  
  22319132.515   117287838.14848      3527.516    22319135.234    91393130.22346
      2748.711  
  23042290.435   121088056.98046      2026.977    23042290.930    94354337.47043
      1579.457  
  23517914.138   123587466.91347     -2083.558    23517915.932    96301932.25045
     -1623.555  
  8  6  4  1 54 15.0000000  0  8G24G29G15G26G21G 9G18G10
  20389495.753   107147523.74649      -394.374    20389498.175    83491586.56947
      -307.309  
  23206205.335   121949417.12747     -2516.315    23206208.662    95025547.74345
     -1960.773  
  20739736.095   108988047.31949     -1470.948    20739737.454    84925758.58848
     -1146.198  
  20812295.238   109369350.97048     -2500.141    20812298.166    85222878.63647
     -1948.164  
  21521117.130   113094242.43548      2526.269    21521118.270    88125386.09346
      1968.519  
  22309069.138   117234954.65148      3523.359    22309071.714    91351922.32046
      2745.473  
  23036504.431   121057650.54646      2026.718    23036504.888    94330644.25345
      1579.262  
  23523863.515   123618730.28347     -2085.148    23523865.352    96326293.31945
     -1624.793  
  8  6  4  1 54 30.0000000  0  8G24G29G15G26G21G 9G18G10
  20390634.018   107153505.17849      -402.750    20390636.525    83496247.42148
      -313.836  
  23213392.941   121987187.68948     -2519.215    23213396.017    95054979.29245
     -1963.035  
  20743942.711   109010153.48549     -1476.230    20743944.242    84942984.18148
     -1150.312  
  20819439.461   109406893.61348     -2505.387    20819442.066    85252132.61747
     -1952.254  
  21513914.558   113056392.00848      2520.507    21513915.279    88095892.23746
      1964.022  
  22299017.641   117182133.96048      3519.629    22299020.222    91310763.32846
      2742.566  
  23030719.138   121027251.34544      2026.948    23030720.631    94306956.53243
      1579.438  
  23529817.243   123650019.68347     -2086.245    23529819.700    96350674.66146
     -1625.647  
  8  6  4  1 54 45.0000000  0  8G24G29G15G26G21G 9G18G10
  20391795.556   107159609.94449      -410.117    20391798.306    83501004.37748
      -319.574  
  23220588.872   122025001.46648     -2521.344    23220591.534    95084444.57646
     -1964.687  
  20748163.717   109032335.43049     -1480.238    20748165.265    84960268.81348
     -1153.437  
  20826598.224   109444512.35548     -2509.335    20826600.433    85281445.93247
     -1955.328  
  21506728.321   113018628.32948      2515.769    21506729.165    88066466.02246
      1960.336  
  22288977.187   117129370.95648      3516.620    22288979.819    91269649.30646
      2740.223  
  23024934.653   120996849.07655      2027.395    23024937.554    94283269.36154
      1579.770  
  23535775.103   123681329.72946     -2087.175    23535777.964    96375072.09846
     -1626.375  
  8  6  4  1 55  0.0000000  0  8G24G29G15G26G21G 9G18G10
  20392980.128   107165834.97949      -419.772    20392982.961    83505855.05848
      -327.097  
  23227792.269   122062854.97947     -2525.598    23227794.561    95113940.79845
     -1968.000  
  20752398.366   109054589.72148     -1486.788    20752400.235    84977609.80648
     -1158.538  
  20833770.589   109482203.73449     -2515.913    20833772.766    85310815.84547
     -1960.457  
  21499558.026   112980948.58048      2508.422    21499558.949    88037105.18646
      1954.608  
  22278947.128   117076662.98648      3511.457    22278949.632    91228578.18146
      2736.195  
  23019149.359   120966450.42946      2025.987    23019152.143    94259582.09944
      1578.688  
  23541736.577   123712657.51547     -2089.796    23541739.693    96399483.31845
     -1628.418  
  8  6  4  1 55 15.0000000  0  8G24G29G15G26G21G 9G18G10
  20394188.677   107172185.06749      -427.355    20394191.378    83510803.17048
      -333.007  
  23235004.157   122100752.45948     -2527.898    23235006.557    95143471.24745
     -1969.797  
  20756647.582   109076920.87648     -1490.874    20756649.719    84995010.70348
     -1161.722  
  20840957.906   109519972.21348     -2520.081    20840959.920    85340245.82147
     -1963.703  
  21492404.667   112943357.89248      2503.355    21492405.635    88007813.74847
      1950.664  
  22268928.704   117024015.15448      3508.214    22268930.670    91187553.92546
      2733.671  
  23013365.008   120936055.18145      2026.484    23013368.507    94235897.57641
      1579.073  
  23547702.247   123744007.88747     -2090.343    23547705.688    96423912.19645
     -1628.843  
  8  6  4  1 55 30.0000000  0  8G24G29G15G26G21G 9G18G10
  20395419.859   107178655.00649      -435.202    20395422.591    83515844.68848
      -339.120  
  23242223.110   122138688.40547     -2530.141    23242225.133    95173031.70445
     -1971.542  
  20760910.583   109099323.44049     -1495.641    20760912.868    85012467.24148
     -1165.438  
  20848158.671   109557812.02148     -2524.976    20848160.871    85369731.38747
     -1967.515  
  21485267.648   112905851.32449      2497.750    21485268.294    87978587.84046
      1946.296  
  22258920.614   116971422.69648      3504.723    22258922.589    91146572.78646
      2730.949  
  23007581.407   120905658.31146      2026.558    23007583.653    94212211.62943
      1579.132  
  23553671.364   123775375.58747     -2091.597    23553675.067    96448354.55646
     -1629.820  
  8  6  4  1 55 45.0000000  0  8G24G29G15G26G21G 9G18G10
  20396674.886   107185250.34449      -443.895    20396677.641    83520983.90548
      -345.895  
  23249450.149   122176667.78248     -2533.199    23249452.252    95202626.08145
     -1973.925  
  20765188.230   109121802.47149     -1501.203    20765190.411    85029983.37748
     -1169.773  
  20855373.834   109595728.45848     -2530.445    20855376.067    85399276.65847
     -1971.777  
  21478147.511   112868434.90548      2491.559    21478148.336    87949432.20947
      1941.477  
  22248924.321   116918891.60248      3499.823    22248926.418    91105639.48246
      2727.133  
  23001797.675   120875264.96745      2026.034    23001800.353    94188528.57741
      1578.734  
  23559644.875   123806766.25947     -2093.456    23559648.430    96472814.79145
     -1631.270  
  8  6  4  1 56  0.0000000  0  8G24G29G15G26G21G 9G18G10
  20397953.691   107191970.75849      -451.938    20397956.606    83526220.58448
      -352.163  
  23256685.519   122214690.06447     -2536.065    23256687.511    95232253.81944
     -1976.159  
  20769480.488   109144357.56649     -1506.034    20769482.382    85047558.78048
     -1173.534  
  20862603.330   109633720.62248     -2535.109    20862605.678    85428880.92547
     -1975.414  
  21471044.678   112831108.29748      2485.766    21471045.165    87920346.53546
      1936.956  
  22238939.644   116866421.83448      3495.999    22238941.686    91064753.95546
      2724.151  
  22996015.227   120844875.15445      2026.183    22996017.454    94164848.19941
      1578.843  
  23565622.525   123838179.30147     -2094.753    23565625.842    96497292.48145
     -1632.277  
  8  6  4  1 56 15.0000000  0  8G24G29G15G26G21G 9G18G10
  20399255.877   107198813.25849      -460.190    20399258.670    83531552.41348
      -358.594  
  23263928.459   122252751.78548     -2538.934    23263930.854    95261912.28545
     -1978.395  
  20773786.573   109166985.35349     -1510.762    20773788.133    85065190.83248
     -1177.218  
  20869846.707   109671785.51048     -2540.035    20869849.186    85458541.87847
     -1979.249  
  21463958.553   112793860.11759      2479.582    21463958.759    87891320.98356
      1932.137  
  22228966.192   116814010.86548      3491.902    22228968.547    91023914.24146
      2720.960  
  22990232.310   120814485.94145      2025.809    22990234.972    94141168.21341
      1578.535  
  23571603.953   123869611.73247     -2096.108    23571606.927    96521785.27745
     -1633.336  
  8  6  4  1 56 30.0000000  0  8G24G29G15G26G21G 9G18G10
  20400581.725   107205780.88949      -468.694    20400584.494    83536981.72248
      -365.218  
  23271179.706   122290855.43948     -2541.616    23271182.001    95291603.42545
     -1980.483  
  20778106.828   109189688.50749     -1515.930    20778108.311    85082881.61148
     -1181.245  
  20877104.395   109709925.36048     -2545.215    20877107.293    85488261.23747
     -1983.289  
  21456889.094   112756711.60949      2473.722    21456889.682    87862374.10746
      1927.573  
  22219004.643   116761662.00948      3487.933    22219006.842    90983122.94547
      2717.866  
  22984449.483   120784099.97843      2025.723    22984452.576    94117490.95641
      1578.483  
  23577589.891   123901066.67147     -2097.792    23577592.127    96546295.60845
     -1634.648  
  8  6  4  1 56 45.0000000  0  7G24G29G15G26G21G 9G10
  20401930.901   107212870.98349      -477.034    20401933.724    83542506.47147
      -371.718  
  23278438.217   122328998.01748     -2544.426    23278440.313    95321324.87445
     -1982.671  
  20782440.997   109212464.25049     -1520.979    20782442.251    85100628.93448
     -1185.183  
  20884375.932   109748137.32248     -2550.250    20884378.700    85518036.77847
     -1987.211  
  21449836.898   112719651.13149      2467.523    21449837.143    87833495.82547
      1922.742  
  22209054.209   116709373.06148      3483.851    22209056.805    90942378.33146
      2714.687  
  23583579.572   123932541.62447     -2099.319    23583581.291    96570821.54545
     -1635.836  
  8  6  4  1 57  0.0000000  0  8G24G29G15G26G21G 9G18G10
  20403303.604   107220084.89449      -485.121    20403306.524    83548127.69848
      -378.020  
  23285704.258   122367180.53748     -2546.898    23285706.431    95351077.47746
     -1984.598  
  20786789.023   109235313.59249     -1525.741    20786790.398    85118433.62048
     -1188.894  
  20891661.345   109786422.39948     -2554.765    20891664.254    85547869.31247
     -1990.729  
  21442801.496   112682680.59349      2461.644    21442802.064    87804687.60447
      1918.159  
  22199115.464   116657145.88648      3479.679    22199118.070    90901681.84146
      2711.434  
  22972885.983   120723329.18855      2025.348    22972886.056    94070125.36452
      1578.191  
  23589573.220   123964037.83747     -2100.418    23589574.906    96595364.05245
     -1636.690  
  8  6  4  1 57 15.0000000  0  8G24G29G15G26G21G 9G18G10
  20404699.923   107227422.69849      -493.647    20404702.888    83553845.45148
      -384.664  
  23292977.571   122405402.43047     -2550.109    23292979.592    95380860.73046
     -1987.102  
  20791151.206   109258236.14549     -1531.038    20791152.521    85136295.34848
     -1193.020  
  20898960.720   109824780.09248     -2559.925    20898963.193    85577758.43247
     -1994.750  
  21435783.474   112645800.26449      2455.382    21435783.861    87775949.67346
      1913.281  
  22189188.826   116604980.70548      3475.250    22189191.366    90861033.64846
      2707.984  
  22967104.628   120692948.49405      2024.808           0.000           0.00000
         0.000  
  23595570.919   123995555.23947     -2102.194    23595572.373    96619923.05445
     -1638.077  
  8  6  4  1 57 30.0000000  0  8G24G29G15G26G21G 9G18G10
  20406120.694   107234888.02649      -501.641    20406123.443    83559662.57548
      -390.890  
  23300258.716   122443666.98147     -2551.608    23300260.981    95410677.23845
     -1988.269  
  20795527.832   109281235.21949     -1535.418    20795529.065    85154216.68948
     -1196.434  
  20906274.307   109863213.52948     -2564.202    20906276.677    85607706.55247
     -1998.081  
  21428783.101   112609013.99649      2449.543    21428783.760    87747285.05447
      1908.729  
  22179274.853   116552881.52148      3471.288    22179277.120    90820436.87546
      2704.898  
  22961324.834   120662573.65605      2024.995           0.000           0.00000
         0.000  
  23601573.160   124027097.59947     -2103.382    23601574.504    96644501.49445
     -1639.004  
  8  6  4  1 57 45.0000000  0  7G24G29G15G26G21G 9G10
  20407564.298   107242474.77449      -510.555    20407567.214    83565574.32748
      -397.840  
  23307546.829   122481967.80347     -2555.081    23307549.246    95440522.02645
     -1990.976  
  20799917.607   109304304.57848     -1540.905    20799919.111    85172192.81848
     -1200.710  
  20913601.278   109901716.52248     -2569.695    20913603.336    85637708.87247
     -2002.362  
  21421799.898   112572316.20249      2442.667    21421800.247    87718689.36246
      1903.374  
  22169372.189   116500842.63748      3466.559    22169374.712    90779887.10846
      2701.210  
  23607578.955   124058658.82947     -2105.491    23607580.529    96669094.66044
     -1640.644  
  8  6  4  1 58  0.0000000  0  8G24G29G15G26G21G 9G18G10
  20409032.244   107250188.32049      -518.108    20409035.013    83571584.87448
      -403.726  
  23314842.886   122520309.96747     -2557.245    23314845.570    95470399.00245
     -1992.668  
  20804321.946   109327449.38448     -1545.160    20804323.482    85190227.72948
     -1204.022  
  20920942.510   109940294.05348     -2573.965    20920944.422    85667769.26447
     -2005.691  
  21414834.350   112535712.50348      2437.499    21414834.957    87690167.00846
      1899.347  
  22159482.107   116448869.84248      3463.016    22159484.457    90739388.85446
      2698.448  
  22949765.754   120601832.22254      2025.285    22949764.679    93975444.22355
      1578.129  
  23613589.452   124090244.17147     -2105.938    23613591.186    96693706.64045
     -1640.991  
  8  6  4  1 58 15.0000000  0  8G24G29G15G26G21G 9G18G10
  20410522.671   107258020.28449      -526.227    20410525.460    83577687.69248
      -410.050  
  23322145.442   122558684.43947     -2559.761    23322147.976    95500301.19946
     -1994.620  
  20808738.865   109350660.98149     -1549.733    20808740.625    85208314.69148
     -1207.589  
  20928296.069   109978937.23448     -2578.543    20928297.712    85697880.82147
     -2009.261  
  21407885.223   112499194.80849      2431.401    21407885.765    87661711.66646
      1894.597  
  22149603.201   116396955.15748      3458.738    22149605.459    90698935.85046
      2695.117  
  22943985.810   120571458.69045      2025.020    22943986.891    93951776.52042
      1577.921  
  23619602.860   124121845.41047     -2107.198    23619604.830    96718330.94844
     -1641.977  
  8  6  4  1 58 30.0000000  0  8G24G29G15G26G21G 9G18G10
  20412037.674   107265981.96149      -534.808    20412040.548    83583891.59748
      -416.737  
  23329456.216   122597102.06747     -2562.254    23329458.723    95530236.98446
     -1996.566  
  20813170.768   109373950.41349     -1554.906    20813172.672    85226462.27948
     -1211.616  
  20935664.077   110017656.97048     -2583.602    20935665.959    85728052.06147
     -2013.198  
  21400954.775   112462774.71849      2424.968    21400955.376    87633332.35046
      1889.581  
  22139737.389   116345110.21048      3454.315    22139739.787    90658537.19946
      2691.671  
  22938207.635   120541097.36356      2024.206    22938207.054    93928148.30653
      1577.304  
  23625621.343   124153473.65747     -2108.968    23625623.910    96742976.32144
     -1643.358  
  8  6  4  1 58 45.0000000  0  8G24G29G15G26G21G 9G18G10
  20413575.290   107274061.69149      -542.905    20413578.008    83590187.49248
      -423.047  
  23336772.776   122635550.84647     -2564.813    23336775.842    95560197.02046
     -1998.558  
  20817615.084   109397305.57349     -1559.444    20817617.168    85244661.12248
     -1215.156  
  20943044.747   110056441.18248     -2588.335    20943046.134    85758273.51947
     -2016.887  
  21394040.691   112426440.70849      2419.062    21394041.431    87605020.15147
      1884.979  
  22129882.658   116293323.75248      3449.987    22129885.179    90618184.13146
      2688.300  
  22932429.188   120510728.23145      2024.101    22932429.310    93904483.97244
      1577.214  
  23631643.116   124185117.31847     -2110.366    23631645.252    96767633.71044
     -1644.444  
  8  6  4  1 59  0.0000000  0  8G24G29G15G26G21G 9G18G10
  20415136.339   107282265.90149      -551.366    20415139.263    83596580.38048
      -429.641  
  23344096.526   122674036.81847     -2567.151    23344099.717    95590186.06646
     -2000.383  
  20822073.080   109420732.56748     -1564.335    20822075.194    85262915.92948
     -1218.964  
  20950438.558   110095296.04948     -2593.027    20950439.986    85788550.04547
     -2020.542  
  21387144.322   112390199.73649      2412.754    21387145.069    87576780.41947
      1880.065  
  22120040.570   116241602.60748      3445.487    22120042.888    90577881.94247
      2684.793  
  22926651.072   120480361.74645      2024.362    22926651.657    93880821.82343
      1577.409  
  23637668.974   124216783.00947     -2111.965    23637671.222    96792308.27144
     -1645.691  
  8  6  4  1 59 15.0000000  0  8G24G29G15G26G21G 9G18G10
  20416721.954   107290598.36349      -559.741    20416724.905    83603073.19548
      -436.163  
  23351427.941   122712563.35147     -2569.644    23351430.815    95620206.71546
     -2002.324  
  20826545.290   109444234.93448     -1569.187    20826547.801    85281229.44648
     -1222.746  
  20957846.311   110134224.83548     -2597.605    20957847.720    85818884.16547
     -2024.113  
  21380266.337   112354055.64749      2406.456    21380267.237    87548616.19047
      1875.156  
  22110211.699   116189950.97848      3441.073    22110214.087    90537633.92346
      2681.351  
  22920873.370   120450001.74745      2024.304    22920875.487    93857164.62343
      1577.371  
  23643699.697   124248474.39347     -2113.530    23643701.778    96817002.88845
     -1646.905  
  8  6  4  1 59 30.0000000  0  8G24G29G15G26G21G 9G18G10
  20418332.265   107299060.88649      -567.222    20418335.346    83609667.36848
      -441.995  
  23358766.990   122751131.84846     -2571.008    23358770.283    95650260.11246
     -2003.383  
  20831032.352   109467814.13748     -1573.108    20831034.552    85299602.84748
     -1225.800  
  20965268.535   110173228.94848     -2601.300    20965269.866    85849276.98847
     -2026.992  
  21373407.162   112318010.81249      2401.000    21373408.233    87520529.30946
      1870.905  
  22100396.520   116138371.02048      3437.792    22100399.000    90497441.75347
      2678.797  
  22915096.518   120419637.06254      2025.147    22915099.280    93833513.08353
      1578.039  
  23649735.511   124280193.24547     -2114.238    23649738.086    96841718.84245
     -1647.460  
  8  6  4  1 59 45.0000000  0  8G24G29G15G26G21G 9G18G10
  20419966.107   107307646.15849      -576.171    20419969.080    83616357.17448
      -448.968  
  23366112.713   122789734.60146     -2574.312    23366116.183    95680340.12546
     -2005.961  
  20835532.427   109491462.75548     -1578.684    20835534.634    85318030.36848
     -1230.144  
  20972703.740   110212300.90348     -2606.843    20972705.354    85879722.66047
     -2031.309  
  21366565.716   112282058.27448      2394.022    21366566.714    87492514.33846
      1865.469  
  22090593.305   116086855.87348      3432.344    22090596.086    90457300.08546
      2674.550  
  22909319.795   120389286.49245      2023.730    22909324.137    93809863.27644
      1576.929  
  23655775.219   124311932.37447     -2116.441    23655778.052    96866450.61945
     -1649.179  
  8  6  4  2  0  0.0000000  0  8G24G29G15G26G21G 9G18G10
  20421621.840   107316347.00149      -584.194    20421624.817    83623137.04748
      -455.218  
  23373463.749   122828364.05547     -2577.012    23373466.941    95710440.96646
     -2008.063  
  20840044.511   109515173.29148     -1583.050    20840046.563    85336506.08948
     -1233.550  
  20980150.460   110251433.05548     -2611.086    20980152.410    85910215.23647
     -2034.617  
  21359740.230   112246190.94549      2387.948    21359741.230    87464565.77847
      1860.737  
  22080801.214   116035398.74248      3428.116    22080803.966    90417203.64446
      2671.258  
  22903543.882   120358929.77046      2023.726    22903547.111    93786208.72743
      1576.938  
  23661817.351   124343684.36747     -2117.476    23661820.439    96891192.40045
     -1649.983  
  8  6  4  2  0 15.0000000  0  8G24G29G15G26G21G 9G18G10
  20423301.453   107325173.55349      -592.613    20423304.199    83630014.86748
      -461.781  
  23380821.415   122867029.85047     -2579.527    23380825.034    95740570.13046
     -2010.023  
  20844570.043   109538955.46448     -1587.901    20844572.002    85355037.66048
     -1237.327  
  20987610.419   110290635.05848     -2615.874    20987612.341    85940762.24747
     -2038.347  
  21352933.232   112210419.24149      2381.374    21352933.852    87436691.73746
      1855.613  
  22071022.229   115984010.04848      3423.781    22071025.004    90377160.52346
      2667.878  
  22897768.395   120328577.25545      2023.007    22897766.397    93762524.26152
      1576.301  
  23667863.968   124375459.46247     -2119.195    23667867.068    96915952.21144
     -1651.323  
  8  6  4  2  0 30.0000000  0  8G24G29G15G26G21G 9G18G10
  20425004.852   107334124.72249      -601.077    20425007.687    83636989.80348
      -468.374  
  23388186.061   122905730.66946     -2581.590    23388189.506    95770726.56846
     -2011.633  
  20849109.129   109562808.14948     -1592.922    20849111.169    85373624.16648
     -1241.242  
  20995083.418   110329905.65248     -2620.562    20995084.986    85971362.70047
     -2041.999  
  21346144.138   112174742.59649      2374.969    21346144.505    87408891.74546
      1850.621  
  22061256.096   115932689.29848      3418.792    22061259.194    90337170.32247
      2663.991  
  22891992.884   120298227.46046      2023.007    22891996.644    93738875.09042
      1576.351  
  23673914.848   124407256.92647     -2120.836    23673917.603    96940729.42144
     -1652.602  
  8  6  4  2  0 45.0000000  0  8G24G29G15G26G21G 9G18G10
  20426732.699   107343204.40049      -609.265    20426735.599    83644064.87648
      -474.753  
  23395558.011   122944469.71746     -2583.651    23395561.251    95800912.84846
     -2013.238  
  20853662.106   109586734.86048     -1597.270    20853664.221    85392268.34048
     -1244.628  
  21002570.278   110369248.27348     -2624.891    21002571.661    86002019.29047
     -2045.371  
  21339374.102   112139165.03149      2368.816    21339374.047    87381168.94646
      1845.828  
  22051503.755   115881440.58548      3414.655    22051507.091    90297236.27747
      2660.770  
  22886218.933   120267884.48306      2023.069           0.000           0.00000
         0.000  
  23679970.518   124439080.46847     -2122.059    23679973.102    96965526.96045
     -1653.558  
  8  6  4  2  1  0.0000000  0  8G24G29G15G26G21G 9G18G10
  20428483.562   107352405.37349      -617.663    20428486.621    83651234.45848
      -481.301  
  23402935.834   122983239.65746     -2585.921    23402939.070    95831123.16146
     -2015.007  
  20858228.085   109610728.11549     -1601.808    20858229.988    85410964.39148
     -1248.164  
  21010069.131   110408655.29148     -2629.433    21010070.557    86032726.04447
     -2048.914  
  21332621.387   112103679.55849      2362.288    21332621.347    87353517.92546
      1840.742  
  22041763.985   115830257.19048      3409.516    22041767.299    90257353.11447
      2656.762  
  22880444.762   120237541.29246      2022.805    22880443.411    93691599.31251
      1576.215  
  23686029.651   124470922.83447     -2123.843    23686032.656    96990339.19645
     -1654.944  
  8  6  4  2  1 15.0000000  0  8G24G29G15G26G21G 9G18G10
  20430258.817   107361734.43449      -625.812    20430261.715    83658503.85548
      -487.648  
  23410320.621   123022046.72546     -2587.976    23410323.953    95861362.39546
     -2016.608  
  20862807.763   109634794.48749     -1606.437    20862809.625    85429717.39548
     -1251.773  
  21017581.533   110448133.14048     -2633.852    21017582.673    86063487.99847
     -2052.355  
  21325887.796   112068293.48549      2356.418    21325887.750    87325944.37447
      1836.168  
  22032037.832   115779146.31448      3405.374    22032041.176    90217526.48447
      2653.534  
  22874672.002   120207204.42446      2022.727    22874671.007    93667977.15851
      1576.148  
  23692093.674   124502790.83147     -2124.937    23692096.963    97015171.39445
     -1655.797  
  8  6  4  2  1 30.0000000  0  8G24G29G15G26G21G 9G18G10
  20432056.936   107371183.86349      -634.277    20432060.055    83665867.04148
      -494.245  
  23417710.770   123060882.78546     -2589.957    23417714.252    95891624.21546
     -2018.156  
  20867399.762   109658925.91949     -1611.063    20867401.509    85448521.11148
     -1255.375  
  21025105.731   110487673.72148     -2638.371    21025107.134    86094298.84747
     -2055.875  
  21319171.657   112032999.43649      2349.676    21319171.522    87298442.51447
      1830.913  
  22022324.054   115728100.62848      3400.761    22022327.319    90177750.64647
      2649.941  
  22868899.055   120176866.53546      2022.105    22868899.701    93644337.12442
      1575.652  
  23698161.331   124534676.74046     -2126.522    23698164.511    97040017.48744
     -1657.038  
  8  6  4  2  1 45.0000000  0  8G24G29G15G26G21G 9G18G10
  20433879.048   107380758.03049      -642.445    20433881.873    83673327.42547
      -500.608  
  23425107.578   123099751.92747     -2592.702    23425110.670    95921911.81346
     -2020.297  
  20872005.146   109683126.37549     -1615.940    20872006.444    85467378.61248
     -1259.180  
  21032642.588   110527280.88948     -2642.854    21032644.297    86125161.58046
     -2059.371  
  21312473.742   111997801.96649      2343.145    21312473.515    87271015.92047
      1825.823  
  22012623.694   115677124.95648      3395.953    22012626.805    90138029.34946
      2646.194  
  22863126.638   120146531.53245      2022.362    22863125.709    93620699.56041
      1575.870  
  23704233.165   124566584.91547     -2127.992    23704236.595    97064881.00145
     -1658.180  
  8  6  4  2  2  0.0000000  0  8G24G29G15G26G21G 9G18G10
  20435725.511   107390461.16849      -650.262    20435728.257    83680888.30748
      -506.699  
  23432511.349   123138657.63146     -2594.190    23432514.061    95952227.96046
     -2021.448  
  20876624.239   109707399.84249     -1619.960    20876625.512    85486292.99048
     -1262.308  
  21040192.850   110566958.72148     -2646.738    21040194.677    86156079.37547
     -2062.397  
  21305795.122   111962705.55049      2337.117    21305795.073    87243668.06547
      1821.129  
  22002937.674   115626223.70148      3391.694    22002940.413    90098366.03747
      2642.874  
  22857355.313   120116203.85745      2022.386    22857356.733    93597069.63051
      1575.883  
  23710310.095   124598519.52047     -2129.151    23710313.674    97089765.09345
     -1659.081  
  8  6  4  2  2 15.0000000  0  8G24G29G15G26G21G 9G18G10
  20437594.151   107400281.00249      -659.004    20437596.732    83688540.11848
      -513.512  
  23439919.678   123177587.60346     -2596.676    23439922.092    95982562.98246
     -2023.387  
  20881254.815   109731733.89748     -1624.866    20881256.428    85505254.59648
     -1266.133  
  21047754.233   110606694.43448     -2651.742    21047756.300    86187042.27247
     -2066.297  
  21299133.413   111927698.37948      2330.461    21299133.254    87216389.74847
      1815.940  
  21993263.686   115575385.11248      3386.555    21993265.892    90058751.55446
      2638.870  
  22851583.571   120085871.58446      2021.418    22851582.900    93573433.99943
      1575.129  
  23716389.974   124630468.43547     -2130.773    23716393.654    97114660.34445
     -1660.347  
  8  6  4  2  2 30.0000000  0  8G24G29G15G26G21G 9G18G10
  20439487.206   107410229.38549      -667.366    20439489.737    83696292.09548
      -520.030  
  23447334.416   123216553.34446     -2598.940    23447337.078    96012925.86346
     -2025.152  
  20885899.185   109756140.16548     -1629.386    20885901.020    85524272.45448
     -1269.655  
  21055328.762   110646499.73048     -2655.805    21055331.111    86218059.38547
     -2069.460  
  21292490.997   111892792.55749      2323.875    21292491.052    87189190.41847
      1810.809  
  21983603.643   115524621.49448      3381.757    21983605.824    90019195.50346
      2635.133  
  22845813.014   120055546.07245      2021.640    22845815.207    93549803.88541
      1575.324  
  23722474.791   124662443.48947     -2132.300    23722478.265    97139575.96745
     -1661.534  
  8  6  4  2  2 45.0000000  0  8G24G29G15G26G21G 9G18G10
  20441403.860   107420301.78349      -675.659    20441406.421    83704140.71948
      -526.491  
  23454755.105   123255549.66946     -2600.707    23454757.843    96043312.55946
     -2026.527  
  20890556.078   109780613.74049     -1633.694    20890558.205    85543342.75748
     -1273.012  
  21062915.786   110686369.65448     -2660.179    21062918.073    86249126.85147
     -2072.870  
  21285867.058   111857983.90049      2317.543    21285867.145    87162066.78347
      1805.875  
  21973957.012   115473928.70248      3377.242    21973959.338    89979694.63146
      2631.613  
  22840042.643   120025223.09945      2021.354    22840044.023    93526175.54042
      1575.078  
  23728563.797   124694440.15147     -2133.781    23728567.242    97164508.40445
     -1662.691  
  8  6  4  2  3  0.0000000  0  7G24G29G15G26G21G 9G10
  20443345.564   107430505.28549      -684.191    20443348.231    83712091.48448
      -533.140  
  23462182.764   123294583.43946     -2602.690    23462185.697    96073728.44245
     -2028.078  
  20895227.370   109805161.54849     -1638.499    20895229.426    85562470.93748
     -1276.758  
  21070516.390   110726310.74948     -2664.636    21070518.704    86280249.78947
     -2076.344  
  21279263.052   111823279.70748      2310.464    21279263.299    87135024.57447
      1800.358  
  21964325.406   115423314.11248      3371.941    21964327.749    89940254.69646
      2627.483  
  23734658.020   124726465.66747     -2135.456    23734661.695    97189463.32445
     -1663.995  
  8  6  4  2  3 15.0000000  0  8G24G29G15G26G21G 9G18G10
  20445309.260   107440825.20349      -692.797    20445311.952    83720132.96948
      -539.844  
  23469614.780   123333639.66746     -2605.280    23469617.829    96104161.84246
     -2030.093  
  20899909.950   109829768.70148     -1643.344    20899912.089    85581645.34848
     -1280.531  
  21078127.988   110766308.21848     -2669.441    21078130.114    86311416.64747
     -2080.086  
  21272676.096   111788665.83248      2303.554    21272676.522    87108052.72747
      1794.972  
  21954705.727   115372763.42348      3366.953    21954708.361    89900864.56446
      2623.598  
  22828503.383   119964597.65954      2020.051    22828506.576    93478930.37454
      1574.073  
  23740755.047   124758505.19947     -2137.343    23740758.674    97214429.18345
     -1665.464  
  8  6  4  2  3 30.0000000  0  8G24G29G15G26G21G 9G18G10
  20447297.027   107451271.52049      -700.461    20447299.849    83728272.94748
      -545.816  
  23477052.940   123372727.67946     -2606.843    23477056.006    96134619.99645
     -2031.313  
  20904605.597   109854444.74148     -1647.327    20904607.751    85600873.42148
     -1283.637  
  21085751.881   110806371.54748     -2672.866    21085754.058    86342634.83047
     -2082.758  
  21266108.430   111754152.45648      2297.546    21266109.081    87081159.18747
      1790.292  
  21945100.274   115322287.02048      3362.672    21945103.020    89861532.33047
      2620.261  
  22822735.408   119934284.34245      2020.707    22822739.781    93455309.78044
      1574.601  
  23746856.496   124790568.99647     -2138.241    23746859.917    97239413.94445
     -1666.164  
  8  6  4  2  3 45.0000000  0  7G24G29G15G26G21G 9G10
  20449309.225   107461845.56749      -709.004    20449312.138    83736512.46648
      -552.472  
  23484497.629   123411848.53247     -2609.031    23484500.603    96165103.75145
     -2033.019  
  20909314.657   109879190.77249     -1651.913    20909316.787    85620156.04248
     -1287.206  
  21093388.362   110846501.65148     -2677.406    21093390.797    86373905.03147
     -2086.292  
  21259560.113   111719741.12748      2290.789    21259560.922    87054345.19747
      1785.026  
  21935509.235   115271886.70548      3357.663    21935512.083    89822259.35947
      2616.359  
  23752962.888   124822658.36946     -2139.729    23752966.464    97264418.63846
     -1667.324  
  8  6  4  2  4  0.0000000  0  7G24G29G15G26G21G 9G10
  20451344.651   107472541.02149      -717.164    20451347.429    83744846.58248
      -558.831  
  23491947.519   123450995.43847     -2610.758    23491950.146    96195607.82245
     -2034.359  
  20914035.933   109904000.21148     -1656.249    20914037.836    85639488.07348
     -1290.585  
  21101036.175   110886691.89648     -2681.593    21101038.692    86405222.10247
     -2089.559  
  21253030.115   111685426.00448      2284.277    21253031.027    87027606.14847
      1779.953  
  21925931.779   115221556.61748      3352.910    21925934.584    89783041.13446
      2612.651  
  23759072.628   124854766.92246     -2141.390    23759076.752    97289438.27846
     -1668.621  
  8  6  4  2  4 15.0000000  0  8G24G29G15G26G21G 9G18G10
  20453403.544   107483360.85849      -725.183    20453406.421    83753277.62048
      -565.082  
  23499402.752   123490171.10947     -2612.320    23499405.361    96226134.30945
     -2035.578  
  20918769.597   109928875.78449     -1660.320    20918771.360    85658871.62648
     -1293.758  
  21108696.147   110926945.07448     -2685.304    21108698.466    86436588.22347
     -2092.448  
  21246519.007   111651210.31148      2277.968    21246519.962    87000944.58247
      1775.038  
  21916368.472   115171300.10248      3348.211    21916370.844    89743880.21647
      2608.991  
  22805434.605   119843356.63356      2020.175    22805433.947    93384440.62753
      1574.160  
  23765186.852   124886897.51246     -2142.558    23765191.174    97314475.06346
     -1669.531  
  8  6  4  2  4 30.0000000  0  8G24G29G15G26G21G 9G18G10
  20455486.423   107494305.42949      -733.816    20455489.172    83761805.85848
      -571.808  
  23506863.302   123529375.43847     -2614.608    23506865.397    96256683.12745
     -2037.359  
  20923515.946   109953817.73549     -1665.105    20923517.643    85678306.89648
     -1297.488  
  21116367.990   110967261.03448     -2689.848    21116370.301    86468003.25747
     -2095.988  
  21240026.948   111617094.74748      2271.059    21240028.171    86974361.03447
      1769.651  
  21906819.053   115121117.84848      3343.012    21906821.464    89704777.16547
      2604.941  
  22799668.577   119813056.17144      2019.254    22799668.203    93360829.90044
      1573.440  
  23771305.439   124919050.71447     -2144.503    23771309.803    97339529.48346
     -1671.046  
  8  6  4  2  4 45.0000000  0  8G24G29G15G26G21G 9G18G10
  20457593.208   107505376.75549      -741.770    20457595.982    83770432.86148
      -578.004  
  23514329.580   123568610.05747     -2615.727    23514331.399    96287255.56345
     -2038.229  
  20928275.287   109978827.52349     -1668.863    20928276.965    85697795.05348
     -1300.417  
  21124051.994   111007641.43748     -2693.706    21124054.076    86499468.50147
     -2098.996  
  21233554.463   111583081.82948      2264.855    21233555.592    86947857.46647
      1764.820  
  21897284.361   115071012.44948      3338.362    21897286.850    89665734.01647
      2601.319  
  22793903.229   119782769.15555      2020.246    22793899.376    93337225.36353
      1574.210  
  23777428.916   124951228.46347     -2145.422    23777433.318    97364603.03145
     -1671.762  
  8  6  4  2  5  0.0000000  0  8G24G29G15G26G21G 9G18G10
  20459723.327   107516570.48049      -750.316    20459726.184    83779155.24548
      -584.663  
  23521800.472   123607870.23345     -2617.891    23521802.173    96317847.91544
     -2039.917  
  20933046.556   110003900.71249     -1673.608    20933048.089    85717332.60348
     -1304.113  
  21131747.471   111048081.53448     -2697.895    21131749.495    86530980.27047
     -2102.257  
  21227100.878   111549167.13348      2257.538    21227101.765    86921430.43747
      1759.117  
  21887763.255   115020979.86048      3332.909    21887766.006    89626747.62447
      2597.069  
  22788138.602   119752475.30646      2019.499    22788139.417    93313619.82343
      1573.640  
  23783556.216   124983426.63846     -2147.203    23783560.309    97389692.50546
     -1673.148  
  8  6  4  2  5 15.0000000  0  8G24G29G15G26G21G 9G18G10
  20461877.357   107527890.95349      -758.695    20461880.291    83787976.38848
      -591.194  
  23529276.628   123647159.91845     -2620.034    23529278.719    96348463.18445
     -2041.589  
  20937830.793   110029041.42048     -1678.022    20937832.228    85736922.75948
     -1307.554  
  21139455.244   111088585.40848     -2702.054    21139456.966    86562541.72847
     -2105.500  
  21220666.802   111515355.46349      2250.859    21220667.512    86895083.68347
      1753.914  
  21878256.955   114971024.82248      3328.094    21878260.032    89587821.62547
      2593.315  
  22782375.126   119722187.12945      2019.808    22782375.704    93290018.63341
      1573.875  
  23789688.129   125015649.52947     -2148.875    23789692.230    97414801.22746
     -1674.452  
  8  6  4  2  5 30.0000000  0  8G24G29G15G26G21G 9G18G10
  20464054.667   107539332.26449      -767.050    20464057.406    83796891.68548
      -597.706  
  23536757.358   123686472.85746     -2621.772    23536759.752    96379096.60845
     -2042.945  
  20942626.508   110054243.63548     -1682.390    20942628.035    85756560.84748
     -1310.957  
  21147173.748   111129146.98148     -2706.077    21147175.920    86594148.11747
     -2108.636  
  21214251.430   111481641.39049      2244.226    21214251.756    86868812.98547
      1748.745  
  21868764.431   114921141.83248      3322.960    21868767.685    89548951.77047
      2589.316  
  22776611.756   119691898.56945      2018.957    22776612.963    93266417.10945
      1573.211  
  23795823.756   125047891.43746     -2150.066    23795827.159    97439924.76745
     -1675.383  
  8  6  4  2  5 45.0000000  0  8G24G29G15G26G21G 9G18G10
  20466255.777   107550899.79849      -775.277    20466258.672    83805905.34648
      -604.116  
  23544243.863   123725814.48546     -2623.565    23544246.355    96409752.33845
     -2044.339  
  20947434.940   110079512.49448     -1686.890    20947436.630    85776250.86748
     -1314.464  
  21154904.395   111169771.21048     -2710.405    21154906.494    86625803.37147
     -2112.007  
  21207855.546   111448030.88848      2237.215    21207855.895    86842622.97347
      1743.280  
  21859286.974   114871336.92848      3317.851    21859290.189    89510142.75947
      2585.335  
  22770849.088   119661615.45346      2018.641    22770849.903    93242819.87544
      1572.953  
  23801963.756   125080157.85546     -2151.964    23801967.156    97465067.40345
     -1676.863  
  8  6  4  2  6  0.0000000  0  8G24G29G15G26G21G 9G18G10
  20468480.635   107562591.88349      -783.422    20468483.574    83815016.04348
      -610.460  
  23551735.540   123765182.32847     -2625.081    23551737.881    96440428.54344
     -2045.526  
  20952255.563   110104845.78548     -1690.895    20952257.625    85795991.09748
     -1317.582  
  21162646.299   111210455.94048     -2714.054    21162648.450    86657505.76047
     -2114.851  
  21201479.174   111414522.13948      2230.655    21201479.583    86816512.26047
      1738.172  
  21849824.238   114821608.85148      3312.813    21849827.253    89471393.58747
      2581.410  
  22765087.575   119631335.64946      2018.477    22765088.088    93219225.26644
      1572.836  
  23808107.960   125112446.61246     -2153.183    23808111.204    97490227.44145
     -1677.813  
  8  6  4  2  6 15.0000000  0  8G24G29G15G26G21G 9G18G10
  20470729.253   107574408.10749      -791.722    20470732.013    83824223.49347
      -616.930  
  23559231.844   123804575.73247     -2626.836    23559234.114    96471124.67444
     -2046.886  
  20957088.550   110130243.05348     -1695.023    20957090.416    85815781.16148
     -1320.800  
  21170399.767   111251200.53648     -2718.207    21170401.896    86689254.76247
     -2118.086  
  21195122.014   111381115.31949      2224.020    21195122.243    86790480.98347
      1733.000  
  21840376.062   114771957.53948      3307.488    21840379.074    89432704.27947
      2577.261  
  22759326.747   119601059.20147      2018.558    22759326.792    93195633.22345
      1572.897  
  23814256.365   125144757.76046     -2154.840    23814259.375    97515404.92545
     -1679.101  
  8  6  4  2  6 30.0000000  0  8G24G29G15G26G21G 9G18G10
  20473001.526   107586349.91849      -800.328    20473004.425    83833528.79848
      -623.637  
  23566733.291   123843995.54347     -2628.980    23566735.261    96501841.40044
     -2048.558  
  20961933.782   110155705.42348     -1699.651    20961935.471    85835621.97848
     -1324.405  
  21178164.873   111292006.06948     -2722.301    21178167.028    86721051.30747
     -2121.277  
  21188784.461   111347811.97049      2216.718    21188785.010    86764530.32647
      1727.308  
  21830942.715   114722384.59048      3302.233    21830945.727    89394076.02047
      2573.168  
  22753566.359   119570787.38047      2017.979    22753565.934    93172044.81445
      1572.448  
  23820409.354   125177092.52946     -2156.573    23820412.526    97540600.82845
     -1680.449  
  8  6  4  2  6 45.0000000  0  8G24G29G15G26G21G 9G18G10
  20475297.965   107598417.62949      -808.757    20475301.100    83842932.20148
      -630.202  
  23574239.494   123883441.90447     -2630.698    23574241.341    96532578.82443
     -2049.898  
  20966791.586   110181233.07248     -1704.078    20966793.282    85855513.65348
     -1327.855  
  21185941.435   111332872.67548     -2726.449    21185943.605    86752895.40047
     -2124.507  
  21182466.897   111314612.88948      2209.625    21182467.311    86738660.90146
      1721.780  
  21821524.390   114672890.96248      3296.792    21821527.336    89355509.56247
      2568.925  
  22747806.581   119540520.66446      2017.680    22747806.694    93148460.34545
      1572.211  
  23826566.946   125209451.55246     -2158.132    23826570.393    97565815.64345
     -1681.663  
  8  6  4  2  7  0.0000000  0  8G24G29G15G26G21G 9G18G10
  20477617.858   107610608.90849      -817.085    20477620.851    83852431.88148
      -636.695  
  23581750.367   123922912.09147     -2632.070    23581752.527    96563334.81244
     -2050.969  
  20971661.089   110206823.35848     -1708.292    20971663.094    85875454.12548
     -1331.140  
  21193729.137   111373797.51248     -2730.508    21193731.213    86784784.88647
     -2127.671  
  21176168.956   111281516.20048      2202.847    21176169.305    86712871.27547
      1716.499  
  21812120.994   114623474.72148      3291.586    21812123.671    89317003.40647
      2564.866  
  22742047.218   119510256.72846      2017.601    22742047.813    93124878.09945
      1572.152  
  23832728.967   125241832.28546     -2159.530    23832732.494    97591047.38245
     -1682.753  
  8  6  4  2  7 15.0000000  0  8G24G29G15G26G21G 9G18G10
  20479961.997   107622926.43949      -825.241    20479964.752    83862029.95448
      -643.050  
  23589266.050   123962408.42847     -2633.722    23589268.553    96594111.15144
     -2052.257  
  20976542.980   110232478.80348     -1712.559    20976545.210    85895445.38548
     -1334.465  
  21201528.505   111414783.03248     -2734.316    21201530.481    86816721.64647
     -2130.641  
  21169890.796   111248524.84449      2196.069    21169891.165    86687163.72046
      1711.218  
  21802732.722   114574138.89049      3286.574    21802734.903    89278559.91046
      2560.964  
  22736289.144   119479998.22046      2017.254    22736289.763    93101300.06644
      1571.883  
  23838895.462   125274237.52646     -2161.000    23838899.105    97616298.21945
     -1683.897  
  8  6  4  2  7 30.0000000  0  8G24G29G15G26G21G 9G18G10
  20482329.643   107635368.15749      -833.515    20482332.394    83871724.80148
      -649.496  
  23596786.383   124001928.41746     -2635.531    23596789.199    96624905.93744
     -2053.668  
  20981437.179   110258197.08748     -1716.628    20981439.207    85915485.58048
     -1337.637  
  21209338.688   111455826.78948     -2738.144    21209340.706    86848703.77547
     -2133.621  
  21163632.303   111215636.92848      2189.015    21163632.801    86661536.76346
      1705.723  
  21793359.378   114524881.82148      3281.227    21793361.504    89240177.78247
      2556.797  
  22730531.487   119449743.24746      2017.297    22730532.090    93077724.82545
      1571.921  
  23845066.393   125306665.36346     -2162.617    23845069.909    97641566.62946
     -1685.163  
  8  6  4  2  7 45.0000000  0  8G24G29G15G26G21G 9G18G10
  20484720.506   107647932.48149      -841.734    20484723.406    83881515.15947
      -655.897  
  23604310.745   124041470.11247     -2636.813    23604313.529    96655717.59245
     -2054.668  
  20986342.773   110283976.28348     -1720.676    20986344.943    85935573.28048
     -1340.789  
  21217159.966   111496926.82048     -2741.878    21217161.823    86880729.78747
     -2136.531  
  21157393.362   111182851.22858      2182.262    21157393.972    86635989.48956
      1700.460  
  21784000.881   114475702.52648      3276.004    21784003.201    89201856.25347
      2552.727  
  22724774.332   119419490.44447      2016.785    22724775.288    93054151.12045
      1571.511  
  23851241.380   125339114.57946     -2164.011    23851244.901    97666851.72145
     -1686.246  
  8  6  4  2  8  0.0000000  0  8G24G29G15G26G21G 9G18G10
  20487135.083   107660621.16649      -850.277    20487137.851    83891402.43948
      -662.558  
  23611839.437   124081034.94047     -2638.492    23611842.533    96686547.29344
     -2055.977  
  20991260.154   110309817.91849     -1725.034    20991262.432    85955709.60748
     -1344.187  
  21224992.204   111538084.69648     -2745.762    21224994.032    86912800.84147
     -2139.559  
  21151174.298   111150170.07648      2175.051    21151174.935    86610523.66647
      1694.839  
  21774657.628   114426603.18348      3270.425    21774660.035    89163597.02047
      2548.378  
  22719018.008   119389241.38147      2016.366    22719019.081    93030580.47544
      1571.191  
  23857420.731   125371586.44447     -2165.523    23857424.040    97692154.45046
     -1687.425  
  8  6  4  2  8 15.0000000  0  8G24G29G15G26G21G 9G18G10
  20489572.917   107673432.75849      -858.296    20489575.816    83901385.49948
      -668.804  
  23619372.732   124120621.23247     -2639.874    23619375.362    96717393.72044
     -2057.047  
  20996189.442   110335720.41048     -1729.051    20996191.642    85975893.36348
     -1347.315  
  21232835.050   111579298.53948     -2749.636    21232836.999    86944915.51147
     -2142.577  
  21144974.884   111117592.18349      2168.254    21144975.724    86585138.27647
      1689.547  
  21765329.202   114377582.75348      3265.202    21765331.891    89125399.29947
      2544.313  
  22713262.181   119358994.92947      2016.117    22713263.141    93007011.77244
      1570.988  
  23863604.203   125404079.68246     -2167.023    23863607.068    97717473.85445
     -1688.593  
  8  6  4  2  8 30.0000000  0  8G24G29G15G26G21G 9G18G10
  20492034.551   107686368.79549      -866.656    20492037.491    83911465.52048
      -675.320  
  23626910.297   124160229.96547     -2641.241    23626912.557    96748257.61544
     -2058.117  
  21001130.402   110361684.98649     -1733.117    21001132.546    85996125.50948
     -1350.483  
  21240688.753   111620569.70948     -2753.414    21240690.611    86977074.86547
     -2145.519  
  21138795.533   111085119.41159      2161.292    21138796.338    86559834.81757
      1684.120  
  21756016.353   114328643.05848      3259.995    21756019.058    89087264.49047
      2540.254  
  22707507.426   119328752.49047      2015.882    22707508.360    92983446.28045
      1570.819  
  23869792.157   125436596.06947     -2168.410    23869795.040    97742811.28245
     -1689.672  
  8  6  4  2  8 45.0000000  0  8G24G29G15G26G21G 9G18G10
  20494519.786   107699428.63549      -874.582    20494522.826    83921642.01848
      -681.495  
  23634452.257   124199860.14347     -2642.550    23634454.327    96779138.24745
     -2059.133  
  21006083.188   110387710.71049     -1736.964    21006085.166    86016405.28547
     -1353.479  
  21248553.029   111661896.97948     -2757.172    21248554.958    87009277.92547
     -2148.448  
  21132636.155   111052751.41549      2154.421    21132636.927    86534612.99847
      1678.765  
  21746718.512   114279783.98348      3254.789    21746721.460    89049192.47547
      2536.195  
  22701753.232   119298513.52447      2016.078    22701753.879    92959883.45745
      1570.965  
  23875984.038   125469134.87146     -2169.757    23875987.277    97768166.17846
     -1690.723  
  8  6  4  2  9  0.0000000  0  8G24G29G15G26G21G 9G18G10
  20497028.837   107712613.82249      -883.269    20497031.845    83931916.18848
      -688.266  
  23641998.262   124239513.01147     -2644.046    23642000.320    96810036.54645
     -2060.300  
  21011047.654   110413798.99849     -1741.320    21011049.364    86036733.81748
     -1356.874  
  21256428.264   111703281.80848     -2760.797    21256430.199    87041525.84447
     -2151.272  
  21126497.109   111020490.16648      2147.319    21126497.996    86509474.38347
      1673.233  
  21737436.716   114231007.53248      3248.940    21737439.522    89011184.86747
      2531.641  
  22695999.901   119268279.53547      2015.448    22696000.668    92936324.51645
      1570.480  
  23882180.652   125501697.64447     -2171.469    23882183.914    97793539.74446
     -1692.058  
  8  6  4  2  9 15.0000000  0  8G24G29G15G26G21G 9G18G10
  20499562.065   107725925.39849      -891.214    20499564.671    83942288.84647
      -694.457  
  23649548.613   124279189.21247     -2645.441    23649550.940    96840953.04345
     -2061.386  
  21016024.245   110439950.62749     -1745.199    21016025.790    86057111.69948
     -1359.897  
  21264314.479   111744724.80248     -2764.456    21264316.713    87073819.05447
     -2154.125  
  21120378.636   110988337.02859      2140.339    21120379.174    86484419.98457
      1667.793  
  21728170.876   114182315.08848      3243.550    21728173.610    88973242.69247
      2527.438  
  22690247.641   119238051.55247      2015.418    22690248.503    92912770.20845
      1570.452  
  23888381.934   125534285.37947     -2173.137    23888385.360    97818932.75246
     -1693.354  
  8  6  4  2  9 30.0000000  0  8G24G29G15G26G21G 9G18G10
  20502118.553   107739359.61349      -899.777    20502121.391    83952757.05948
      -701.128  
  23657102.507   124318884.57247     -2647.145    23657105.112    96871884.45745
     -2062.714  
  21021012.110   110466161.66049     -1749.543    21021013.553    86077535.87848
     -1363.285  
  21272211.126   111786221.83948     -2768.628    21272213.180    87106154.39247
     -2157.375  
  21114279.956   110956288.56049      2132.858    21114280.759    86459447.15447
      1661.964  
  21718920.322   114133703.28948      3238.016    21718923.115    88935363.36846
      2523.125  
  22684496.085   119207826.07647      2014.734    22684496.575    92889217.86745
      1569.918  
  23894587.413   125566894.51847     -2174.809    23894590.838    97844342.46045
     -1694.660  
  8  6  4  2  9 45.0000000  0  8G24G29G15G26G21G 9G18G10
  20504698.988   107752919.95549      -908.343    20504701.636    83963323.54648
      -707.805  
  23664660.616   124358602.35847     -2648.609    23664663.461    96902833.38245
     -2063.852  
  21026011.857   110492435.22648     -1753.840    21026013.230    86098008.78447
     -1366.633  
  21280118.638   111827776.15748     -2772.105    21280120.877    87138534.36947
     -2160.086  
  21108201.946   110924348.56049      2125.823    21108202.719    86434558.81447
      1656.483  
  21709685.987   114085176.12548      3232.058    21709688.738    88897550.01347
      2518.484  
  22678745.482   119177606.73747      2014.280    22678746.174    92865670.31145
      1569.565  
  23900797.573   125599528.53447     -2176.418    23900800.864    97869771.54146
     -1695.914  
  8  6  4  2 10  0.0000000  0  8G24G29G15G26G21G 9G18G10
  20507303.443   107766605.30349      -916.535    20507305.739    83973987.44247
      -714.187  
  23672222.351   124398341.10747     -2649.863    23672225.538    96933798.57244
     -2064.836  
  21031023.161   110518770.12048     -1757.703    21031024.564    86118529.48348
     -1369.640  
  21288036.703   111869386.36748     -2775.957    21288038.824    87170957.91247
     -2163.086  
  21102144.449   110892516.32458      2118.598    21102145.554    86409754.48357
      1650.852  
  21700467.370   114036732.87248      3226.715    21700470.166    88859802.03147
      2514.320  
  22672996.054   119147392.50547      2013.948    22672996.618    92842126.74745
      1569.305  
  23907012.210   125632186.60947     -2177.988    23907015.555    97895219.38046
     -1697.137  
  8  6  4  2 10 15.0000000  0  8G24G29G15G26G21G 9G18G10
  20509931.424   107780415.05949      -924.738    20509933.642    83984748.29847
      -720.577  
  23679787.840   124438099.73747     -2650.934    23679791.270    96964779.29645
     -2065.664  
  21036045.810   110545165.44448     -1761.410    21036047.351    86139097.26848
     -1372.531  
  21295965.314   111911051.62648     -2779.273    21295967.412    87203424.34146
     -2165.672  
  21096107.238   110860791.56448      2111.698    21096108.532    86385033.92147
      1645.477  
  21691264.870   113988373.43948      3221.464    21691267.499    88822119.36947
      2510.230  
  22667247.485   119117182.79147      2013.960    22667248.221    92818586.74145
      1569.316  
  23913231.303   125664868.07047     -2179.378    23913234.273    97920685.43045
     -1698.218  
  8  6  4  2 10 30.0000000  0  8G24G29G15G26G21G 9G18G10
  20512582.590   107794347.90449      -933.066    20512585.139    83995605.04748
      -727.065  
  23687356.996   124477876.57646     -2652.667    23687360.463    96995774.18645
     -2067.020  
  21041079.674   110571619.76348     -1765.671    21041081.315    86159711.00848
     -1375.852  
  21303904.177   111952770.13448     -2783.270    21303906.051    87235932.27347
     -2168.784  
  21090090.383   110829173.37348      2104.199    21090091.910    86360396.36047
      1639.632  
  21682078.049   113940096.96248      3215.527    21682080.762    88784501.34047
      2505.602  
  22661499.619   119086976.32947      2013.453    22661500.497    92795049.23945
      1568.922  
  23919454.443   125697571.67747     -2180.918    23919457.194    97946168.75045
     -1699.418  
  8  6  4  2 10 45.0000000  0  8G24G29G15G26G21G 9G18G10
  20515257.936   107808406.38249      -941.296    20515260.322    84006559.69347
      -733.480  
  23694930.078   124517673.95547     -2653.938    23694933.294    97026785.10144
     -2068.007  
  21046125.363   110598135.28848     -1769.602    21046126.938    86180372.46048
     -1378.914  
  21311853.577   111994544.29248     -2786.547    21311855.289    87268483.57447
     -2171.340  
  21084094.394   110797664.45859      2097.063    21084095.500    86335843.97057
      1634.070  
  21672907.860   113891906.29548      3209.862    21672910.517    88746950.15947
      2501.188  
  22655752.443   119056775.71547      2013.292    22655753.625    92771516.29345
      1568.796  
  23925682.330   125730299.94046     -2182.394    23925685.169    97971671.26845
     -1700.569  
  8  6  4  2 11  0.0000000  0  8G24G29G15G26G21G 9G18G10
  20517956.850   107822589.33349      -949.617    20517959.329    84017611.33448
      -739.964  
  23702506.775   124557490.45446     -2655.034    23702509.623    97057810.90246
     -2068.863  
  21051182.363   110624710.84648     -1773.633    21051184.224    86201080.67148
     -1382.055  
  21319813.223   112036372.54548     -2790.418    21319814.904    87301076.99247
     -2174.355  
  21078119.219   110766264.23449      2089.851    21078120.197    86311376.25747
      1628.452  
  21663753.588   113843800.89648      3204.344    21663756.369    88709465.45147
      2496.887  
  22650006.284   119026580.04247      2012.979    22650007.734    92747987.20345
      1568.554  
  23931914.672   125763051.87146     -2184.094    23931917.463    97997192.21945
     -1701.894  
  8  6  4  2 11 15.0000000  0  8G24G29G15G26G21G 9G18G10
  20520679.329   107836896.02649      -957.574    20520681.861    84028759.39748
      -746.164  
  23710086.907   124597324.97446     -2656.199    23710090.114    97088850.77545
     -2069.772  
  21056250.864   110651345.34449     -1777.391    21056252.728    86221834.81748
     -1384.983  
  21327782.949   112078253.92848     -2793.753    21327784.707    87333711.84747
     -2176.953  
  21072164.550   110734972.26748      2082.640    21072165.228    86286992.90547
      1622.832  
  21654615.565   113795780.29048      3198.773    21654618.321    88672046.79747
      2492.546  
  22644260.724   118996388.54747      2012.726    22644262.247    92724461.39345
      1568.354  
  23938151.564   125795826.89646     -2185.452    23938154.527    98022731.17445
     -1702.952  
  8  6  4  2 11 30.0000000  0  8G24G29G15G26G21G 9G18G10
  20523425.054   107851325.25149      -966.102    20523427.591    84040002.94948
      -752.809  
  23717670.411   124637175.93246     -2657.655    23717673.802    97119903.43144
     -2070.905  
  21061330.285   110678037.38048     -1781.394    21061332.205    86242633.80148
     -1388.102  
  21335762.525   112120186.87948     -2797.195    21335764.417    87366386.83246
     -2179.637  
  21066230.230   110703787.86158      2075.354    21066231.194    86262693.37057
      1617.156  
  21645493.515   113747843.81448      3193.019    21645496.414    88634693.70847
      2488.063  
  22638515.939   118966200.21647      2012.933    22638517.359    92700938.00945
      1568.516  
  23944392.740   125828623.62146     -2187.031    23944395.695    98048287.05545
     -1704.184  
  8  6  4  2 11 45.0000000  0  8G24G29G15G26G21G 9G18G10
  20526194.685   107865879.85749      -974.316    20526197.588    84051344.19048
      -759.210  
  23725257.501   124677045.73346     -2658.468    23725260.909    97150970.73845
     -2071.542  
  21066421.097   110704789.62348     -1785.421    21066423.101    86263479.69848
     -1391.242  
  21343752.630   112162174.13648     -2800.940    21343754.496    87399104.18246
     -2182.508  
  21060317.305   110672714.38849      2068.051    21060318.124    86238480.27546
      1611.464  
  21636388.213   113699994.72148      3187.191    21636390.929    88597408.70847
      2483.522  
  22632772.096   118936017.96247      2011.934    22632773.520    92677419.38346
      1567.737  
  23950638.543   125861445.25546     -2188.765    23950641.664    98073862.31745
     -1705.534  
  8  6  4  2 12  0.0000000  0  8G24G29G15G26G21G 9G18G10
  20528988.214   107880559.38449      -982.531    20528990.979    84062782.78248
      -765.612  
  23732848.072   124716933.41746     -2659.488    23732851.464    97182052.01145
     -2072.336  
  21071523.317   110731601.37848     -1789.245    21071525.313    86284371.96748
     -1394.222  
  21351752.551   112204214.65948     -2804.289    21351754.769    87431863.02447
     -2185.164  
  21054425.308   110641751.01448      2060.590    21054425.730    86214352.97147
      1605.651  
  21627299.701   113652233.08348      3181.257    21627302.157    88560191.82847
      2478.897  
  22627029.617   118905841.24947      2011.664    22627031.054    92653905.07445
      1567.526  
  23956888.924   125894291.26447     -2190.406    23956892.182    98099456.58345
     -1706.813  
  8  6  4  2 12 15.0000000  0  8G24G29G15G26G21G 9G18G10
  20531804.841   107895361.98649      -991.085    20531808.019    84074317.27648
      -772.277  
  23740441.488   124756836.96646     -2661.234    23740444.557    97213145.70945
     -2073.691  
  21076636.355   110758470.38648     -1793.238    21076638.392    86305308.85848
     -1397.332  
  21359762.334   112246306.38448     -2807.749    21359764.420    87464661.77246
     -2187.859  
  21048553.767   110610896.45259      2053.187    21048554.421    86190310.47357
      1599.883  
  21618227.315   113604557.46348      3175.461    21618229.966    88523042.00447
      2474.382  
  22621287.868   118875668.43547      2011.324    22621289.141    92630393.80546
      1567.262  
  23963143.476   125927159.65347     -2192.168    23963147.157    98125068.31645
     -1708.187  
  8  6  4  2 12 30.0000000  0  8G24G29G15G26G21G 9G18G10
  20534645.283   107910288.86149      -999.289    20534648.400    84085948.60148
      -778.671  
  23748038.160   124796757.30746     -2661.897    23748040.869    97244252.46344
     -2074.210  
  21081760.431   110785397.77248     -1797.210    21081762.693    86326291.23548
     -1400.426  
  21367782.308   112288450.25848     -2811.395    21367784.208    87497501.14947
     -2190.699  
  21042703.482   110580152.37449      2045.797    21042704.154    86166354.04647
      1594.124  
  21609171.563   113556969.32048      3169.629    21609174.138    88485960.34047
      2469.836  
  22615547.094   118845500.71447      2011.129    22615548.473    92606886.51145
      1567.117  
  23969402.487   125960051.82147     -2193.659    23969406.367    98150698.57845
     -1709.347  
  8  6  4  2 12 45.0000000  0  8G24G29G15G26G21G 9G18G10
  20537509.506   107925340.60849     -1007.569    20537512.643    84097677.22848
      -785.120  
  23755637.778   124836694.75846     -2662.973    23755640.557    97275372.53945
     -2075.047  
  21086895.733   110812383.93448     -1800.839    21086897.951    86347319.41448
     -1403.253  
  21375812.012   112330646.48148     -2814.698    21375813.834    87530381.31247
     -2193.272  
  21036874.353   110549519.68749      2038.590    21036874.927    86142484.39747
      1588.508  
  21600132.594   113509469.75048      3163.703    21600135.153    88448947.70947
      2465.219  
  22609807.544   118815338.89248      2010.726    22609808.609    92583383.75646
      1566.797  
  23975666.054   125992968.49646     -2195.218    23975670.061    98176347.92045
     -1710.563  
  8  6  4  2 13  0.0000000  0  8G24G29G15G26G21G 9G18G10
  20540397.535   107940517.17749     -1016.039    20540400.587    84109503.12448
      -791.722  
  23763240.593   124876648.66547     -2664.093    23763243.575    97306505.40845
     -2075.922  
  21092042.270   110839428.70048     -1805.085    21092044.483    86368393.25848
     -1406.562  
  21383851.581   112372894.82348     -2818.171    21383853.289    87563302.10047
     -2195.980  
  21031066.461   110518998.66159      2030.941    21031066.809    86118701.78356
      1582.547  
  21591110.788   113462059.24848      3157.766    21591113.221    88412004.46847
      2460.593  
  22604068.937   118785182.90247      2010.043    22604070.299    92559885.62045
      1566.270  
  23981934.249   126025909.89647     -2197.108    23981938.693    98202016.54445
     -1712.034  
  8  6  4  2 13 15.0000000  0  8G24G29G15G26G21G 9G18G10
  20543308.807   107955816.42149     -1023.886    20543311.797    84121424.60548
      -797.836  
  23770846.276   124916616.76847     -2664.625    23770849.431    97337649.39945
     -2076.335  
  21097199.432   110866529.55548     -1808.319    21097201.382    86389510.80348
     -1409.081  
  21391900.649   112415192.96348     -2821.336    21391902.189    87596261.65747
     -2198.445  
  21025279.405   110488587.47648      2023.875    21025279.721    86095004.74946
      1577.043  
  21582105.530   113414736.04648      3152.168    21582107.868    88375129.23847
      2456.229  
  22598331.131   118755030.90748      2010.288    22598332.981    92536390.54346
      1566.456  
  23988207.071   126058873.42547     -2197.969    23988211.296    98227702.40045
     -1712.707  
  8  6  4  2 13 30.0000000  0  8G24G29G15G26G21G 9G18G10
  20546243.182   107971236.63849     -1031.945    20546246.133    84133440.34748
      -804.116  
  23778454.387   124956596.94347     -2665.831    23778457.548    97368802.74045
     -2077.277  
  21102366.801   110893684.75849     -1812.233    21102368.686    86410670.70647
     -1412.133  
  21399958.920   112457538.64848     -2824.530    21399960.286    87629258.30747
     -2200.937  
  21019513.041   110458285.12349      2016.664    21019513.511    86071392.52247
      1571.421  
  21573116.434   113367498.90548      3146.374    21573118.962    88338321.07947
      2451.718  
  22592594.053   118724881.16848      2009.816    22592596.029    92512897.24646
      1566.086  
  23994483.855   126091857.86447     -2199.765    23994487.881    98253404.52845
     -1714.104  
  8  6  4  2 13 45.0000000  0  8G24G29G15G26G21G 9G18G10
  20549201.586   107986782.87549     -1040.636    20549204.347    84145554.30048
      -810.890  
  23786065.835   124996593.96347     -2666.887    23786069.127    97399969.22846
     -2078.098  
  21107545.596   110920899.10648     -1816.227    21107547.129    86431876.68847
     -1415.246  
  21408027.004   112499936.78048     -2828.367    21408028.456    87662295.80547
     -2203.926  
  21013768.237   110428096.60459      2008.835    21013768.620    86047868.99556
      1565.323  
  21564144.988   113320353.29348      3140.054    21564147.413    88301584.24047
      2446.793  
  22586858.075   118694738.87147      2009.101    22586860.081    92489409.77745
      1565.531  
  24000765.562   126124868.21047     -2201.511    24000769.349    98279126.83945
     -1715.469  
  8  6  4  2 14  0.0000000  0  8G24G29G15G26G21G 9G18G10
  20552183.592   108002452.32549     -1048.987    20552186.122    84157764.26547
      -817.398  
  23793679.862   125036604.69547     -2667.972    23793683.160    97431146.35946
     -2078.944  
  21112734.924   110948169.51948     -1820.116    21112736.456    86453126.36448
     -1418.277  
  21416104.422   112542384.33448     -2831.707    21416106.126    87695371.82346
     -2206.526  
  21008044.728   110398019.51549      2001.237    21008045.251    86024432.31847
      1559.402  
  21555190.236   113273296.94048      3133.793    21555192.820    88264916.96347
      2441.913  
  22581123.287   118664601.26247      2008.687    22581124.956    92465925.93045
      1565.206  
  24007051.629   126157901.67947     -2203.249    24007055.393    98304867.17145
     -1716.819  
  8  6  4  2 14 15.0000000  0  8G24G29G15G26G21G 9G18G10
  20555189.126   108018246.32549     -1056.965    20555191.762    84170071.26548
      -823.613  
  23801296.724   125076630.04346     -2668.769    23801299.620    97462334.89546
     -2079.565  
  21117935.094   110975496.97548     -1823.710    21117936.678    86474420.49848
     -1421.077  
  21424191.365   112584882.04148     -2834.727    21424193.148    87728486.92147
     -2208.883  
  21002342.799   110368055.51748      1993.855    21002343.116    86001083.74747
      1553.652  
  21546252.879   113226331.40848      3127.988    21546255.764    88228320.46147
      2437.390  
  22575389.441   118634469.79047      2008.746    22575390.895    92442446.84945
      1565.253  
  24013342.408   126190959.38747     -2204.641    24013345.989    98330626.38945
     -1717.910  
  8  6  4  2 14 30.0000000  0  8G24G29G15G26G21G 9G18G10
  20558218.291   108034164.66649     -1065.398    20558221.020    84182475.16347
      -830.184  
  23808915.771   125116669.68746     -2670.011    23808918.960    97493534.63046
     -2080.530  
  21123146.243   111002881.40048     -1827.664    21123147.790    86495759.00547
     -1424.155  
  21432287.565   112627429.92148     -2838.190    21432290.081    87761641.10447
     -2211.582  
  20996662.320   110338204.99659      1986.140    20996662.730    85977823.57957
      1547.640  
  21537333.022   113179457.24348      3121.862    21537335.929    88191795.13647
      2432.616  
  22569656.903   118604344.38348      2007.929    22569658.019    92418972.52145
      1564.613  
  24019637.777   126224041.89947     -2206.301    24019641.487    98356404.96545
     -1719.199  
  8  6  4  2 14 45.0000000  0  8G24G29G15G26G21G 9G18G10
  20561271.038   108050206.70649     -1073.534    20561273.648    84194975.44547
      -836.522  
  23816537.532   125156722.59346     -2670.812    23816540.593    97524744.62946
     -2081.156  
  21128367.799   111030321.99048     -1831.258    21128369.410    86517141.29048
     -1426.956  
  21440393.315   112670026.77048     -2841.374    21440395.755    87794833.45046
     -2214.062  
  20991003.560   110308467.57349      1978.719    20991003.962    85954651.55946
      1541.855  
  21528430.463   113132674.13748      3115.890    21528433.202    88155340.76747
      2427.965  
  22563925.346   118574224.56848      2007.897    22563926.224    92395502.52745
      1564.594  
  24025937.886   126257148.56847     -2208.046    24025941.681    98382202.33244
     -1720.558  
  8  6  4  2 15  0.0000000  0  8G24G29G15G26G21G 9G18G10
  20564347.022   108066370.48949     -1081.664    20564349.451    84207570.59448
      -842.859  
  23824161.522   125196786.43047     -2671.300    23824164.672    97555963.14646
     -2081.535  
  21133599.925   111057816.40548     -1834.933    21133601.391    86538565.50347
     -1429.820  
  21448508.036   112712670.38448     -2844.288    21448510.697    87828062.21947
     -2216.331  
  20985365.963   110278841.67549      1971.340    20985366.373    85931566.44747
      1536.104  
  21519544.714   113085980.77048      3109.879    21519547.804    88118956.32947
      2423.276  
  22558194.549   118544108.58747      2007.707    22558195.235    92372035.55645
      1564.445  
  24032242.376   126290277.45147     -2209.273    24032246.173    98408017.04745
     -1721.516  
  8  6  4  2 15 15.0000000  0  8G24G29G15G26G21G 9G18G10
  20567446.665   108082659.28749     -1090.019    20567449.256    84220263.15448
      -849.367  
  23831787.988   125236864.15545     -2672.336    23831791.229    97587192.49846
     -2082.343  
  21138842.659   111085367.84249     -1838.598    21138844.347    86560034.15647
     -1432.675  
  21456632.259   112755363.77748     -2847.644    21456634.723    87861329.81246
     -2218.944  
  20979750.247   110249330.89049      1963.633    20979750.786    85908571.05847
      1530.102  
  21510676.970   113039380.71248      3103.640    21510680.028    88082644.61447
      2418.417  
  22552465.074   118513999.77347      2007.229    22552465.664    92348574.17145
      1564.073  
  24038551.427   126323431.73647     -2211.043    24038555.202    98433851.53045
     -1722.895  
  8  6  4  2 15 30.0000000  0  8G24G29G15G26G21G 9G18G10
  20570569.648   108099071.51549     -1098.124    20570572.330    84233051.89948
      -855.684  
  23839416.732   125276953.85446     -2673.030    23839420.111    97618431.15246
     -2082.886  
  21144096.127   111112974.53848     -1842.229    21144097.450    86581545.85947
     -1435.508  
  21464765.713   112798105.30548     -2850.941    21464768.024    87894634.88246
     -2221.515  
  20974156.452   110219934.07849      1956.151    20974156.709    85885664.40447
      1524.269  
  21501826.790   112992872.82548      3097.698    21501829.811    88046404.70347
      2413.788  
  22546736.683   118483896.78347      2006.804    22546737.247    92325117.26045
      1563.741  
  24044865.289   126356610.02547     -2212.499    24044869.017    98459704.73145
     -1724.026  
  8  6  4  2 15 45.0000000  0  8G24G29G15G26G21G 9G18G10
  20573715.824   108115605.65849     -1105.922    20573718.695    84245935.64648
      -861.762  
  23847047.732   125317053.93347     -2673.359    23847050.774    97649677.90746
     -2083.140  
  21149359.646   111140634.67448     -1845.316    21149361.184    86603099.22147
     -1437.909  
  21472907.966   112840892.82048     -2853.655    21472910.134    87927975.80447
     -2223.632  
  20968583.899   110190650.02149      1948.952    20968584.198    85862845.65247
      1518.659  
  21492994.256   112946456.10948      3091.828    21492997.064    88010235.83047
      2409.214  
  22541008.937   118453797.96347      2006.789    22541009.693    92301663.66445
      1563.734  
  24051183.263   126389810.88747     -2213.726    24051187.248    98485575.52245
     -1724.983  
  8  6  4  2 16  0.0000000  0  8G24G29G15G26G21G 9G18G10
  20576885.666   108132263.07049     -1114.710    20576888.493    84258915.44048
      -868.608  
  23854680.972   125357165.16247     -2674.707    23854684.253    97680933.38446
     -2084.191  
  21154633.635   111168349.51348     -1849.676    21154635.180    86624695.19847
     -1441.308  
  21481059.211   112883727.86948     -2857.559    21481061.402    87961353.76047
     -2226.671  
  20963033.041   110161480.53549      1940.504    20963033.660    85840116.19047
      1512.078  
  21484179.212   112900132.42948      3084.859    21484182.021    87974139.45547
      2403.784  
  22535282.101   118423704.79947      2005.780    22535283.371    92278214.45945
      1562.944  
  24057505.935   126423035.56746     -2215.921    24057509.743    98511464.86045
     -1726.695  
  8  6  4  2 16 15.0000000  0  8G24G29G15G26G21G 9G18G10
  20580079.114   108149045.53249     -1122.863    20580082.209    84271992.67148
      -874.960  
  23862316.192   125397288.95147     -2675.483    23862319.795    97712198.62146
     -2084.797  
  21159918.328   111196120.51148     -1853.128    21159919.705    86646334.94548
     -1444.000  
  21489219.905   112926611.44948     -2860.237    21489222.009    87994769.51946
     -2228.762  
  20957504.473   110132427.55849      1933.124    20957505.109    85817477.51247
      1506.328  
  21475382.202   112853903.85948      3078.914    21475385.119    87938117.20247
      2399.152  
  22529556.945   118393619.14847      2005.604    22529558.387    92254771.14045
      1562.804  
  24063833.252   126456285.78046     -2217.207    24063836.963    98537374.11345
     -1727.698  
  8  6  4  2 16 30.0000000  0  8G24G29G15G26G21G 9G18G10
  20583296.256   108165951.66749     -1131.270    20583299.589    84285166.27348
      -881.512  
  23869953.831   125437423.73546     -2675.913    23869957.412    97743472.44846
     -2085.132  
  21165213.537   111223946.24549     -1856.926    21165215.031    86668017.32748
     -1446.957  
  21497389.456   112969542.26248     -2863.530    21497391.560    88028222.09147
     -2231.328  
  20951998.009   110103490.23949      1925.301    20951998.528    85794928.95147
      1500.230  
  21466603.233   112807769.59848      3072.645    21466606.025    87902168.44047
      2394.265  
  22523833.134   118363540.00747      2005.160    22523834.061    92231332.82245
      1562.460  
  24070165.115   126489560.82146     -2219.308    24070168.600    98563302.70445
     -1729.336  
  8  6  4  2 16 45.0000000  0  8G24G29G15G26G21G 9G18G10
  20586537.253   108182982.68849     -1139.354    20586540.566    84298437.18848
      -887.813  
  23877593.513   125477570.59547     -2676.675    23877597.076    97774755.69146
     -2085.722  
  21170519.175   111251827.74548     -1860.589    21170520.896    86689743.17348
     -1449.813  
  21505568.226   113012521.14548     -2866.741    21505570.190    88061712.11847
     -2233.827  
  20946513.806   110074670.12049      1917.598    20946514.438    85772471.70847
      1494.229  
  21457842.509   112761731.40448      3066.190    21457845.265    87866294.52947
      2389.237  
  22518110.701   118333468.76546      2004.542    22518111.637    92207900.67543
      1561.976  
  24076501.830   126522861.94846     -2220.895    24076505.519    98589251.57445
     -1730.570  
  8  6  4  2 17  0.0000000  0  8G24G29G15G26G21G 9G18G10
  20589801.630   108200136.29649     -1147.727    20589804.614    84311803.64048
      -894.336  
  23885234.970   125517727.00547     -2677.616    23885238.590    97806046.38246
     -2086.457  
  21175835.121   111279762.48148     -1864.175    21175836.675    86711510.49548
     -1452.608  
  21513755.372   113055545.54248     -2869.632    21513757.500    88095237.62647
     -2236.082  
  20941051.461   110045965.17549      1909.757    20941052.264    85750104.23747
      1488.120  
  21449099.696   112715787.36149      3059.784    21449102.381    87830493.97247
      2384.246  
  22512389.664   118303403.13547      2004.254    22512389.934    92184472.88044
      1561.746  
  24082843.147   126556186.45546     -2222.608    24082846.940    98615218.72745
     -1731.905  
  8  6  4  2 17 15.0000000  0  8G24G29G15G26G21G 9G18G10
  20593089.187   108217412.83449     -1155.863    20593092.097    84325265.86248
      -900.675  
  23892878.126   125557892.56147     -2677.840    23892881.805    97837344.19346
     -2086.633  
  21181161.071   111307750.47448     -1867.573    21181162.795    86733319.31448
     -1455.254  
  21521951.390   113098615.56248     -2872.929    21521953.551    88128798.67847
     -2238.647  
  20935611.151   110017376.12449      1902.120    20935611.933    85727827.05447
      1482.167  
  21440375.038   112669938.06749      3053.469    21440377.711    87794767.25247
      2379.324  
  22506669.549   118273343.35647      2004.027    22506669.579    92161049.70444
      1561.581  
  24089189.003   126589535.02647     -2224.020    24089192.801    98641204.62644
     -1733.004  
  8  6  4  2 17 30.0000000  0  8G24G29G15G26G21G 9G18G10
  20596399.866   108234810.54049     -1164.160    20596402.868    84338822.51248
      -907.140  
  23900522.752   125598065.28147     -2678.620    23900526.124    97868647.55845
     -2087.242  
  21186496.806   111335790.07548     -1871.229    21186498.635    86755168.34448
     -1458.105  
  21530155.741   113141729.12348     -2875.883    21530157.883    88162393.64347
     -2240.949  
  20930192.466   109988901.61548      1894.304    20930193.312    85705639.11347
      1476.078  
  21431667.978   112624182.27948      3047.063    21431670.639    87759113.40447
      2374.331  
  22500950.420   118243288.00247      2003.176    22500950.241    92137629.90644
      1560.910  
  24095539.309   126622906.04647     -2225.758    24095542.853    98667207.99744
     -1734.359  
  8  6  4  2 17 45.0000000  0  8G24G29G15G26G21G 9G18G10
  20599733.784   108252330.83649     -1172.253    20599736.965    84352474.67348
      -913.448  
  23908169.026   125638246.22047     -2679.043    23908172.212    97899957.32645
     -2087.570  
  21191842.465   111363882.29648     -1874.542    21191844.421    86777058.38448
     -1460.688  
  21538368.446   113184887.36848     -2878.840    21538370.724    88196023.44747
     -2243.253  
  20924796.028   109960543.36349      1886.563    20924796.791    85683541.79047
      1470.046  
  21422978.797   112578521.79648      3040.902    21422981.577    87723533.83447
      2369.531  
  22495232.188   118213238.51947      2002.867    22495232.178    92114214.73744
      1560.672  
  24101894.045   126656300.94346     -2226.995    24101897.628    98693229.95444
     -1735.327  
  8  6  4  2 18  0.0000000  0  8G24G29G15G26G21G 9G18G10
  20603091.122   108269973.07549     -1180.160    20603094.224    84366221.87048
      -919.609  
  23915816.735   125678434.42248     -2679.379    23915819.500    97931272.78545
     -2087.831  
  21197198.007   111392026.39548     -1878.051    21197199.882    86798988.84948
     -1463.418  
  21546589.345   113228089.45648     -2881.633    21546592.011    88229687.39847
     -2245.430  
  20919421.712   109932301.07849      1878.940    20919422.554    85661534.81347
      1464.104  
  21414308.088   112532956.60049      3034.543    21414310.869    87688028.48447
      2364.574  
  22489514.991   118183194.35447      2002.629    22489514.915    92090803.75144
      1560.488  
  24108253.782   126689719.17846     -2228.780    24108256.837    98719270.10444
     -1736.715  
  8  6  4  2 18 15.0000000  0  8G24G29G15G26G21G 9G18G10
  20606472.118   108287740.42449     -1188.766    20606475.251    84380066.55048
      -926.312  
  23923466.439   125718633.07747     -2680.366    23923468.985    97962596.36446
     -2088.601  
  21202563.974   111420225.39748     -1881.941    21202566.133    86820962.09248
     -1466.449  
  21554819.349   113271338.35548     -2884.762    21554821.957    88263387.83846
     -2247.870  
  20914070.126   109904178.30349      1870.675    20914071.099    85639620.96748
      1457.668  
  21405656.320   112487490.25249      3027.645    21405659.049    87652600.16747
      2359.199  
  22483799.084   118153158.99746      2001.878    22483799.383    92067399.57445
      1559.902  
  24114618.410   126723164.11847     -2230.531    24114621.154    98745331.04445
     -1738.077  
  8  6  4  2 18 30.0000000  0  8G24G29G15G26G21G 9G18G10
  20609876.437   108305630.61449     -1196.676    20609879.543    84394006.96248
      -932.477  
  23931117.359   125758839.52347     -2680.476    23931120.209    97993926.03645
     -2088.690  
  21207939.887   111448476.79148     -1885.179    21207942.178    86842976.16248
     -1468.973  
  21563057.744   113314631.56948     -2887.585    21563060.495    88297122.80446
     -2250.070  
  20908740.972   109876173.22349      1863.104    20908742.015    85617798.82347
      1451.765  
  21397022.933   112442121.06249      3021.438    21397025.399    87617247.56147
      2354.362  
  22478084.624   118123130.34246      2001.863    22478085.402    92044000.61945
      1559.891  
  24120987.544   126756633.48947     -2232.094    24120990.096    98771411.04544
     -1739.296  
  8  6  4  2 18 45.0000000  0  8G24G29G15G26G21G 9G18G10
  20613304.203   108323643.46149     -1204.964    20613307.241    84408042.93648
      -938.937  
  23938769.744   125799053.20447     -2681.063    23938772.653    98025261.32845
     -2089.147  
  21213325.889   111476780.23548     -1888.563    21213327.999    86865030.79148
     -1471.609  
  21571304.518   113357968.59848     -2890.776    21571307.381    88330891.92546
     -2252.559  
  20903434.057   109848285.97848      1855.183    20903435.250    85596068.50647
      1445.593  
  21388407.978   112396849.29049      3014.754    21388410.345    87581970.85647
      2349.155  
  22472371.459   118093108.26947      2001.331    22472372.629    92020606.86244
      1559.487  
  24127361.355   126790127.37346     -2233.797    24127363.830    98797510.17145
     -1740.624  
  8  6  4  2 19  0.0000000  0  8G24G29G15G26G21G 9G18G10
  20616755.351   108341779.55649     -1213.145    20616758.425    84422174.95748
      -945.312  
  23946423.395   125839274.44147     -2681.733    23946426.543    98056602.54045
     -2089.668  
  21218721.970   111505136.20948     -1892.145    21218724.082    86887126.35248
     -1474.402  
  21579559.783   113401349.74448     -2893.473    21579562.678    88364695.42547
     -2254.656  
  20898149.937   109820517.49149      1847.250    20898150.853    85574430.72447
      1439.414  
  21379811.663   112351675.88048      3008.215    21379814.093    87546770.79747
      2344.059  
  22466659.656   118063093.60546      2000.972    22466661.258    91997218.75344
      1559.195  
  24133739.709   126823646.37646     -2235.476    24133742.182    98823628.86145
     -1741.934  
  8  6  4  2 19 15.0000000  0  8G24G29G15G26G21G 9G18G10
  20620229.871   108360038.93749     -1221.402    20620233.288    84436403.03448
      -951.746  
  23954078.353   125879502.98647     -2682.211    23954081.832    98087949.38745
     -2090.038  
  21224128.010   111533544.51548     -1895.589    21224129.818    86909262.68847
     -1477.086  
  21587823.308   113444774.73648     -2896.625    21587826.458    88398533.06447
     -2257.113  
  20892888.529   109792868.22949      1839.179    20892889.247    85552885.85647
      1433.125  
  21371234.273   112306601.36048      3001.730    21371236.627    87511647.79047
      2339.007  
  22460949.574   118033086.32847      2000.113    22460951.046    91973836.51544
      1558.527  
  24140122.743   126857190.60346     -2237.190    24140125.567    98849767.19544
     -1743.269  
  8  6  4  2 19 30.0000000  0  8G24G29G15G26G21G 9G18G10
  20623727.914   108378420.80549     -1229.433    20623731.094    84450726.56048
      -958.004  
  23961734.740   125919737.47747     -2682.401    23961738.263    98119300.90946
     -2090.187  
  21229543.826   111562004.19348     -1898.921    21229545.494    86931439.06847
     -1479.684  
  21596095.116   113488242.56548     -2899.203    21596098.188    88432404.10347
     -2259.120  
  20887649.503   109765337.55549      1831.487    20887650.341    85531433.38147
      1427.128  
  21362675.524   112261625.42448      2995.233    21362677.882    87476601.62747
      2333.944  
  22455240.680   118003085.85547      1999.890    22455242.033    91950459.53044
      1558.348  
  24146510.587   126890759.10946     -2238.801    24146513.287    98875924.43245
     -1744.522  
  8  6  4  2 19 45.0000000  0  8G24G29G15G26G21G 9G18G10
  20627249.079   108396923.84449     -1237.714    20627252.142    84465144.50648
      -964.457  
  23969391.973   125959976.63547     -2682.804    23969395.653    98150656.04945
     -2090.500  
  21234968.956   111590513.82148     -1902.362    21234970.558    86953654.36047
     -1482.362  
  21604374.617   113531751.73548     -2902.039    21604377.727    88466307.33847
     -2261.331  
  20882432.899   109737924.61649      1823.515    20882433.618    85510072.65047
      1420.918  
  21354135.505   112216747.25849      2988.522    21354137.718    87441631.61547
      2328.714  
  22449533.173   117973091.01646      1999.625    22449534.200    91927086.94045
      1558.152  
  24152902.927   126924350.89546     -2240.300    24152905.784    98902099.85745
     -1745.691  
  8  6  4  2 20  0.0000000  0  8G24G29G15G26G21G 9G18G10
  20630793.321   108415548.80149     -1245.555    20630796.315    84479657.45748
      -970.566  
  23977050.251   126000220.81347     -2683.022    23977053.779    98182015.07544
     -2090.676  
  21240403.941   111619074.01348     -1905.668    21240405.387    86975909.04447
     -1484.937  
  21612662.164   113575302.74148     -2904.418    21612665.248    88500243.16547
     -2263.187  
  20877239.013   109710630.59449      1815.668    20877239.682    85488804.56847
      1414.805  
  21345614.258   112171967.92849      2982.039    21345616.396    87406738.63347
      2323.664  
  22443826.377   117943102.75547      1999.309    22443827.889    91903719.45544
      1557.898  
  24159300.001   126957966.77846     -2241.805    24159302.833    98928293.98744
     -1746.870  
  8  6  4  2 20 15.0000000  0  8G24G29G15G26G21G 9G18G10
  20634360.668   108434295.55849     -1253.847    20634363.710    84494265.31348
      -977.026  
  23984709.565   126040469.59547     -2683.515    23984712.598    98213377.72344
     -2091.062  
  21245848.341   111647684.34448     -1909.046    21245849.520    86998202.79747
     -1487.570  
  21620957.729   113618895.26248     -2907.616    21620960.329    88534211.35547
     -2265.680  
  20872067.738   109683455.73749      1807.651    20872068.489    85467629.36548
      1408.559  
  21337112.050   112127287.89849      2975.214    21337114.171    87371923.03747
      2318.348  
  22438121.236   117913121.09847      1998.538    22438122.805    91880357.21545
      1557.305  
  24165701.597   126991606.95546     -2243.445    24165704.807    98954507.15445
     -1748.140  
  8  6  4  2 20 30.0000000  0  8G24G29G15G26G21G 9G18G10
  20637951.464   108453165.03549     -1262.000    20637954.236    84508968.79448
      -983.378  
  23992369.887   126080723.51347     -2683.788    23992372.500    98244744.36644
     -2091.270  
  21251302.397   111676345.38248     -1912.339    21251303.805    87020536.08747
     -1490.137  
  21629261.189   113662529.89548     -2910.359    21629263.732    88568212.36846
     -2267.815  
  20866919.491   109656401.26349      1799.684    20866920.102    85446547.95847
      1402.348  
  21328628.974   112082708.62848      2968.702    21328630.652    87337185.94647
      2313.272  
  22432417.492   117883147.16047      1998.094    22432418.855    91857000.86744
      1556.957  
  24172107.936   127025272.27546     -2245.434    24172110.965    98980739.86345
     -1749.690  
  8  6  4  2 20 45.0000000  0  8G24G29G15G26G21G 9G18G10
  20641565.331   108472156.25249     -1270.363    20641568.243    84523767.13848
      -989.897  
  24000030.850   126120981.33447     -2684.237    24000033.235    98276114.07544
     -2091.617  
  21256765.843   111705056.23248     -1915.797    21256767.347    87042908.15948
     -1492.831  
  21637572.534   113706205.52748     -2912.952    21637574.653    88602245.32746
     -2269.836  
  20861793.946   109629466.62249      1791.433    20861794.549    85425559.92547
      1395.918  
  21320164.872   112038229.59849      2961.733    21320166.516    87302526.97247
      2307.840  
  22426715.040   117853180.00746      1997.164    22426716.395    91833649.84344
      1556.229  
  24178518.734   127058961.77346     -2247.105    24178521.974    99006991.40545
     -1750.995  
  8  6  4  2 21  0.0000000  0  8G24G29G15G26G21G 9G18G10
  20645202.810   108491271.55449     -1278.375    20645205.894    84538662.18148
      -996.141  
  24007692.914   126161245.21847     -2684.316    24007695.308    98307488.51544
     -2091.679  
  21262239.222   111733819.13048     -1919.151    21262240.704    87065320.79747
     -1495.445  
  21645891.956   113749924.35048     -2915.858    21645893.714    88636311.93046
     -2272.102  
  20856691.865   109602654.54049      1783.558    20856692.401    85404667.38847
      1389.780  
  21311720.492   111993853.67849      2954.851    21311722.323    87267948.32147
      2302.479  
  22421014.167   117823222.06347      1997.102    22421015.820    91810306.03244
      1556.179  
  24184934.820   127092678.18946     -2248.737    24184937.972    99033263.87545
     -1752.270  
  8  6  4  2 21 15.0000000  0  8G24G29G15G26G21G 9G18G10
  20648863.938   108510510.72349     -1286.453    20648867.005    84553653.72748
     -1002.433  
  24015355.691   126201514.56947     -2684.559    24015358.276    98338867.15045
     -2091.871  
  21267722.370   111762633.60948     -1922.253    21267724.169    87087773.64047
     -1497.863  
  21654219.064   113793685.59848     -2918.628    21654221.146    88670411.58946
     -2274.257  
  20851613.219   109575965.10449      1775.507    20851613.416    85383870.41847
      1383.507  
  21303295.613   111949580.95148      2948.210    21303297.699    87233450.11347
      2297.305  
  22415314.860   117793273.38147      1996.546    22415316.638    91786969.39744
      1555.745  
  24191355.935   127126421.28347     -2250.066    24191359.085    99059557.13645
     -1753.300  
  8  6  4  2 21 30.0000000  0  8G24G29G15G26G21G 9G18G10
  20652547.669   108529868.26849     -1294.516    20652550.668    84568737.52148
     -1008.715  
  24023018.457   126241783.77347     -2684.789    24023021.042    98370245.74144
     -2092.046  
  21273214.369   111791494.07148     -1925.687    21273216.198    87110262.30248
     -1500.538  
  21662553.427   113837483.88248     -2921.328    21662555.689    88704540.12046
     -2276.362  
  20846556.783   109549393.29249      1767.414    20846556.870    85363165.11547
      1377.202  
  21294889.555   111905406.50549      2941.539    21294891.630    87199028.47647
      2292.104  
  22409616.513   117763328.77047      1996.051    22409618.183    91763635.92745
      1555.359  
  24197781.231   127160185.63247     -2251.941    24197784.212    99085866.98945
     -1754.761  
  8  6  4  2 21 45.0000000  0  8G24G29G15G26G21G 9G18G10
  20656254.841   108549349.08649     -1302.944    20656257.620    84583917.36948
     -1015.285  
  24030682.524   126282057.43547     -2684.987    24030684.768    98401627.73044
     -2092.210  
  21278715.869   111820405.39848     -1929.292    21278717.784    87132790.59248
     -1503.347  
  21670895.585   113881323.81248     -2924.020    21670898.317    88738701.09647
     -2278.461  
  20841523.708   109522944.33449      1758.987    20841523.618    85342555.53747
      1370.636  
  21286503.073   111861335.80749      2934.382    21286505.224    87164687.67147
      2286.526  
  22403920.091   117733393.18147      1995.194    22403921.711    91740309.48243
      1554.695  
  24204211.393   127193976.32946     -2253.663    24204214.649    99112197.36644
     -1756.108  
  8  6  4  2 22  0.0000000  0  8G24G29G15G26G21G 9G18G10
  20659984.839   108568950.82849     -1311.034    20659987.592    84599191.45147
     -1021.590  
  24038346.799   126322332.97547     -2685.105    24038349.037    98433011.22444
     -2092.296  
  21284226.808   111849365.04548     -1932.355    21284228.772    87155356.54448
     -1505.733  
  21679245.370   113925202.81848     -2926.469    21679248.293    88772892.51047
     -2280.367  
  20836513.674   109496616.24349      1751.210    20836513.614    85322040.15847
      1364.578  
  21278136.024   111817366.88749      2927.659    21278138.266    87130426.19147
      2281.288  
  22398224.882   117703464.59647      1994.961    22398226.291    91716988.43945
      1554.504  
  24210646.203   127227791.19946     -2255.401    24210649.492    99138546.59745
     -1757.461  
  8  6  4  2 22 15.0000000  0  8G24G29G15G26G21G 9G18G10
  20663738.201   108588674.12649     -1319.007    20663740.733    84614560.24847
     -1027.801  
  24046011.565   126362610.49647     -2685.327    24046013.541    98464396.27544
     -2092.464  
  21289746.805   111878373.38948     -1935.519    21289748.986    87177960.45848
     -1508.199  
  21687602.720   113969121.21048     -2929.245    21687605.652    88807114.62247
     -2282.530  
  20831526.825   109470410.07849      1742.866    20831526.621    85301619.75647
      1358.074  
  21269788.578   111773500.76349      2920.957    21269790.461    87096244.79447
      2276.066  
  22392531.150   117673543.48747      1994.305    22392532.283    91693673.36744
      1554.004  
  24217085.706   127261630.73847     -2256.883    24217088.980    99164915.03645
     -1758.612  
  8  6  4  2 22 30.0000000  0  8G24G29G15G26G21G 9G18G10
  20667514.271   108608518.20049     -1327.074    20667516.884    84630023.14448
     -1034.086  
  24053676.575   126402889.08547     -2685.398    24053678.613    98495782.15044
     -2092.520  
  21295275.881   111907429.62848     -1938.706    21295278.103    87200601.67548
     -1510.684  
  21695967.418   114013077.96048     -2931.734    21695970.468    88841366.61547
     -2284.472  
  20826562.961   109444325.26849      1734.823    20826562.783    85281293.91947
      1351.808  
  21261460.757   111729737.11349      2914.055    21261462.425    87062143.25047
      2270.688  
  22386838.656   117643629.54047      1993.855    22386839.509    91670363.81545
      1553.652  
  24223529.886   127295494.28947     -2258.413    24223533.136    99191302.21445
     -1759.804  
  8  6  4  2 22 45.0000000  0  8G24G29G15G26G21G 9G18G10
  20671313.598   108628484.67149     -1335.000    20671316.276    84645581.42647
     -1040.262  
  24061341.746   126443170.17147     -2685.272    24061343.988    98527169.95444
     -2092.426  
  21300814.541   111936535.07748     -1941.895    21300816.769    87223281.24348
     -1513.167  
  21704339.765   114057074.72248     -2934.480    21704342.647    88875649.82147
     -2286.612  
  20821622.490   109418363.85249      1726.796    20821622.621    85261064.25247
      1345.555  
  21253152.757   111686078.11748      2907.172    21253154.235    87028123.25947
      2265.324  
  22381147.936   117613724.41947      1993.292    22381148.952    91647061.09044
      1553.207  
  24229978.875   127329383.60746     -2260.160    24229982.219    99217709.47545
     -1761.168  
  8  6  4  2 23  0.0000000  0  8G24G29G15G26G21G 9G18G10
  20675136.408   108648573.73749     -1343.301    20675139.036    84661235.23747
     -1046.729  
  24069007.467   126483453.49747     -2685.808    24069010.044    98558559.51344
     -2092.840  
  21306362.397   111965689.91548     -1945.258    21306364.769    87245999.28348
     -1515.789  
  21712719.851   114101111.21548     -2937.063    21712722.349    88909963.95746
     -2288.624  
  20816705.839   109392526.68149      1718.426    20816706.007    85240931.38047
      1339.030  
  21244864.715   111642524.50749      2900.207    21244866.385    86994185.40047
      2259.897  
  22375458.844   117583828.38346      1992.668    22375460.033    91623765.44944
      1552.729  
  24236432.780   127363299.29946     -2261.690    24236436.224    99244137.23245
     -1762.359  
  8  6  4  2 23 15.0000000  0  8G24G29G15G26G21G 9G18G10
  20678982.250   108668783.61549     -1351.538    20678984.822    84676983.18247
     -1053.151  
  24076673.215   126523737.21247     -2685.722    24076676.002    98589949.36244
     -2092.777  
  21311919.510   111994892.18048     -1948.664    21311921.737    87268754.29447
     -1518.441  
  21721107.042   114145185.57948     -2939.750    21721109.490    88944307.61247
     -2290.719  
  20811812.621   109366812.11349      1710.086    20811812.893    85220894.05547
      1332.531  
  21236596.365   111599074.94449      2892.945    21236598.426    86960328.61347
      2254.237  
  22369770.792   117553939.84446      1991.902    22369772.431    91600475.73544
      1552.124  
  24242891.367   127397239.65046     -2263.995    24242894.870    99270584.24944
     -1764.156  
  8  6  4  2 23 30.0000000  0  8G24G29G15G26G21G 9G18G10
  20682851.291   108689115.43649     -1359.512    20682853.860    84692826.15147
     -1059.363  
  24084339.068   126564022.04246     -2685.598    24084342.165    98621340.11144
     -2092.679  
  21317485.620   112024142.84648     -1951.741    21317487.946    87291547.01847
     -1520.840  
  21729501.559   114189298.71848     -2942.195    21729504.024    88978681.48347
     -2292.620  
  20806942.823   109341221.53049      1701.785    20806943.219    85200953.33347
      1326.063  
  21228348.496   111555731.06949      2886.034    21228350.631    86926554.17747
      2248.855  
  22364084.604   117524060.31546      1991.289    22364086.630    91577192.95445
      1551.652  
  24249355.063   127431205.63347     -2265.206    24249358.475    99297051.19145
     -1765.101  
  8  6  4  2 23 45.0000000  0  8G24G29G15G26G21G 9G18G10
  20686743.327   108709568.44349     -1367.589    20686745.995    84708763.54748
     -1065.656  
  24092004.851   126604307.06246     -2685.707    24092008.142    98652730.97444
     -2092.762  
  21323061.238   112053441.00948     -1954.843    21323062.903    87314376.75747
     -1523.258  
  21737903.373   114233449.55148     -2944.684    21737905.714    89013084.71847
     -2294.562  
  20802096.572   109315754.68149      1693.522    20802097.260    85181109.03547
      1319.624  
  21220120.450   111512492.55249      2879.008    21220122.571    86892861.83747
      2243.378  
  22358400.044   117494189.12846      1990.823    22358402.457    91553916.74644
      1551.289  
  24255823.473   127465196.76247     -2267.085    24255826.667    99323537.79644
     -1766.562  
  8  6  4  2 24  0.0000000  0  8G24G29G15G26G21G 9G18G10
  20690658.490   108730142.64249     -1375.671    20690661.247    84724795.37947
     -1071.957  
  24099670.338   126644591.90745     -2685.546    24099674.484    98684121.67844
     -2092.644  
  21328645.552   112082786.46648     -1957.976    21328647.262    87337243.33648
     -1525.699  
  21746312.312   114277638.01148     -2947.097    21746314.519    89047517.27647
     -2296.441  
  20797274.178   109290412.04949      1685.491    20797274.683    85161361.51547
      1313.366  
  21211912.430   111469359.74149      2871.987    21211914.519    86859251.86047
      2237.909  
  22352717.198   117464326.35345      1990.164    22352719.726    91530646.97745
      1550.769  
  24262296.670   127499213.26747     -2268.527    24262299.766    99350044.14644
     -1767.688  
  8  6  4  2 24 15.0000000  0  8G24G29G15G26G21G 9G18G10
  20694596.961   108750838.94449     -1383.741    20694599.715    84740922.37048
     -1078.241  
  24107336.069   126684877.22045     -2685.929    24107340.529    98715512.81744
     -2092.933  
  21334239.118   112112180.07448     -1961.077    21334240.680    87360147.44548
     -1528.116  
  21754728.355   114321864.83548     -2949.651    21754730.230    89081979.73547
     -2298.434  
  20792475.373   109265194.68849      1676.934    20792476.119    85141711.63347
      1306.698  
  21203724.925   111426334.17049      2864.793    21203727.024    86825725.43747
      2232.305  
  22347036.394   117434473.33547      1989.788    22347038.850    91507384.95645
      1550.479  
  24268774.560   127533255.77946     -2270.136    24268777.461    99376570.75644
     -1768.938  
  8  6  4  2 24 30.0000000  0  8G24G29G15G26G21G 9G18G10
  20698558.031   108771653.59949     -1391.430    20698560.777    84757141.57048
     -1084.233  
  24115001.464   126725159.07945     -2685.063    24115005.943    98746901.22045
     -2092.266  
  21339840.821   112141617.96948     -1963.812    21339842.539    87383086.06047
     -1530.245  
  21763150.955   114366125.92448     -2951.667    21763152.767    89116468.86947
     -2300.004  
  20787699.959   109240099.31249      1669.168    20787700.768    85122156.77847
      1300.647  
  21195556.964   111383412.62449      2858.155    21195559.336    86792280.08647
      2227.132  
  22341356.948   117404626.23947      1989.687    22341359.216    91484127.49245
      1550.401  
  24275256.962   127567321.28347     -2271.413    24275260.186    99403115.27645
     -1769.938  
  8  6  4  2 24 45.0000000  0  8G24G29G15G26G21G 9G18G10
  20702542.000   108792589.09149     -1399.719    20702544.668    84773454.93748
     -1090.690  
  24122666.355   126765439.69745     -2685.445    24122671.215    98778288.69843
     -2092.558  
  21345451.570   112171102.43548     -1967.266    21345452.991    87406060.95448
     -1532.938  
  21771580.566   114410423.51748     -2954.397    21771582.199    89150986.45246
     -2302.133  
  20782948.116   109215128.83249      1660.539    20782949.348    85102699.25547
      1293.921  
  21187409.488   111340597.97249      2850.848    21187411.975    86758918.00647
      2221.438  
  22335679.150   117374787.80647      1989.218    22335680.906    91460876.67045
      1550.030  
  24281744.143   127601412.02346     -2273.625    24281747.321    99429679.50744
     -1771.659  
  8  6  4  2 25  0.0000000  0  8G24G29G15G26G21G 9G18G10
  20706548.765   108813645.50249     -1407.551    20706551.607    84789862.52748
     -1096.797  
  24130331.454   126805718.81445     -2685.046    24130335.453    98809674.93944
     -2092.250  
  21351071.108   112200633.40148     -1970.147    21351072.829    87429072.09548
     -1535.183  
  21780016.914   114454757.63948     -2956.581    21780018.498    89185532.53146
     -2303.832  
  20778220.366   109190283.43549      1652.370    20778221.547    85083339.20248
      1287.559  
  21179282.679   111297890.80449      2843.651    21179284.980    86725639.69547
      2215.828  
  22330003.089   117344958.36947      1988.386    22330004.408    91437632.98545
      1549.390  
  24288236.101   127635528.02547     -2275.050    24288239.244    99456263.38044
     -1772.770  
  8  6  4  2 25 15.0000000  0  8G24G29G15G26G21G 9G18G10
  20710578.373   108834821.30249     -1415.766    20710581.287    84806363.14648
     -1103.194  
  24137996.031   126845994.75045     -2685.270    24137999.392    98841058.76844
     -2092.417  
  21356699.186   112230209.27748     -1973.237    21356700.969    87452118.23047
     -1537.590  
  21788460.061   114499126.55148     -2959.168    21788461.719    89220105.70146
     -2305.848  
  20773516.188   109165562.21849      1643.859    20773517.251    85064075.92647
      1280.925  
  21171176.184   111255290.07249      2836.391    21171178.468    86692444.32347
      2210.171  
  22324328.373   117315136.50848      1987.664    22324329.653    91414395.15445
      1548.823  
  24294732.792   127669668.02146     -2276.773    24294735.665    99482865.91944
     -1774.117  
  8  6  4  2 25 30.0000000  0  8G24G29G15G26G21G 9G18G10
  20714630.937   108856118.54249     -1423.726    20714633.924    84822958.39048
     -1109.401  
  24145660.354   126886269.13345     -2684.858    24145663.516    98872441.32444
     -2092.101  
  21362336.235   112259832.01348     -1976.172    21362337.802    87475200.87047
     -1539.879  
  21796910.037   114543532.00648     -2961.476    21796911.800    89254707.33846
     -2307.648  
  20768835.930   109140967.67449      1635.543    20768837.331    85044911.34447
      1274.445  
  21163090.308   111212798.22249      2829.238    21163092.351    86659333.80447
      2204.597  
  22318655.555   117285324.45847      1987.258    22318656.561    91391165.01145
      1548.508  
  24301234.438   127703834.24746     -2278.496    24301237.363    99509488.94245
     -1775.453  
  8  6  4  2 25 45.0000000  0  8G24G29G15G26G21G 9G18G10
  20718706.378   108877535.63049     -1431.828    20718709.483    84839647.02947
     -1115.715  
  24153323.749   126926540.20244     -2684.347    24153327.486    98903821.40543
     -2091.691  
  21367981.662   112289499.77448     -1979.343    21367983.415    87498318.61648
     -1542.347  
  21805366.605   114587972.22848     -2963.882    21805368.659    89289336.07546
     -2309.523  
  20764179.589   109116498.43349      1627.043    20764181.022    85025844.41147
      1267.824  
  21155024.999   111170414.17649      2822.051    21155026.959    86626307.28147
      2198.996  
  22312984.238   117255520.89448      1986.594    22312984.944    91367941.43845
      1547.991  
  24307740.901   127738025.18746     -2280.120    24307744.060    99536131.21644
     -1776.723  
  8  6  4  2 26  0.0000000  0  8G24G29G15G26G21G 9G18G10
  20722804.868   108899073.71449     -1439.608    20722807.767    84856429.94147
     -1121.777  
  24160986.683   126966808.78944     -2683.957    24160991.479    98935199.39845
     -2091.402  
  21373636.043   112319213.62148     -1982.113    21373637.809    87521472.26147
     -1544.507  
  21813830.014   114632448.39548     -2966.065    21813832.306    89323992.79647
     -2311.223  
  20759547.501   109092156.15149      1618.772    20759548.776    85006876.38947
      1261.379  
  21146980.419   111128139.59149      2814.878    21146982.533    86593366.04447
      2193.409  
  22307315.057   117225727.02248      1986.223    22307315.413    91344725.46845
      1547.706  
  24314252.194   127772242.36045     -2281.562    24314255.472    99562793.89144
     -1777.844  
  8  6  4  2 26 15.0000000  0  8G24G29G15G26G21G 9G18G10
  20726926.074   108920730.61149     -1447.812    20726929.096    84873305.43848
     -1128.167  
  24168648.925   127007072.67145     -2684.059    24168653.353    98966573.86645
     -2091.477  
  21379298.828   112348971.38648     -1985.276    21379300.532    87544660.13147
     -1546.973  
  21822299.883   114676957.86248     -2968.543    21822302.168    89358675.49747
     -2313.152  
  20754939.123   109067939.01849      1610.332    20754940.150    84988005.89747
      1254.801  
  21138956.361   111085972.97849      2807.477    21138958.330    86560508.96347
      2187.641  
  22301647.160   117195941.11348      1985.448    22301647.434    91321515.63645
      1547.101  
  24320767.764   127806483.66345     -2283.133    24320771.284    99589475.42745
     -1779.065  
  8  6  4  2 26 30.0000000  0  8G24G29G15G26G21G 9G18G10
  20731070.599   108942509.17349     -1455.883    20731073.432    84890275.73748
     -1134.456  
  24176310.565   127047334.20444     -2683.391    24176315.797    98997946.45044
     -2090.953  
  21384970.344   112378775.62148     -1988.473    21384972.110    87567884.20147
     -1549.461  
  21830776.703   114721503.38348     -2970.754    21830779.100    89393386.27347
     -2314.874  
  20750355.076   109043850.25449      1601.729    20750356.233    84969235.42847
      1248.097  
  21130953.408   111043917.48949      2800.003    21130955.684    86527738.46447
      2181.815  
  22295981.228   117166166.00247      1984.582    22295981.632    91298314.27746
      1546.426  
  24327288.709   127840752.02145     -2285.093    24327291.980    99616177.99144
     -1780.597  
  8  6  4  2 26 45.0000000  0  8G24G29G15G26G21G 9G18G10
  20735238.495   108964411.20849     -1463.979    20735241.522    84907342.24648
     -1140.765  
  24183971.575   127087595.18045     -2683.581    24183977.250    99029318.63244
     -2091.102  
  21390651.183   112408628.16048     -1991.410    21390652.813    87591145.92047
     -1551.749  
  21839260.644   114766086.66748     -2972.996    21839263.287    89428126.50447
     -2316.624  
  20745795.740   109019891.87649      1593.210    20745797.001    84950566.57347
      1241.460  
  21122972.043   111001975.41549      2792.668    21122974.557    86495056.33147
      2176.101  
  22290317.475   117136403.84348      1984.050    22290317.862    91275122.96146
      1546.011  
  24333814.873   127875049.21046     -2287.043    24333818.740    99642903.04544
     -1782.113  
  8  6  4  2 27  0.0000000  0  8G24G29G15G26G21G 9G18G10
  20739428.217   108986428.44349     -1471.737    20739431.266    84924498.51648
     -1146.812  
  24191631.671   127127847.10045     -2683.566    24191636.757    99060683.68544
     -2091.093  
  21396339.544   112438520.54348     -1994.354    21396341.287    87614438.67448
     -1554.047  
  21847750.366   114810699.14548     -2975.160    21847752.743    89462889.47247
     -2318.309  
  20741260.064   108996056.20649      1584.867    20741261.192    84931993.32047
      1234.956  
  21115010.737   110960139.00049      2785.484    21115013.441    86462456.51947
      2170.503  
  22284654.688   117106646.44848      1983.598    22284655.309    91251935.41346
      1545.656  
  24340345.035   127909367.26046     -2289.008    24340349.247    99669644.34745
     -1783.644  
  8  6  4  2 27 15.0000000  0  8G24G29G15G26G21G 9G18G10
  20743641.084   109008567.73749     -1480.023    20743644.176    84941749.89748
     -1153.269  
  24199291.027   127168096.25346     -2683.198    24199295.965    99092046.64544
     -2090.813  
  21402036.755   112468459.43648     -1997.530    21402038.458    87637767.67148
     -1556.520  
  21856246.779   114855347.50248     -2977.944    21856249.017    89497680.38646
     -2320.480  
  20736748.962   108972350.42549      1575.917    20736750.049    84913521.28847
      1227.983  
  21107071.142   110918415.55049      2777.714    21107073.619    86429944.74447
      2164.449  
  22278994.038   117076900.90548      1982.594    22278994.937    91228757.07345
      1544.875  
  24346880.802   127943713.04045     -2290.395    24346885.324    99696407.27244
     -1784.726  
  8  6  4  2 27 30.0000000  0  8G24G29G15G26G21G 9G18G10
  20747876.260   109030823.73849     -1487.898    20747879.551    84959092.23948
     -1159.406  
  24206949.028   127208337.41645     -2682.648    24206953.757    99123403.33644
     -2090.379  
  21407741.763   112498439.45648     -2000.261    21407743.485    87661128.74048
     -1558.648  
  21864749.001   114900026.29448     -2979.793    21864751.005    89532495.01446
     -2321.917  
  20732261.650   108948769.50349      1567.621    20732262.626    84895146.54147
      1221.520  
  21099152.100   110876800.11049      2770.434    21099154.633    86397517.13447
      2158.777  
  22273335.042   117047162.05548      1982.148    22273335.497    91205583.92346
      1544.527  
  24353420.919   127978081.39945     -2292.121    24353425.374    99723187.78045
     -1786.069  
  8  6  4  2 27 45.0000000  0  8G24G29G15G26G21G 9G18G10
  20752134.494   109053200.15749     -1495.754    20752137.688    84976528.40748
     -1165.526  
  24214605.966   127248573.67646     -2682.332    24214610.695    99154756.24844
     -2090.133  
  21413455.367   112528464.14448     -2003.058    21413457.029    87684524.59048
     -1560.827  
  21873257.366   114944738.96048     -2982.011    21873259.460    89567336.02546
     -2323.647  
  20727798.971   108925317.46649      1559.183    20727799.892    84876872.23347
      1214.945  
  21091254.119   110835296.94049      2763.109    21091256.734    86365177.02647
      2153.069  
  22267677.723   117017433.76948      1981.621    22267678.581    91182419.05045
      1544.117  
  24359966.367   128012476.14546     -2294.081    24359970.690    99749988.84644
     -1787.602  
  8  6  4  2 28  0.0000000  0  8G24G29G15G26G21G 9G18G10
  20756415.055   109075695.59749     -1503.781    20756418.530    84994057.30447
     -1171.781  
  24222261.645   127288803.79046     -2681.995    24222266.165    99186104.36844
     -2089.870  
  21419176.898   112558531.99548     -2006.128    21419178.805    87707954.08748
     -1563.219  
  21881772.037   114989483.95248     -2984.145    21881774.383    89602202.27546
     -2325.312  
  20723360.650   108901993.33949      1550.464    20723361.294    84858697.57347
      1208.152  
  21083377.532   110793905.22849      2755.644    21083379.795    86332923.74347
      2147.254  
  22262022.276   116987714.91148      1980.660    22262023.160    91159261.57445
      1543.379  
  24366516.330   128046896.12345     -2295.746    24366520.437    99776809.56044
     -1788.898  
  8  6  4  2 28 15.0000000  0  8G24G29G15G26G21G 9G18G10
  20760718.705   109098311.98949     -1511.913    20760722.248    85011680.46648
     -1178.117  
  24229916.647   127329029.34946     -2681.773    24229920.759    99217448.87044
     -2089.702  
  21424907.207   112588644.88048     -2009.144    21424908.725    87731418.65247
     -1565.569  
  21890293.367   115034263.12548     -2986.491    21890295.656    89637095.11947
     -2327.141  
  20718947.038   108878799.52549      1541.762    20718947.619    84840624.46747
      1201.370  
  21075522.636   110752627.46949      2748.059    21075524.927    86300759.24747
      2141.340  
  22256369.146   116958007.69948      1980.151    22256370.341    91136113.07245
      1542.973  
  24373071.317   128081343.37446     -2297.309    24373075.672    99803651.55844
     -1790.112  
  8  6  4  2 28 30.0000000  0  8G24G29G15G26G21G 9G18G10
  20765045.421   109121048.69349     -1519.859    20765048.792    85029397.37647
     -1184.308  
  24237569.996   127369249.28045     -2681.262    24237574.109    99248789.05844
     -2089.300  
  21430645.873   112618801.99049     -2012.012    21430647.345    87754917.71847
     -1567.805  
  21898820.820   115079075.50248     -2988.582    21898823.153    89672013.85546
     -2328.769  
  20714558.073   108855735.54649      1533.266    20714558.452    84822652.53247
      1194.749  
  21067689.468   110711463.20849      2740.523    21067691.735    86268683.20147
      2135.469  
  22250718.306   116928311.58548      1979.273    22250719.316    91112973.22545
      1542.288  
  24379631.527   128115817.35346     -2299.312    24379635.779    99830514.41245
     -1791.676  
  8  6  4  2 28 45.0000000  0  7G24G15G26G21G 9G18G10
  20769392.320   109143891.14449     -1527.194    20769395.340    85047196.67347
     -1190.026  
  21436390.275   112648988.65248     -2014.226    21436391.745    87778439.76148
     -1569.531  
  21907351.702   115123906.40248     -2990.229    21907354.485    89706947.01446
     -2330.054  
  20710191.125   108832787.42149      1525.175    20710191.235    84804770.88347
      1188.444  
  21059875.035   110670398.58349      2733.433    21059877.331    86236684.80447
      2129.945  
  22245067.008   116898612.22148      1979.254    22245067.537    91089830.88245
      1542.272  
  24386194.221   128150303.79546     -2300.344    24386198.444    99857386.89545
     -1792.483  
  8  6  4  2 29  0.0000000  0  8G24G29G15G26G21G 9G18G10
  20773766.985   109166880.76249     -1535.050    20773770.094    85065110.65048
     -1196.147  
  24252873.039   127449703.41055     -2679.319    24252874.831    99311472.98854
     -2087.785  
  21442148.196   112679246.26348     -2017.175    21442149.759    87802017.11847
     -1571.827  
  21915894.155   115168797.10848     -2992.409    21915896.510    89741926.77346
     -2331.750  
  20705854.287   108809997.03049      1516.473    20705854.558    84787012.13547
      1181.663  
  21052087.726   110629475.40849      2725.965    21052090.134    86204796.62847
      2124.125  
  22239422.796   116868951.21748      1978.672    22239423.338    91066718.39345
      1541.819  
  24392767.354   128184844.18746     -2301.922    24392771.488    99884301.47345
     -1793.706  
  8  6  4  2 29 15.0000000  0  8G24G29G15G26G21G 9G18G10
  20778161.472   109189973.72849     -1542.741    20778164.833    85083105.15348
     -1202.140  
  24260522.522   127489903.71655     -2678.589    24260525.143    99342812.48653
     -2087.223  
  21447910.981   112709530.90048     -2019.570    21447912.554    87825615.55147
     -1573.695  
  21924439.380   115213703.38448     -2994.175    21924441.836    89776918.67346
     -2333.129  
  20701538.887   108787320.72949      1508.124    20701539.441    84769342.29547
      1175.160  
  21044319.092   110588650.33749      2718.609    21044321.374    86172984.88447
      2118.394  
  22233777.640   116839285.03848      1978.163    22233777.980    91043601.90946
      1541.422  
  24399342.100   128219394.58246     -2303.031    24399346.340    99911223.86545
     -1794.574  
  8  6  4  2 29 30.0000000  0  8G24G29G15G26G21G 9G18G10
  20782576.870   109213176.70449     -1550.828    20782580.226    85101185.38948
     -1208.441  
  24268169.601   127530084.19846     -2678.335    24268173.331    99374121.91344
     -2087.019  
  21453680.284   112739848.94948     -2022.621    21453681.633    87849239.99647
     -1576.069  
  21932989.022   115258632.02348     -2996.199    21932991.384    89811927.98846
     -2334.702  
  20697246.707   108764765.70249      1499.327    20697247.339    84751766.94747
      1168.305  
  21036570.384   110547930.56949      2710.772    21036572.899    86141255.20547
      2112.289  
  22228132.633   116809620.63748      1977.340    22228133.114    91020486.78545
      1540.780  
  24405919.946   128253961.99346     -2305.613    24405924.352    99938159.47345
     -1796.585  
  8  6  4  2 29 45.0000000  0  8G24G29G15G26G21G 9G18G10
  20787016.101   109236504.61649     -1559.188    20787019.226    85119362.97647
     -1214.952  
  24275815.865   127570262.68145     -2678.315    24275817.837    99405429.73144
     -2087.012  
  21459458.837   112770215.32448     -2025.815    21459460.362    87872902.11147
     -1578.563  
  21941545.774   115303597.68248     -2998.691    21941548.049    89846966.16445
     -2336.644  
  20692980.651   108742347.08349      1490.332    20692981.308    84734297.89247
      1161.293  
  21028844.527   110507331.54249      2702.847    21028847.101    86109619.60347
      2106.112  
  22222490.817   116779972.72348      1976.265    22222491.386    90997384.50945
      1539.945  
  24412504.212   128288561.44746     -2307.354    24412508.588    99965120.06845
     -1797.940  
  8  6  4  2 30  0.0000000  0  8G24G29G15G26G21G 9G18G10
  20791478.840   109259955.78149     -1567.655    20791481.905    85137636.61948
     -1221.555  
  24283459.600   127610437.24645     -2678.304    24283462.319    99436734.54344
     -2086.991  
  21465246.151   112800628.42648     -2029.319    21465247.706    87896600.63047
     -1581.293  
  21950109.314   115348598.67348     -3001.441    21950111.128    89882031.88546
     -2338.789  
  20688740.154   108720063.52849      1480.890    20688741.097    84716934.09347
      1153.937  
  21021141.469   110466852.22649      2694.480    21021144.220    86078077.28247
      2099.594  
  22216852.083   116750340.35348      1974.702    22216852.516    90974294.36946
      1538.726  
  24419094.120   128323191.49546     -2309.848    24419097.919    99992104.46445
     -1799.883  
  8  6  4  2 30 15.0000000  0  8G24G29G15G26G21G 9G18G10
  20795963.712   109283523.28349     -1575.140    20795966.686    85156000.89248
     -1227.387  
  24291102.037   127650600.86845     -2677.809    24291104.112    99468030.84641
     -2086.605  
  21471041.129   112831081.02548     -2031.780    21471042.561    87920329.93847
     -1583.211  
  21958678.353   115393627.61848     -3002.964    21958680.111    89917119.37646
     -2339.976  
  20684524.332   108697908.63949      1472.496    20684525.084    84699670.53647
      1147.395  
  21013459.887   110426486.05749      2687.198    21013462.848    86046623.12847
      2093.917  
  22211214.811   116720716.88348      1974.479    22211215.527    90951211.12245
      1538.555  
  24425688.662   128357845.44946     -2311.313    24425692.167   100019107.49544
     -1801.031  
  8  6  4  2 30 30.0000000  0  8G24G29G15G26G21G 9G18G10
  20800470.966   109307209.84649     -1583.207    20800474.151    85174457.95648
     -1233.671  
  24298742.770   127690755.69444     -2676.960    24298745.829    99499320.21241
     -2085.944  
  21476844.015   112861575.71048     -2034.492    21476845.828    87944092.03447
     -1585.319  
  21967252.911   115438687.35348     -3005.352    21967254.637    89952230.84246
     -2341.836  
  20680333.659   108675885.47649      1463.616    20680334.215    84682509.62647
      1140.476  
  21005800.600   110386236.20049      2679.328    21005803.435    86015259.61148
      2087.785  
  22205579.965   116691105.03748      1973.703    22205580.593    90928136.98146
      1537.949  
  24432288.498   128392526.13446     -2313.175    24432291.537   100046131.37545
     -1802.477  
  8  6  4  2 30 45.0000000  0  7G24G15G26G21G 9G18G10
  20804996.466   109330991.91349     -1591.015    20804999.716    85192989.42047
     -1239.753  
  21482650.511   112892088.95848     -2037.102    21482652.361    87967868.59747
     -1587.354  
  21975828.606   115483753.99248     -3007.065    21975830.674    89987347.68646
     -2343.171  
  20676163.469   108653970.88149      1455.089    20676164.022    84665433.32247
      1133.832  
  20998159.004   110346079.46449      2671.715    20998161.861    85983968.64447
      2081.852  
  22199942.551   116661481.56948      1973.097    22199943.486    90905053.75245
      1537.476  
  24438888.713   128427209.78346     -2314.602    24438891.871   100073157.60645
     -1803.589  
  8  6  4  2 31  0.0000000  0  7G24G15G26G21G 9G18G10
  20809548.819   109354914.25549     -1598.483    20809551.839    85211630.19647
     -1245.574  
  21488469.171   112922665.37948     -2039.531    21488471.010    87991694.36647
     -1589.250  
  21984414.184   115528872.22848     -3008.438    21984416.525    90022504.71846
     -2344.238  
  20672022.697   108632210.07349      1446.543    20672022.956    84648476.84847
      1127.171  
  20990543.915   110306061.31049      2664.297    20990546.700    85952785.67948
      2076.074  
  22194311.569   116631891.40348      1972.645    22194312.581    90881996.51345
      1537.121  
  24445498.299   128461941.76546     -2315.862    24445501.180   100100221.43443
     -1804.569  
  8  6  4  2 31 15.0000000  0  7G24G15G26G21G 9G18G10
  20814123.450   109378954.76149     -1606.612    20814126.527    85230363.06047
     -1251.910  
  21494295.441   112953282.91448     -2042.465    21494297.317    88015552.18147
     -1591.534  
  21993005.297   115574019.83348     -3010.495    21993007.828    90057684.66746
     -2345.844  
  20667906.860   108610581.23749      1437.605    20667907.376    84631623.20647
      1120.207  
  20982951.006   110266160.05449      2656.254    20982953.753    85921693.79847
      2069.804  
  22188682.768   116602312.72648      1971.522    22188683.962    90858948.16346
      1536.246  
  24452112.660   128496700.03046     -2318.426    24452115.226   100127305.78745
     -1806.570  
  8  6  4  2 31 30.0000000  0  7G24G15G26G21G 9G18G10
  20818720.402   109403111.68549     -1612.882    20818723.313    85249186.63047
     -1256.797  
  21500129.390   112983939.61548     -2043.680    21500130.772    88039440.48747
     -1592.479  
  22001601.900   115619194.85048     -3011.108    22001604.251    90092885.99046
     -2346.319  
  20663815.786   108589082.99649      1430.354    20663816.509    84614871.35247
      1114.558  
  20975379.905   110226374.39749      2650.027    20975382.958    85890692.00248
      2064.953  
  22183055.963   116572743.79248      1972.300    22183057.104    90835907.46445
      1536.852  
  24458731.417   128531482.98946     -2318.238    24458734.363   100154409.32744
     -1806.425  
  8  6  4  2 31 45.0000000  0  7G24G15G26G21G 9G18G10
  20823339.777   109427386.91649     -1622.336    20823342.907    85268102.37648
     -1264.160  
  21505971.132   113014637.17948     -2047.890    21505972.230    88063360.68547
     -1595.762  
  22010203.932   115664398.89848     -3014.559    22010206.497    90128109.90646
     -2349.011  
  20659750.106   108567717.70549      1419.961    20659750.902    84598223.05747
      1106.461  
  20967831.332   110186706.78749      2640.608    20967834.329    85859782.19247
      2057.612  
  22177431.517   116543186.88248      1970.219    22177432.815    90812876.13046
      1535.229  
  24465355.543   128566292.44246     -2321.406    24465358.452   100181533.55245
     -1808.891  
  8  6  4  2 32  0.0000000  0  7G24G15G26G21G 9G18G10
  20827981.588   109451779.48649     -1630.097    20827984.711    85287109.57048
     -1270.211  
  21511820.139   113045374.69848     -2050.605    21511821.579    88087312.01147
     -1597.879  
  22018811.411   115709631.06348     -3016.344    22018813.908    90163355.75346
     -2350.401  
  20655709.520   108546484.62549      1411.022    20655710.209    84581677.81347
      1099.496  
  20960305.138   110147156.80549      2632.668    20960308.086    85828964.01547
      2051.425  
  22171809.308   116513641.28448      1969.246    22171810.363    90789853.62946
      1534.472  
  24471984.338   128601127.83946     -2323.030    24471987.511   100208678.00444
     -1810.156  
  8  6  4  2 32 15.0000000  0  7G24G15G26G21G 9G18G10
  20832645.693   109476289.42649     -1637.871    20832648.948    85306208.21547
     -1276.265  
  21517677.029   113076152.05148     -2053.270    21517678.424    88111294.37448
     -1599.952  
  22027424.082   115754891.24048     -3018.316    22027426.855    90198623.42346
     -2351.934  
  20651694.326   108525384.35749      1402.082    20651695.161    84565236.05147
      1092.526  
  20952801.214   110107724.98548      2624.831    20952804.036    85798237.93547
      2045.319  
  22166189.272   116484107.39148      1968.593    22166190.319    90766840.17546
      1533.960  
  24478618.122   128635989.45146     -2325.179    24478621.325   100235842.89344
     -1811.832  
  8  6  4  2 32 30.0000000  0  7G24G15G26G21G 9G18G10
  20837331.985   109500915.99549     -1645.703    20837335.030    85325397.75048
     -1282.371  
  21523541.044   113106968.37948     -2055.773    21523542.626    88135307.08147
     -1601.906  
  22036042.007   115800178.30148     -3020.046    22036044.763    90233912.03646
     -2353.285  
  20647704.197   108504416.40149      1393.230    20647705.000    84548897.38447
      1085.632  
  20945319.893   110068410.96948      2616.910    20945322.927    85767603.63547
      2039.147  
  22160571.226   116454584.60948      1967.851    22160572.123    90743835.44646
      1533.386  
  24485256.795   128670876.66747     -2326.609    24485260.230   100263027.69545
     -1812.945  
  8  6  4  2 32 45.0000000  0  7G24G15G26G21G 9G18G10
  20842040.730   109525659.08449     -1653.285    20842043.655    85344678.06547
     -1288.276  
  21529412.417   113137823.61748     -2058.219    21529414.206    88159350.09847
     -1603.809  
  22044665.047   115845492.27548     -3021.554    22044667.467    90269221.63146
     -2354.460  
  20643739.284   108483581.17449      1384.703    20643740.247    84532662.13247
      1078.983  
  20937861.312   110029215.17249      2609.219    20937864.249    85737061.47147
      2033.152  
  22154955.282   116425072.87248      1967.172    22154956.199    90720839.26745
      1532.858  
  24491900.428   128705789.22546     -2328.434    24491904.130   100290232.25945
     -1814.367  
  8  6  4  2 33  0.0000000  0  7G24G15G26G21G 9G18G10
  20846771.837   109550521.47349     -1661.289    20846774.667    85364051.33247
     -1294.516  
  21535291.963   113168720.40548     -2060.973    21535293.540    88183425.51947
     -1605.956  
  22053293.635   115890835.59648     -3023.495    22053296.115    90304554.06046
     -2355.973  
  20639800.117   108462881.80649      1375.651    20639801.103    84516532.74947
      1071.933  
  20930425.631   109990140.99949      2601.136    20930428.656    85706614.05847
      2026.855  
  22149342.162   116395575.29248      1966.354    22149343.091    90697854.15445
      1532.222  
  24498549.387   128740730.02146     -2329.816    24498552.735   100317458.84145
     -1815.444  
  8  6  4  2 33 15.0000000  0  7G24G15G26G21G 9G18G10
  20851525.113   109575499.10649     -1669.039    20851527.767    85383514.41847
     -1300.554  
  21541178.521   113199654.50448     -2063.527    21541180.190    88207530.01947
     -1607.944  
  22061927.288   115936204.12248     -3025.391    22061929.365    90339906.15147
     -2357.449  
  20635886.287   108442314.36449      1366.745    20635887.402    84500506.16947
      1064.992  
  20923012.645   109951184.81049      2593.120    20923015.256    85676258.58047
      2020.609  
  22143730.890   116366088.17048      1965.531    22143731.731    90674877.19745
      1531.577  
  24505203.026   128775695.22446     -2331.762    24505206.674   100344704.42244
     -1816.961  
  8  6  4  2 33 30.0000000  0  7G24G15G26G21G 9G18G10
  20856300.596   109600594.31549     -1677.007    20856303.234    85403069.12647
     -1306.762  
  21547072.716   113230628.30348     -2066.293    21547074.244    88231665.43747
     -1610.102  
  22070565.953   115981600.11648     -3027.418    22070567.880    90375279.64846
     -2359.031  
  20631997.995   108421881.78449      1357.526    20631999.065    84484584.67547
      1057.809  
  20915622.792   109912349.27849      2584.905    20915624.980    85645997.13447
      2014.210  
  22138122.177   116336614.08948      1964.340    22138122.841    90651910.35645
      1530.651  
  24511861.850   128810687.55046     -2333.793    24511865.543   100371971.15744
     -1818.543  
  8  6  4  2 33 45.0000000  0  7G24G15G26G21G 9G18G10
  20861097.644   109625803.18849     -1684.715    20861100.245    85422712.39648
     -1312.770  
  21552973.573   113261637.73749     -2068.617    21552975.278    88255828.62447
     -1611.913  
  22079209.065   116027019.44148     -3028.934    22079211.098    90410671.30647
     -2360.211  
  20628134.848   108401580.40249      1348.983    20628135.862    84468765.40947
      1051.152  
  20908255.160   109873631.04649      2577.211    20908256.964    85615827.09047
      2008.214  
  22132515.216   116307149.40648      1963.972    22132515.726    90628950.87746
      1530.363  
  24518525.308   128845703.00546     -2335.331    24518528.519   100399255.86844
     -1819.745  
  8  6  4  2 34  0.0000000  0  7G24G15G26G21G 9G18G10
  20865916.643   109651128.60749     -1692.300    20865919.518    85442446.48348
     -1318.679  
  21558881.928   113292685.75948     -2071.069    21558883.463    88280021.86947
     -1613.824  
  22087856.814   116072464.91948     -3030.640    22087859.204    90446083.35146
     -2361.542  
  20624297.270   108381413.54249      1339.930    20624298.115    84453050.97748
      1044.097  
  20900910.175   109835033.57749      2569.125    20900912.008    85585751.16047
      2001.913  
  22126910.650   116277697.15048      1963.089    22126911.432    90606001.07346
      1529.675  
  24525193.489   128880744.90846     -2336.918    24525197.040   100426561.25245
     -1820.977  
  8  6  4  2 34 15.0000000  0  7G24G15G26G21G 9G18G10
  20870758.413   109676572.21549     -1700.246    20870761.316    85462272.64948
     -1324.871  
  21564797.737   113323773.79648     -2073.901    21564799.465    88304246.31747
     -1616.031  
  22096509.872   116117937.91948     -3032.598    22096512.194    90481516.83846
     -2363.066  
  20620485.759   108361383.23049      1330.727    20620486.604    84437442.94747
      1036.925  
  20893588.649   109796558.82449      2560.862    20893590.269    85555770.83247
      1995.477  
  22121308.798   116248259.22048      1962.012    22121309.564    90583062.45246
      1528.836  
  24531866.961   128915814.86345     -2339.187    24531870.706   100453888.42844
     -1822.745  
